[
  {
    "address": "418 2nd Ave",
    "city": "Cando",
    "county": "Towner County",
    "created_at": "2012-01-04T20:15:53Z",
    "id": 15048,
    "latitude": "48.490630",
    "longitude": "-99.208110",
    "mascot": "Cubs",
    "name": "Cando School",
    "primary_color": "Red",
    "secondary_color": "White",
    "state": "ND",
    "timezone": "America/Chicago",
    "updated_at": "2012-07-08T00:25:53Z",
    "zip": "58324"
  },
  {
    "address": "101 4th Ave W",
    "city": "Lignite",
    "county": "Burke County",
    "created_at": "2012-01-04T20:15:53Z",
    "id": 15049,
    "latitude": "48.875425",
    "longitude": "-102.563505",
    "mascot": "Panthers",
    "name": "Burke Central School",
    "primary_color": "Orange",
    "secondary_color": "Black",
    "state": "ND",
    "timezone": "America/Chicago",
    "updated_at": "2012-07-08T00:25:53Z",
    "zip": "58752"
  },
  {
    "address": "204 5th St NW",
    "city": "Beulah",
    "county": "Mercer County",
    "created_at": "2012-01-04T20:15:53Z",
    "id": 15050,
    "latitude": "47.268678",
    "longitude": "-101.779844",
    "mascot": "Miners",
    "name": "Beulah High School",
    "primary_color": "Gold",
    "secondary_color": "Royal",
    "state": "ND",
    "timezone": "America/North_Dakota/Beulah",
    "updated_at": "2012-07-08T00:25:53Z",
    "zip": "58523"
  },
  {
    "address": "3202 33rd Ave",
    "city": "Inkster",
    "county": "Grand Forks County",
    "created_at": "2012-01-04T20:15:53Z",
    "id": 15051,
    "latitude": "48.151280",
    "longitude": "-97.515308",
    "mascot": "Monarch Lions",
    "name": "Midway Public School",
    "primary_color": "Royal",
    "secondary_color": "White",
    "state": "ND",
    "timezone": "America/Chicago",
    "updated_at": "2012-07-08T00:25:54Z",
    "zip": "58244"
  },
  {
    "address": "502 2nd Ave",
    "city": "Oriska",
    "county": "Barnes County",
    "created_at": "2012-01-04T20:15:53Z",
    "id": 15052,
    "latitude": "46.934457",
    "longitude": "-97.790657",
    "mascot": "Flickers",
    "name": "Oriska School",
    "primary_color": "Royal",
    "secondary_color": "White",
    "state": "ND",
    "timezone": "America/Chicago",
    "updated_at": "2012-07-08T00:25:54Z",
    "zip": "58063"
  },
  {
    "address": "310 Elm Ave",
    "city": "New Salem",
    "county": "Morton County",
    "created_at": "2012-01-04T20:15:53Z",
    "id": 15053,
    "latitude": "46.845025",
    "longitude": "-101.410269",
    "mascot": "Holsteins",
    "name": "New Salem School",
    "primary_color": "Black",
    "secondary_color": "White",
    "state": "ND",
    "timezone": "America/North_Dakota/New_Salem",
    "updated_at": "2012-07-08T00:25:54Z",
    "zip": "58563"
  },
  {
    "address": "100 East Third Street",
    "city": "Watford City",
    "county": "McKenzie County",
    "created_at": "2012-01-04T20:15:53Z",
    "id": 15054,
    "latitude": "47.801202",
    "longitude": "-103.280061",
    "mascot": "Wolves",
    "name": "Watford City High School",
    "primary_color": "Maroon",
    "secondary_color": "White",
    "state": "ND",
    "timezone": "America/Chicago",
    "updated_at": "2012-07-08T00:25:55Z",
    "zip": "58854"
  },
  {
    "address": "101 High St. NW",
    "city": "Killdeer",
    "county": "Dunn County",
    "created_at": "2012-01-04T20:15:53Z",
    "id": 15055,
    "latitude": "47.372023",
    "longitude": "-102.754421",
    "mascot": "Cowboys",
    "name": "Killdeer Public School",
    "primary_color": "Orange",
    "secondary_color": "Black",
    "state": "ND",
    "timezone": "America/Denver",
    "updated_at": "2012-07-08T00:25:55Z",
    "zip": "58640"
  },
  {
    "address": "410 7th Ave",
    "city": "Munich",
    "county": "Cavalier County",
    "created_at": "2012-01-04T20:15:53Z",
    "id": 15056,
    "latitude": "48.666870",
    "longitude": "-98.834677",
    "mascot": "Magic Stars",
    "name": "Munich School",
    "primary_color": "Orange",
    "secondary_color": "Purple",
    "state": "ND",
    "timezone": "America/Chicago",
    "updated_at": "2012-07-08T00:25:55Z",
    "zip": "58352"
  },
  {
    "address": "5811 N Sargent Rd",
    "city": "Gwinner",
    "county": "Sargent County",
    "created_at": "2012-01-04T20:15:53Z",
    "id": 15057,
    "latitude": "46.225713",
    "longitude": "-97.726549",
    "mascot": "Bobcats",
    "name": "North Sargent School",
    "primary_color": "Red",
    "secondary_color": "White",
    "state": "ND",
    "timezone": "America/Chicago",
    "updated_at": "2012-07-08T00:25:55Z",
    "zip": "58040"
  },
  {
    "address": "1915 Shiloh Dr",
    "city": "Bismarck",
    "county": "Burleigh County",
    "created_at": "2012-01-04T20:15:53Z",
    "id": 15058,
    "latitude": "46.834432",
    "longitude": "-100.761845",
    "mascot": "Sky Hawks",
    "name": "Shiloh Christian School",
    "primary_color": "Gold",
    "secondary_color": "Royal",
    "state": "ND",
    "timezone": "America/Chicago",
    "updated_at": "2012-07-08T00:25:55Z",
    "zip": "58501"
  },
  {
    "address": "100 3rd Ave S",
    "city": "Carrington",
    "county": "Foster County",
    "created_at": "2012-01-04T20:15:53Z",
    "id": 15059,
    "latitude": "47.448392",
    "longitude": "-99.115880",
    "mascot": "Cardinals",
    "name": "Carrington Junior Senior High School",
    "primary_color": "Red",
    "secondary_color": "White",
    "state": "ND",
    "timezone": "America/Chicago",
    "updated_at": "2012-07-08T00:25:56Z",
    "zip": "58421"
  },
  {
    "address": "10860 20 1/2 St SE",
    "city": "Rogers",
    "county": "Barnes County",
    "created_at": "2012-01-04T20:15:53Z",
    "id": 15060,
    "latitude": "47.119068",
    "longitude": "-98.197948",
    "mascot": "Corvairs",
    "name": "North Central Public School",
    "primary_color": "Red",
    "secondary_color": "Royal",
    "state": "ND",
    "timezone": "America/Chicago",
    "updated_at": "2012-07-08T00:25:56Z",
    "zip": "58479"
  },
  {
    "address": "424 3rd St",
    "city": "Thompson",
    "county": "Grand Forks County",
    "created_at": "2012-01-04T20:15:53Z",
    "id": 15061,
    "latitude": "47.775608",
    "longitude": "-97.106763",
    "mascot": "Tommies",
    "name": "Thompson Public School",
    "primary_color": "Gold",
    "secondary_color": "Hunter Green",
    "state": "ND",
    "timezone": "America/Chicago",
    "updated_at": "2012-07-08T00:25:56Z",
    "zip": "58278"
  },
  {
    "address": "206 3rd Ave",
    "city": "Flasher",
    "county": "Morton County",
    "created_at": "2012-01-04T20:15:53Z",
    "id": 15062,
    "latitude": "46.455375",
    "longitude": "-101.228763",
    "mascot": "Bulldogs",
    "name": "Flasher School",
    "primary_color": "Red",
    "secondary_color": "Black",
    "state": "ND",
    "timezone": "America/North_Dakota/New_Salem",
    "updated_at": "2012-07-08T00:25:57Z",
    "zip": "58535"
  },
  {
    "address": "1200 Main St",
    "city": "New England",
    "county": "Hettinger County",
    "created_at": "2012-01-04T20:15:53Z",
    "id": 15063,
    "latitude": "46.543310",
    "longitude": "-102.868009",
    "mascot": "Tigers",
    "name": "New England School",
    "primary_color": "Orange",
    "secondary_color": "Black",
    "state": "ND",
    "timezone": "America/Denver",
    "updated_at": "2012-07-08T00:25:57Z",
    "zip": "58647"
  },
  {
    "address": "209 S 8th St",
    "city": "Hettinger",
    "county": "Adams County",
    "created_at": "2012-01-04T20:15:53Z",
    "id": 15064,
    "latitude": "46.000000",
    "longitude": "-102.632478",
    "mascot": "Black Devils",
    "name": "Hettinger Public School",
    "primary_color": "Black",
    "secondary_color": "White",
    "state": "ND",
    "timezone": "America/Denver",
    "updated_at": "2012-07-08T00:25:57Z",
    "zip": "58639"
  },
  {
    "address": "605 10th St",
    "city": "Walhalla",
    "county": "Pembina County",
    "created_at": "2012-01-04T20:15:53Z",
    "id": 15065,
    "latitude": "48.924181",
    "longitude": "-97.917616",
    "mascot": "Eagles",
    "name": "Walhalla Public School",
    "primary_color": "Gold",
    "secondary_color": "Navy",
    "state": "ND",
    "timezone": "America/Chicago",
    "updated_at": "2012-07-08T00:25:58Z",
    "zip": "58282"
  },
  {
    "address": "28 3rd Ave SE",
    "city": "Lidgerwood",
    "county": "Richland County",
    "created_at": "2012-01-04T20:15:53Z",
    "id": 15066,
    "latitude": "46.075075",
    "longitude": "-97.147557",
    "mascot": "Cardinals",
    "name": "Lidgerwood Public School",
    "primary_color": "Red",
    "secondary_color": "White",
    "state": "ND",
    "timezone": "America/Chicago",
    "updated_at": "2012-07-08T00:25:58Z",
    "zip": "58053"
  },
  {
    "address": "322 Bailey Ave",
    "city": "Montpelier",
    "county": "Stutsman County",
    "created_at": "2012-01-04T20:15:53Z",
    "id": 15067,
    "latitude": "46.700385",
    "longitude": "-98.589754",
    "mascot": null,
    "name": "Montpelier School",
    "primary_color": "Maroon",
    "secondary_color": "White",
    "state": "ND",
    "timezone": "America/Chicago",
    "updated_at": "2012-07-08T00:25:58Z",
    "zip": "58472"
  },
  {
    "address": "300 School St SE",
    "city": "Medina",
    "county": "Stutsman County",
    "created_at": "2012-01-04T20:15:53Z",
    "id": 15068,
    "latitude": "46.892232",
    "longitude": "-99.296985",
    "mascot": "Cardinals",
    "name": "Medina Public School",
    "primary_color": "Red",
    "secondary_color": "White",
    "state": "ND",
    "timezone": "America/Chicago",
    "updated_at": "2012-07-08T00:25:59Z",
    "zip": "58467"
  },
  {
    "address": "2nd Ave E",
    "city": "Gackle",
    "county": "Logan County",
    "created_at": "2012-01-04T20:15:53Z",
    "id": 15069,
    "latitude": "46.627550",
    "longitude": "-99.138649",
    "mascot": "Orioles",
    "name": "Gackle Streeter Public School #56",
    "primary_color": "Orange",
    "secondary_color": "Black",
    "state": "ND",
    "timezone": "America/Chicago",
    "updated_at": "2012-07-08T00:25:59Z",
    "zip": "58442"
  },
  {
    "address": "100 Foussard Ave",
    "city": "Saint John",
    "county": "Rolette County",
    "created_at": "2012-01-04T20:15:53Z",
    "id": 15070,
    "latitude": "48.944296",
    "longitude": "-99.710801",
    "mascot": "Woodchucks",
    "name": "St. John School",
    "primary_color": "Black",
    "secondary_color": "Kelly Green",
    "state": "ND",
    "timezone": "America/Chicago",
    "updated_at": "2012-07-08T00:25:59Z",
    "zip": "58369"
  },
  {
    "address": "600 Railroad Ave E",
    "city": "Powers Lake",
    "county": "Burke County",
    "created_at": "2012-01-04T20:15:53Z",
    "id": 15071,
    "latitude": "48.561150",
    "longitude": "-102.636989",
    "mascot": "Ranchers",
    "name": "Powers Lake Junior Senior High School",
    "primary_color": "Gold",
    "secondary_color": "Maroon",
    "state": "ND",
    "timezone": "America/Chicago",
    "updated_at": "2012-07-08T00:25:59Z",
    "zip": "58773"
  },
  {
    "address": "108 S 5th St",
    "city": "Drayton",
    "county": "Pembina County",
    "created_at": "2012-01-04T20:15:53Z",
    "id": 15072,
    "latitude": "48.561449",
    "longitude": "-97.183245",
    "mascot": "Bombers",
    "name": "Drayton Public School",
    "primary_color": "Red",
    "secondary_color": "Black",
    "state": "ND",
    "timezone": "America/Chicago",
    "updated_at": "2012-07-08T00:26:00Z",
    "zip": "58225"
  },
  {
    "address": "101 Date Ave",
    "city": "Wyndmere",
    "county": "Richland County",
    "created_at": "2012-01-04T20:15:53Z",
    "id": 15073,
    "latitude": "46.263672",
    "longitude": "-97.126498",
    "mascot": "Warriors",
    "name": "Wyndmere Public School",
    "primary_color": "Gold",
    "secondary_color": "Maroon",
    "state": "ND",
    "timezone": "America/Chicago",
    "updated_at": "2012-07-08T00:26:00Z",
    "zip": "58081"
  },
  {
    "address": "Campus Dr Box 398",
    "city": "Maddock",
    "county": "Benson County",
    "created_at": "2012-01-04T20:15:53Z",
    "id": 15074,
    "latitude": "47.940890",
    "longitude": "-99.533606",
    "mascot": "Bobcats",
    "name": "Maddock Public School",
    "primary_color": "Royal Blue",
    "secondary_color": "Gold",
    "state": "ND",
    "timezone": "America/Chicago",
    "updated_at": "2012-07-08T00:26:00Z",
    "zip": "58348"
  },
  {
    "address": "12 4th St NE",
    "city": "Hillsboro",
    "county": "Traill County",
    "created_at": "2012-01-04T20:15:53Z",
    "id": 15075,
    "latitude": "47.404048",
    "longitude": "-97.055255",
    "mascot": "Burros",
    "name": "Hillsboro Junior Senior High School",
    "primary_color": "Royal",
    "secondary_color": "White",
    "state": "ND",
    "timezone": "America/Chicago",
    "updated_at": "2012-07-08T00:26:00Z",
    "zip": "58045"
  },
  {
    "address": "200 Madison Ave",
    "city": "Bowbells",
    "county": "Burke County",
    "created_at": "2012-01-04T20:15:53Z",
    "id": 15076,
    "latitude": "48.805303",
    "longitude": "-102.247099",
    "mascot": "Titans",
    "name": "Bowbells Public School",
    "primary_color": "Ash Grey",
    "secondary_color": "Black",
    "state": "ND",
    "timezone": "America/Chicago",
    "updated_at": "2012-07-08T00:26:01Z",
    "zip": "58721"
  },
  {
    "address": "307 Main St",
    "city": "Strasburg",
    "county": "Emmons County",
    "created_at": "2012-01-04T20:15:53Z",
    "id": 15077,
    "latitude": "46.133818",
    "longitude": "-100.165566",
    "mascot": "Windjammers",
    "name": "Strasburg School",
    "primary_color": "Gold",
    "secondary_color": "Purple",
    "state": "ND",
    "timezone": "America/Chicago",
    "updated_at": "2012-07-08T00:26:01Z",
    "zip": "58573"
  },
  {
    "address": "210 4th Ave",
    "city": "Warwick",
    "county": "Benson County",
    "created_at": "2012-01-04T20:15:53Z",
    "id": 15078,
    "latitude": "47.857270",
    "longitude": "-98.711774",
    "mascot": "Warriors",
    "name": "Warwick Public School",
    "primary_color": "Orange",
    "secondary_color": "Black",
    "state": "ND",
    "timezone": "America/Chicago",
    "updated_at": "2012-07-08T00:26:01Z",
    "zip": "58381"
  },
  {
    "address": "375 Heritage St",
    "city": "Saint Thomas",
    "county": "Pembina County",
    "created_at": "2012-01-04T20:15:53Z",
    "id": 15079,
    "latitude": "48.619489",
    "longitude": "-97.450531",
    "mascot": "Blue Knights",
    "name": "Saint Thomas Public School",
    "primary_color": "Gray",
    "secondary_color": "Navy",
    "state": "ND",
    "timezone": "America/Chicago",
    "updated_at": "2012-07-08T00:26:01Z",
    "zip": "58276"
  },
  {
    "address": "1215 N 19th St",
    "city": "Bismarck",
    "county": "Burleigh County",
    "created_at": "2012-01-04T20:15:53Z",
    "id": 15080,
    "latitude": "46.817852",
    "longitude": "-100.763253",
    "mascot": "Spartans",
    "name": "Simle Middle School",
    "primary_color": "Gold",
    "secondary_color": "Maroon",
    "state": "ND",
    "timezone": "America/Chicago",
    "updated_at": "2012-07-08T00:26:02Z",
    "zip": "58501"
  },
  {
    "address": "124 N Terrace Rd",
    "city": "Fargo",
    "county": "Cass County",
    "created_at": "2012-01-04T20:15:53Z",
    "id": 15081,
    "latitude": "46.905210",
    "longitude": "-96.803116",
    "mascot": "Grovers",
    "name": "Oak Grove Lutheran High School",
    "primary_color": "Maroon",
    "secondary_color": "White",
    "state": "ND",
    "timezone": "America/Chicago",
    "updated_at": "2012-07-08T00:26:02Z",
    "zip": "58102"
  },
  {
    "address": "1025 N 2nd St",
    "city": "Bismarck",
    "county": "Burleigh County",
    "created_at": "2012-01-04T20:15:53Z",
    "id": 15082,
    "latitude": "46.815618",
    "longitude": "-100.788983",
    "mascot": "Saints",
    "name": "Saint Marys Central High School",
    "primary_color": "Royal",
    "secondary_color": "White",
    "state": "ND",
    "timezone": "America/Chicago",
    "updated_at": "2012-07-08T00:26:02Z",
    "zip": "58501"
  },
  {
    "address": "5600 25th Street SW",
    "city": "Fargo",
    "county": "Cass County",
    "created_at": "2012-01-04T20:15:53Z",
    "id": 15083,
    "latitude": "46.798845",
    "longitude": "-96.818840",
    "mascot": "Deacons",
    "name": "Shanley High School",
    "primary_color": "Red",
    "secondary_color": "White",
    "state": "ND",
    "timezone": "America/Chicago",
    "updated_at": "2012-07-08T00:26:03Z",
    "zip": "58104"
  },
  {
    "address": "430 1st Ave N",
    "city": "New Rockford",
    "county": "Eddy County",
    "created_at": "2012-01-04T20:15:53Z",
    "id": 15084,
    "latitude": "47.681128",
    "longitude": "-99.131810",
    "mascot": "Rockets",
    "name": "New Rockford Public School",
    "primary_color": "Gold",
    "secondary_color": "Columbia Blue",
    "state": "ND",
    "timezone": "America/Chicago",
    "updated_at": "2012-07-08T00:26:03Z",
    "zip": "58356"
  },
  {
    "address": "575 5th St SW",
    "city": "Forman",
    "county": "Sargent County",
    "created_at": "2012-01-04T20:15:53Z",
    "id": 15085,
    "latitude": "46.104971",
    "longitude": "-97.639194",
    "mascot": "Cadets",
    "name": "Sargent Central School",
    "primary_color": "Royal",
    "secondary_color": "White",
    "state": "ND",
    "timezone": "America/Chicago",
    "updated_at": "2012-07-08T00:26:03Z",
    "zip": "58032"
  },
  {
    "address": "200 2nd St SE",
    "city": "Surrey",
    "county": "Ward County",
    "created_at": "2012-01-04T20:15:53Z",
    "id": 15086,
    "latitude": "48.236480",
    "longitude": "-101.129359",
    "mascot": "Mustangs",
    "name": "Surrey Public School",
    "primary_color": "Royal",
    "secondary_color": "White",
    "state": "ND",
    "timezone": "America/Chicago",
    "updated_at": "2012-07-08T00:26:03Z",
    "zip": "58785"
  },
  {
    "address": "800 N 8th St",
    "city": "Bismarck",
    "county": "Burleigh County",
    "created_at": "2012-01-04T20:15:53Z",
    "id": 15087,
    "latitude": "46.812891",
    "longitude": "-100.779934",
    "mascot": "Demons",
    "name": "Bismarck High School",
    "primary_color": "Maroon",
    "secondary_color": "White",
    "state": "ND",
    "timezone": "America/Chicago",
    "updated_at": "2012-07-08T00:26:04Z",
    "zip": "58501"
  },
  {
    "address": "1000 E Century Ave",
    "city": "Bismarck",
    "county": "Burleigh County",
    "created_at": "2012-01-04T20:15:53Z",
    "id": 15088,
    "latitude": "46.838093",
    "longitude": "-100.776928",
    "mascot": "Patriots",
    "name": "Century Senior High School",
    "primary_color": "Columbia Blue",
    "secondary_color": "Red",
    "state": "ND",
    "timezone": "America/Chicago",
    "updated_at": "2012-07-08T00:26:04Z",
    "zip": "58503"
  },
  {
    "address": "2211 17th Ave S",
    "city": "Grand Forks",
    "county": "Grand Forks County",
    "created_at": "2012-01-04T20:15:53Z",
    "id": 15089,
    "latitude": "47.903952",
    "longitude": "-97.059753",
    "mascot": "Roughriders",
    "name": "Red River Senior High School",
    "primary_color": "Red",
    "secondary_color": "White",
    "state": "ND",
    "timezone": "America/Chicago",
    "updated_at": "2012-07-08T00:26:04Z",
    "zip": "58201"
  },
  {
    "address": "1601 N College Dr",
    "city": "Devils Lake",
    "county": "Ramsey County",
    "created_at": "2012-01-04T20:15:53Z",
    "id": 15090,
    "latitude": "48.124742",
    "longitude": "-98.865720",
    "mascot": "Satans",
    "name": "Devils Lake High School",
    "primary_color": "Red",
    "secondary_color": "Black",
    "state": "ND",
    "timezone": "America/Chicago",
    "updated_at": "2012-07-08T00:26:05Z",
    "zip": "58301"
  },
  {
    "address": "502 W Highland Dr",
    "city": "Williston",
    "county": "Williams County",
    "created_at": "2012-01-04T20:15:53Z",
    "id": 15091,
    "latitude": "48.156007",
    "longitude": "-103.630098",
    "mascot": "Coyotes",
    "name": "Williston High School",
    "primary_color": "Orange",
    "secondary_color": "Black",
    "state": "ND",
    "timezone": "America/Chicago",
    "updated_at": "2012-07-08T00:26:05Z",
    "zip": "58801"
  },
  {
    "address": "308 3rd St NE",
    "city": "Belfield",
    "county": "Stark County",
    "created_at": "2012-01-04T20:15:53Z",
    "id": 15092,
    "latitude": "46.887720",
    "longitude": "-103.196001",
    "mascot": "Bantams",
    "name": "Belfield Public School",
    "primary_color": "Ash Grey",
    "secondary_color": "White",
    "state": "ND",
    "timezone": "America/Denver",
    "updated_at": "2012-07-08T00:26:05Z",
    "zip": "58622"
  },
  {
    "address": "211 4th St",
    "city": "Goodrich",
    "county": "Sheridan County",
    "created_at": "2012-01-04T20:15:53Z",
    "id": 15093,
    "latitude": "47.472421",
    "longitude": "-100.134806",
    "mascot": "Coyotes",
    "name": "Goodrich High School",
    "primary_color": "Red",
    "secondary_color": "Royal",
    "state": "ND",
    "timezone": "America/Chicago",
    "updated_at": "2012-07-08T00:26:05Z",
    "zip": "58444"
  },
  {
    "address": "401 3rd Ave SW",
    "city": "Wolford",
    "county": "Pierce County",
    "created_at": "2012-01-04T20:15:53Z",
    "id": 15094,
    "latitude": "48.497528",
    "longitude": "-99.704611",
    "mascot": "Wolves",
    "name": "Wolford School",
    "primary_color": "Gold",
    "secondary_color": "Kelly Green",
    "state": "ND",
    "timezone": "America/Chicago",
    "updated_at": "2012-07-08T00:26:06Z",
    "zip": "58385"
  },
  {
    "address": "1107 South 7th St",
    "city": "Bismarck",
    "county": "Burleigh County",
    "created_at": "2012-01-04T20:15:53Z",
    "id": 15095,
    "latitude": "46.793475",
    "longitude": "-100.782467",
    "mascot": null,
    "name": "Wachter Middle School",
    "primary_color": "Purple",
    "secondary_color": "Gold",
    "state": "ND",
    "timezone": "America/Chicago",
    "updated_at": "2012-07-08T00:26:06Z",
    "zip": "58504"
  },
  {
    "address": "320 Raider Rd",
    "city": "Richardton",
    "county": "Stark County",
    "created_at": "2012-01-04T20:15:53Z",
    "id": 15096,
    "latitude": "46.885860",
    "longitude": "-102.307009",
    "mascot": "Raiders",
    "name": "Richardton-Taylor High School",
    "primary_color": "Royal",
    "secondary_color": "Gray",
    "state": "ND",
    "timezone": "America/Denver",
    "updated_at": "2012-07-08T00:26:06Z",
    "zip": "58652"
  },
  {
    "address": "Solen Cannon Ball St",
    "city": "Solen",
    "county": "Sioux County",
    "created_at": "2012-01-04T20:15:53Z",
    "id": 15097,
    "latitude": "46.385905",
    "longitude": "-100.797219",
    "mascot": null,
    "name": "Solen School 3",
    "primary_color": "Royal",
    "secondary_color": "Gold",
    "state": "ND",
    "timezone": "America/Chicago",
    "updated_at": "2012-07-08T00:26:07Z",
    "zip": "58570"
  },
  {
    "address": "Badger St S",
    "city": "Wishek",
    "county": "McIntosh County",
    "created_at": "2012-01-04T20:15:53Z",
    "id": 15098,
    "latitude": "46.258540",
    "longitude": "-99.550559",
    "mascot": "Badgers",
    "name": "Wishek Public School",
    "primary_color": "Royal",
    "secondary_color": "Black",
    "state": "ND",
    "timezone": "America/Chicago",
    "updated_at": "2012-07-08T00:26:07Z",
    "zip": "58495"
  },
  {
    "address": "9189 Hwy 24",
    "city": "Fort Yates",
    "county": "Sioux County",
    "created_at": "2012-01-04T20:15:53Z",
    "id": 15099,
    "latitude": "46.032254",
    "longitude": "-100.750291",
    "mascot": "Warriors",
    "name": "Standing Rock BIA High School",
    "primary_color": "Royal",
    "secondary_color": "Gold",
    "state": "ND",
    "timezone": "America/Chicago",
    "updated_at": "2012-07-08T00:26:07Z",
    "zip": "58538"
  },
  {
    "address": "15905 Sheyenne Cir",
    "city": "Bismarck",
    "county": "Burleigh County",
    "created_at": "2012-01-04T20:15:53Z",
    "id": 15100,
    "latitude": "46.979530",
    "longitude": "-100.883230",
    "mascot": "Knights",
    "name": "Dakota Adventist Academy",
    "primary_color": "Navy",
    "secondary_color": "White",
    "state": "ND",
    "timezone": "America/Chicago",
    "updated_at": "2012-07-08T00:26:07Z",
    "zip": "58503"
  },
  {
    "address": "401 4th Ave",
    "city": "Berthold",
    "county": "Ward County",
    "created_at": "2012-01-04T20:15:53Z",
    "id": 15101,
    "latitude": "48.316447",
    "longitude": "-101.730257",
    "mascot": "Bombers",
    "name": "Berthold School",
    "primary_color": "Gold",
    "secondary_color": "Purple",
    "state": "ND",
    "timezone": "America/Chicago",
    "updated_at": "2012-07-08T00:26:08Z",
    "zip": "58718"
  },
  {
    "address": "219 Ave D W",
    "city": "McClusky",
    "county": "Sheridan County",
    "created_at": "2012-01-04T20:15:53Z",
    "id": 15102,
    "latitude": "47.482930",
    "longitude": "-100.442739",
    "mascot": "Coyotes",
    "name": "McClusky High School",
    "primary_color": "Red",
    "secondary_color": "White",
    "state": "ND",
    "timezone": "America/Chicago",
    "updated_at": "2012-07-08T00:26:08Z",
    "zip": "58463"
  },
  {
    "address": "706 3rd St W",
    "city": "Anamoose",
    "county": "McHenry County",
    "created_at": "2012-01-04T20:15:53Z",
    "id": 15103,
    "latitude": "47.882731",
    "longitude": "-100.245653",
    "mascot": "Raiders",
    "name": "Anamoose Public School",
    "primary_color": "Gray",
    "secondary_color": "Black",
    "state": "ND",
    "timezone": "America/Chicago",
    "updated_at": "2012-07-08T00:26:08Z",
    "zip": "58710"
  },
  {
    "address": "211 Hazel Ave",
    "city": "Hazelton",
    "county": "Emmons County",
    "created_at": "2012-01-04T20:15:53Z",
    "id": 15104,
    "latitude": "46.486602",
    "longitude": "-100.281029",
    "mascot": "Tigers",
    "name": "Hazelton-Moffit-Braddock Public Schools",
    "primary_color": "Gold",
    "secondary_color": "Black",
    "state": "ND",
    "timezone": "America/Chicago",
    "updated_at": "2012-07-08T00:26:08Z",
    "zip": "58544"
  },
  {
    "address": "219 W Main St",
    "city": "Regent",
    "county": "Hettinger County",
    "created_at": "2012-01-04T20:15:53Z",
    "id": 15105,
    "latitude": "46.421074",
    "longitude": "-102.557404",
    "mascot": "Rangers",
    "name": "Regent Public School",
    "primary_color": "Gold",
    "secondary_color": "Maroon",
    "state": "ND",
    "timezone": "America/Denver",
    "updated_at": "2012-07-08T00:26:09Z",
    "zip": "58650"
  },
  {
    "address": "410 Bluff St",
    "city": "Enderlin",
    "county": "Ransom County",
    "created_at": "2012-01-04T20:15:53Z",
    "id": 15106,
    "latitude": "46.622358",
    "longitude": "-97.603018",
    "mascot": "Eagles",
    "name": "Enderlin Public School",
    "primary_color": "Orange",
    "secondary_color": "Black",
    "state": "ND",
    "timezone": "America/Chicago",
    "updated_at": "2012-07-08T00:26:09Z",
    "zip": "58027"
  },
  {
    "address": "300 Booth Ave",
    "city": "Larimore",
    "county": "Grand Forks County",
    "created_at": "2012-01-04T20:15:54Z",
    "id": 15107,
    "latitude": "47.905838",
    "longitude": "-97.626945",
    "mascot": "Polar Bears",
    "name": "Larimore Junior Senior High School",
    "primary_color": "Black",
    "secondary_color": "Orange",
    "state": "ND",
    "timezone": "America/Chicago",
    "updated_at": "2012-07-08T00:26:14Z",
    "zip": "58251"
  },
  {
    "address": "250 3rd Ave W",
    "city": "Turtle Lake",
    "county": "McLean County",
    "created_at": "2012-01-04T20:15:54Z",
    "id": 15108,
    "latitude": "47.519943",
    "longitude": "-100.892371",
    "mascot": "Trojans",
    "name": "Turtle Lake-Mercer Public School",
    "primary_color": "Gold",
    "secondary_color": "Black",
    "state": "ND",
    "timezone": "America/Chicago",
    "updated_at": "2012-07-08T00:26:15Z",
    "zip": "58575"
  },
  {
    "address": "105 1st Ave SW",
    "city": "Kulm",
    "county": "LaMoure County",
    "created_at": "2012-01-04T20:15:54Z",
    "id": 15109,
    "latitude": "46.301475",
    "longitude": "-98.950515",
    "mascot": "Gophers",
    "name": "Kulm High School",
    "primary_color": "Maroon",
    "secondary_color": "White",
    "state": "ND",
    "timezone": "America/Chicago",
    "updated_at": "2012-07-08T00:26:15Z",
    "zip": "58456"
  },
  {
    "address": "111 Lincoln Ave",
    "city": "Pingree",
    "county": "Stutsman County",
    "created_at": "2012-01-04T20:15:54Z",
    "id": 15110,
    "latitude": "47.167441",
    "longitude": "-98.911567",
    "mascot": "Rebels",
    "name": "Pingree-Buchanan High School",
    "primary_color": "Red",
    "secondary_color": "White",
    "state": "ND",
    "timezone": "America/Chicago",
    "updated_at": "2012-07-08T00:26:15Z",
    "zip": "58476"
  },
  {
    "address": "11024 Hwy 23",
    "city": "Watford City",
    "county": "McKenzie County",
    "created_at": "2012-01-04T20:15:54Z",
    "id": 15111,
    "latitude": "47.804147",
    "longitude": "-102.945104",
    "mascot": "Jaguars",
    "name": "Johnson Corners Christian Academy",
    "primary_color": "Royal",
    "secondary_color": "White",
    "state": "ND",
    "timezone": "America/Chicago",
    "updated_at": "2012-07-08T00:26:15Z",
    "zip": "58854"
  },
  {
    "address": "55 1st Ave S",
    "city": "Kindred",
    "county": "Cass County",
    "created_at": "2012-01-04T20:15:54Z",
    "id": 15112,
    "latitude": "46.647929",
    "longitude": "-97.010761",
    "mascot": "Vikings",
    "name": "Kindred School",
    "primary_color": "Red",
    "secondary_color": "White",
    "state": "ND",
    "timezone": "America/Chicago",
    "updated_at": "2012-07-08T00:26:15Z",
    "zip": "58051"
  },
  {
    "address": "810 Empire Rd",
    "city": "Dickinson",
    "county": "Stark County",
    "created_at": "2012-01-04T20:15:54Z",
    "id": 15113,
    "latitude": "46.890546",
    "longitude": "-102.798411",
    "mascot": "Titans",
    "name": "Trinity High School",
    "primary_color": "Red",
    "secondary_color": "White",
    "state": "ND",
    "timezone": "America/Denver",
    "updated_at": "2012-07-08T00:26:16Z",
    "zip": "58601"
  },
  {
    "address": "316 11th Ave NW",
    "city": "Minot",
    "county": "Ward County",
    "created_at": "2012-01-04T20:15:54Z",
    "id": 15114,
    "latitude": "48.247238",
    "longitude": "-101.297831",
    "mascot": "Lions",
    "name": "Bishop Ryan Junior Senior High School",
    "primary_color": "Purple",
    "secondary_color": "White",
    "state": "ND",
    "timezone": "America/Chicago",
    "updated_at": "2012-07-08T00:26:16Z",
    "zip": "58703"
  },
  {
    "address": "School St",
    "city": "Mylo",
    "county": "Rolette County",
    "created_at": "2012-01-04T20:15:54Z",
    "id": 15115,
    "latitude": "48.641631",
    "longitude": "-99.619735",
    "mascot": null,
    "name": "Salem Mennonite School",
    "primary_color": null,
    "secondary_color": null,
    "state": "ND",
    "timezone": "America/Chicago",
    "updated_at": "2012-07-08T00:26:16Z",
    "zip": "58353"
  },
  {
    "address": "PO Box 5007",
    "city": "Minot",
    "county": "Ward County",
    "created_at": "2012-01-04T20:15:54Z",
    "id": 15116,
    "latitude": "48.236430",
    "longitude": "-101.295979",
    "mascot": null,
    "name": "Dakota Memorial High School",
    "primary_color": null,
    "secondary_color": null,
    "state": "ND",
    "timezone": "America/Chicago",
    "updated_at": "2012-07-08T00:26:17Z",
    "zip": "58702"
  },
  {
    "address": "2045 3rd St NW",
    "city": "Minot",
    "county": "Ward County",
    "created_at": "2012-01-04T20:15:54Z",
    "id": 15117,
    "latitude": "48.257329",
    "longitude": "-101.297662",
    "mascot": "Eagles",
    "name": "Dakota Baptist Home School Cooperative",
    "primary_color": "Gray",
    "secondary_color": "Maroon",
    "state": "ND",
    "timezone": "America/Chicago",
    "updated_at": "2012-07-08T00:26:17Z",
    "zip": "58703"
  },
  {
    "address": "700 16th Ave SE",
    "city": "Minot",
    "county": "Ward County",
    "created_at": "2012-01-04T20:15:54Z",
    "id": 15118,
    "latitude": "48.218218",
    "longitude": "-101.283980",
    "mascot": "Knights",
    "name": "Our Redeemer's Christian School",
    "primary_color": "Royal",
    "secondary_color": "White",
    "state": "ND",
    "timezone": "America/Chicago",
    "updated_at": "2012-07-08T00:26:17Z",
    "zip": "58701"
  },
  {
    "address": "2 2nd Ave W",
    "city": "Roseglen",
    "county": "McLean County",
    "created_at": "2012-01-04T20:15:54Z",
    "id": 15119,
    "latitude": "47.665807",
    "longitude": "-101.843468",
    "mascot": null,
    "name": "White Shield BIA School",
    "primary_color": "Red",
    "secondary_color": "Black",
    "state": "ND",
    "timezone": "America/Chicago",
    "updated_at": "2012-07-08T00:26:18Z",
    "zip": "58775"
  },
  {
    "address": "460 N Central Ave",
    "city": "Valley City",
    "county": "Barnes County",
    "created_at": "2012-01-04T20:15:54Z",
    "id": 15120,
    "latitude": "46.927231",
    "longitude": "-98.003118",
    "mascot": null,
    "name": "Valley City Junior High School",
    "primary_color": "Columbia Blue",
    "secondary_color": "White",
    "state": "ND",
    "timezone": "America/Chicago",
    "updated_at": "2012-07-08T00:26:18Z",
    "zip": "58072"
  },
  {
    "address": "460 N Central Ave",
    "city": "Valley City",
    "county": "Barnes County",
    "created_at": "2012-01-04T20:15:54Z",
    "id": 15121,
    "latitude": "46.927231",
    "longitude": "-98.003118",
    "mascot": null,
    "name": "Valley City Senior High School",
    "primary_color": "Columbia Blue",
    "secondary_color": "White",
    "state": "ND",
    "timezone": "America/Chicago",
    "updated_at": "2012-07-08T00:26:18Z",
    "zip": "58072"
  },
  {
    "address": "1234 Education Dr",
    "city": "Wimbledon",
    "county": "Barnes County",
    "created_at": "2012-01-04T20:15:54Z",
    "id": 15122,
    "latitude": "47.143380",
    "longitude": "-98.425542",
    "mascot": "Warriors",
    "name": "Wimbledon Courtenay School",
    "primary_color": "Gold",
    "secondary_color": "Black",
    "state": "ND",
    "timezone": "America/Chicago",
    "updated_at": "2012-07-08T00:26:18Z",
    "zip": "58492"
  },
  {
    "address": "200 D Ave S",
    "city": "Minnewaukan",
    "county": "Benson County",
    "created_at": "2012-01-04T20:15:54Z",
    "id": 15123,
    "latitude": "48.070801",
    "longitude": "-99.246723",
    "mascot": "Midgets",
    "name": "Minnewaukan School",
    "primary_color": "Gold",
    "secondary_color": "Purple",
    "state": "ND",
    "timezone": "America/Chicago",
    "updated_at": "2012-07-08T00:26:18Z",
    "zip": "58351"
  },
  {
    "address": "7268 Hwy 57",
    "city": "Fort Totten",
    "county": "Benson County",
    "created_at": "2012-01-04T20:15:54Z",
    "id": 15124,
    "latitude": "47.987530",
    "longitude": "-98.996314",
    "mascot": "Indians",
    "name": "Four Winds Community High School",
    "primary_color": "Royal",
    "secondary_color": "White",
    "state": "ND",
    "timezone": "America/Chicago",
    "updated_at": "2012-07-08T00:26:19Z",
    "zip": "58335"
  },
  {
    "address": "301 Brander St",
    "city": "Bottineau",
    "county": "Bottineau County",
    "created_at": "2012-01-04T20:15:54Z",
    "id": 15125,
    "latitude": "48.828950",
    "longitude": "-100.442779",
    "mascot": null,
    "name": "Bottineau Junior Senior High School",
    "primary_color": "White",
    "secondary_color": "Purple",
    "state": "ND",
    "timezone": "America/Chicago",
    "updated_at": "2012-07-08T00:26:19Z",
    "zip": "58318"
  },
  {
    "address": "301 Brander St",
    "city": "Bottineau",
    "county": "Bottineau County",
    "created_at": "2012-01-04T20:15:54Z",
    "id": 15126,
    "latitude": "48.828950",
    "longitude": "-100.442779",
    "mascot": "Braves",
    "name": "Bottineau Middle School",
    "primary_color": "Purple",
    "secondary_color": "White",
    "state": "ND",
    "timezone": "America/Chicago",
    "updated_at": "2012-07-08T00:26:19Z",
    "zip": "58318"
  },
  {
    "address": "710 Huss St",
    "city": "Lansford",
    "county": "Bottineau County",
    "created_at": "2012-01-04T20:15:54Z",
    "id": 15127,
    "latitude": "48.626114",
    "longitude": "-101.376142",
    "mascot": "Cubs",
    "name": "Lansford School",
    "primary_color": "Red",
    "secondary_color": "Black",
    "state": "ND",
    "timezone": "America/Chicago",
    "updated_at": "2012-07-08T00:26:19Z",
    "zip": "58750"
  },
  {
    "address": "400 Libbie St",
    "city": "Newburg",
    "county": "Bottineau County",
    "created_at": "2012-01-04T20:15:54Z",
    "id": 15128,
    "latitude": "48.712907",
    "longitude": "-100.913955",
    "mascot": "Eagles",
    "name": "Newburg School",
    "primary_color": "Red",
    "secondary_color": "Royal",
    "state": "ND",
    "timezone": "America/Chicago",
    "updated_at": "2012-07-08T00:26:20Z",
    "zip": "58762"
  },
  {
    "address": "406 Main St",
    "city": "Westhope",
    "county": "Bottineau County",
    "created_at": "2012-01-04T20:15:54Z",
    "id": 15129,
    "latitude": "48.912529",
    "longitude": "-101.020963",
    "mascot": null,
    "name": "Westhope School",
    "primary_color": "Maroon",
    "secondary_color": "Gold",
    "state": "ND",
    "timezone": "America/Chicago",
    "updated_at": "2012-07-08T00:26:20Z",
    "zip": "58793"
  },
  {
    "address": "100 Bottineau St",
    "city": "Willow City",
    "county": "Bottineau County",
    "created_at": "2012-01-04T20:15:54Z",
    "id": 15130,
    "latitude": "48.605522",
    "longitude": "-100.296776",
    "mascot": "Red Wings",
    "name": "Willow City Public School",
    "primary_color": "Maroon",
    "secondary_color": "White",
    "state": "ND",
    "timezone": "America/Chicago",
    "updated_at": "2012-07-08T00:26:20Z",
    "zip": "58384"
  },
  {
    "address": "1st & Fries",
    "city": "Scranton",
    "county": "Bowman County",
    "created_at": "2012-01-04T20:15:54Z",
    "id": 15131,
    "latitude": "46.152740",
    "longitude": "-103.141849",
    "mascot": "Miners",
    "name": "Scranton School",
    "primary_color": "Orange",
    "secondary_color": "Black",
    "state": "ND",
    "timezone": "America/Denver",
    "updated_at": "2012-07-08T00:26:20Z",
    "zip": "58653"
  },
  {
    "address": "806 N Washington St",
    "city": "Bismarck",
    "county": "Burleigh County",
    "created_at": "2012-01-04T20:15:54Z",
    "id": 15132,
    "latitude": "46.813201",
    "longitude": "-100.794266",
    "mascot": "Huskies",
    "name": "Hughes Middle School",
    "primary_color": "Kelly Green",
    "secondary_color": "White",
    "state": "ND",
    "timezone": "America/Chicago",
    "updated_at": "2012-07-08T00:26:21Z",
    "zip": "58501"
  },
  {
    "address": "806 N Washington St",
    "city": "Bismarck",
    "county": "Burleigh County",
    "created_at": "2012-01-04T20:15:54Z",
    "id": 15133,
    "latitude": "46.813201",
    "longitude": "-100.794266",
    "mascot": null,
    "name": "South Central Alternative School",
    "primary_color": "Teal",
    "secondary_color": "Black",
    "state": "ND",
    "timezone": "America/Chicago",
    "updated_at": "2012-07-08T00:26:21Z",
    "zip": "58501"
  },
  {
    "address": "219 1st St SE",
    "city": "Driscoll",
    "county": "Burleigh County",
    "created_at": "2012-01-04T20:15:54Z",
    "id": 15134,
    "latitude": "46.842715",
    "longitude": "-100.140624",
    "mascot": "Dragons",
    "name": "Driscoll School",
    "primary_color": "Black",
    "secondary_color": "Orange",
    "state": "ND",
    "timezone": "America/Chicago",
    "updated_at": "2012-07-08T00:26:21Z",
    "zip": "58532"
  },
  {
    "address": "16021 18th St SE",
    "city": "Hunter",
    "county": "Cass County",
    "created_at": "2012-01-04T20:15:54Z",
    "id": 15135,
    "latitude": "47.151883",
    "longitude": "-97.108136",
    "mascot": "Jaguars",
    "name": "Northern Cass School",
    "primary_color": "Gold",
    "secondary_color": "Black",
    "state": "ND",
    "timezone": "America/Chicago",
    "updated_at": "2012-07-08T00:26:21Z",
    "zip": "58048"
  },
  {
    "address": "PO Box 168",
    "city": "Tower City",
    "county": "Cass County",
    "created_at": "2012-01-04T20:15:54Z",
    "id": 15136,
    "latitude": "46.920055",
    "longitude": "-97.676909",
    "mascot": null,
    "name": "Maple Valley Junior Senior High School",
    "primary_color": "Royal",
    "secondary_color": "White",
    "state": "ND",
    "timezone": "America/Chicago",
    "updated_at": "2012-07-08T00:26:22Z",
    "zip": "58071"
  },
  {
    "address": "802 5th St N Box 250",
    "city": "Casselton",
    "county": "Cass County",
    "created_at": "2012-01-04T20:15:54Z",
    "id": 15137,
    "latitude": "46.906572",
    "longitude": "-97.203015",
    "mascot": "Squirrels",
    "name": "Central Cass Junior Senior High School",
    "primary_color": "Red",
    "secondary_color": "White",
    "state": "ND",
    "timezone": "America/Chicago",
    "updated_at": "2012-07-08T00:26:22Z",
    "zip": "58012"
  },
  {
    "address": "1420 8th St N",
    "city": "Fargo",
    "county": "Cass County",
    "created_at": "2012-01-04T20:15:54Z",
    "id": 15138,
    "latitude": "46.895825",
    "longitude": "-96.790656",
    "mascot": "Wildcats",
    "name": "Ben Franklin Junior High School",
    "primary_color": "Gold",
    "secondary_color": "Maroon",
    "state": "ND",
    "timezone": "America/Chicago",
    "updated_at": "2012-07-08T00:26:22Z",
    "zip": "58102"
  },
  {
    "address": "801 17th Ave N",
    "city": "Fargo",
    "county": "Cass County",
    "created_at": "2012-01-04T20:15:54Z",
    "id": 15139,
    "latitude": "46.901107",
    "longitude": "-96.790367",
    "mascot": "Spartans",
    "name": "North Senior High School",
    "primary_color": "Gold",
    "secondary_color": "Navy",
    "state": "ND",
    "timezone": "America/Chicago",
    "updated_at": "2012-07-08T00:26:23Z",
    "zip": "58102"
  },
  {
    "address": "1840 15th Ave S",
    "city": "Fargo",
    "county": "Cass County",
    "created_at": "2012-01-04T20:15:54Z",
    "id": 15140,
    "latitude": "46.857583",
    "longitude": "-96.811502",
    "mascot": "Bruins",
    "name": "South High School",
    "primary_color": "Gold",
    "secondary_color": "Brown",
    "state": "ND",
    "timezone": "America/Chicago",
    "updated_at": "2012-07-08T00:26:23Z",
    "zip": "58103"
  },
  {
    "address": "315 N University Dr",
    "city": "Fargo",
    "county": "Cass County",
    "created_at": "2012-01-04T20:15:54Z",
    "id": 15141,
    "latitude": "46.879673",
    "longitude": "-96.798219",
    "mascot": null,
    "name": "Woodrow Wilson Community High School",
    "primary_color": null,
    "secondary_color": null,
    "state": "ND",
    "timezone": "America/Chicago",
    "updated_at": "2012-07-08T00:26:23Z",
    "zip": "58102"
  },
  {
    "address": "424 9th Ave S",
    "city": "Fargo",
    "county": "Cass County",
    "created_at": "2012-01-04T20:15:54Z",
    "id": 15142,
    "latitude": "46.865495",
    "longitude": "-96.786367",
    "mascot": null,
    "name": "Evaluation And Training Center",
    "primary_color": null,
    "secondary_color": null,
    "state": "ND",
    "timezone": "America/Chicago",
    "updated_at": "2012-07-08T00:26:23Z",
    "zip": "58103"
  },
  {
    "address": "109 3rd St E",
    "city": "West Fargo",
    "county": "Cass County",
    "created_at": "2012-01-04T20:15:54Z",
    "id": 15143,
    "latitude": "46.875566",
    "longitude": "-96.895979",
    "mascot": "Packers",
    "name": "West Fargo High School",
    "primary_color": "Kelly Green",
    "secondary_color": "White",
    "state": "ND",
    "timezone": "America/Chicago",
    "updated_at": "2012-07-08T00:26:24Z",
    "zip": "58078"
  },
  {
    "address": "207 W Main Ave",
    "city": "West Fargo",
    "county": "Cass County",
    "created_at": "2012-01-04T20:15:54Z",
    "id": 15144,
    "latitude": "46.876749",
    "longitude": "-96.902014",
    "mascot": null,
    "name": "West Fargo Community High School",
    "primary_color": "Kelly Green",
    "secondary_color": "White",
    "state": "ND",
    "timezone": "America/Chicago",
    "updated_at": "2012-07-08T00:26:24Z",
    "zip": "58078"
  },
  {
    "address": "Hwy 20",
    "city": "Calvin",
    "county": "Cavalier County",
    "created_at": "2012-01-04T20:15:54Z",
    "id": 15145,
    "latitude": "48.845320",
    "longitude": "-98.934799",
    "mascot": "Border Acres",
    "name": "Border Central School",
    "primary_color": "Red",
    "secondary_color": "Royal",
    "state": "ND",
    "timezone": "America/Chicago",
    "updated_at": "2012-07-08T00:26:24Z",
    "zip": "58323"
  },
  {
    "address": "321 N 1st St",
    "city": "Ellendale",
    "county": "Dickey County",
    "created_at": "2012-01-04T20:15:54Z",
    "id": 15146,
    "latitude": "46.002548",
    "longitude": "-98.524088",
    "mascot": "Cardinals",
    "name": "Ellendale Public School",
    "primary_color": "Red",
    "secondary_color": "Black",
    "state": "ND",
    "timezone": "America/Chicago",
    "updated_at": "2012-07-08T00:26:25Z",
    "zip": "58436"
  },
  {
    "address": "804 Main Ave",
    "city": "Oakes",
    "county": "Dickey County",
    "created_at": "2012-01-04T20:15:54Z",
    "id": 15147,
    "latitude": "46.138860",
    "longitude": "-98.091658",
    "mascot": "Tornadoes",
    "name": "Oakes Junior Senior High School",
    "primary_color": "Orange",
    "secondary_color": "Black",
    "state": "ND",
    "timezone": "America/Chicago",
    "updated_at": "2012-07-08T00:26:25Z",
    "zip": "58474"
  },
  {
    "address": "605 SE 4th St",
    "city": "Crosby",
    "county": "Divide County",
    "created_at": "2012-01-04T20:15:54Z",
    "id": 15148,
    "latitude": "48.916276",
    "longitude": "-103.290197",
    "mascot": "Maroons",
    "name": "Divide County High School",
    "primary_color": "Gray",
    "secondary_color": "Maroon",
    "state": "ND",
    "timezone": "America/Chicago",
    "updated_at": "2012-07-08T00:26:25Z",
    "zip": "58730"
  },
  {
    "address": "188 4th St",
    "city": "Halliday",
    "county": "Dunn County",
    "created_at": "2012-01-04T20:15:54Z",
    "id": 15149,
    "latitude": "47.349982",
    "longitude": "-102.334687",
    "mascot": "Panthers",
    "name": "Halliday School",
    "primary_color": "Teal",
    "secondary_color": "Black",
    "state": "ND",
    "timezone": "America/Denver",
    "updated_at": "2012-07-08T00:26:25Z",
    "zip": "58636"
  },
  {
    "address": "320 Sunnyside Ave",
    "city": "Sheyenne",
    "county": "Eddy County",
    "created_at": "2012-01-04T20:15:54Z",
    "id": 15150,
    "latitude": "47.825247",
    "longitude": "-99.115041",
    "mascot": "Midgets",
    "name": "Sheyenne Public School",
    "primary_color": "Gold",
    "secondary_color": "Red",
    "state": "ND",
    "timezone": "America/Chicago",
    "updated_at": "2012-07-08T00:26:26Z",
    "zip": "58374"
  },
  {
    "address": "101 NE 3rd St",
    "city": "Linton",
    "county": "Emmons County",
    "created_at": "2012-01-04T20:15:54Z",
    "id": 15151,
    "latitude": "46.267004",
    "longitude": "-100.228482",
    "mascot": "Lions",
    "name": "Linton Public School",
    "primary_color": "Maroon",
    "secondary_color": "Gold",
    "state": "ND",
    "timezone": "America/Chicago",
    "updated_at": "2012-07-08T00:26:26Z",
    "zip": "58552"
  },
  {
    "address": "600 N Central Ave",
    "city": "Beach",
    "county": "Golden Valley County",
    "created_at": "2012-01-04T20:15:54Z",
    "id": 15152,
    "latitude": "46.921440",
    "longitude": "-104.005739",
    "mascot": "Buccaneers",
    "name": "Beach High School",
    "primary_color": "Gold",
    "secondary_color": "Royal",
    "state": "ND",
    "timezone": "America/Denver",
    "updated_at": "2012-07-08T00:26:26Z",
    "zip": "58621"
  },
  {
    "address": "115 N 4th St",
    "city": "Grand Forks",
    "county": "Grand Forks County",
    "created_at": "2012-01-04T20:15:54Z",
    "id": 15153,
    "latitude": "47.925297",
    "longitude": "-97.032972",
    "mascot": "Knights",
    "name": "Central Senior High School",
    "primary_color": "Maroon",
    "secondary_color": "Gray",
    "state": "ND",
    "timezone": "America/Chicago",
    "updated_at": "2012-07-08T00:26:26Z",
    "zip": "58203"
  },
  {
    "address": "500 Stanford Rd",
    "city": "Grand Forks",
    "county": "Grand Forks County",
    "created_at": "2012-01-04T20:15:54Z",
    "id": 15154,
    "latitude": "47.924867",
    "longitude": "-97.081036",
    "mascot": null,
    "name": "Community High School",
    "primary_color": "Gray",
    "secondary_color": "Royal",
    "state": "ND",
    "timezone": "America/Chicago",
    "updated_at": "2012-07-08T00:26:27Z",
    "zip": "58203"
  },
  {
    "address": "219 Hougen St",
    "city": "Northwood",
    "county": "Grand Forks County",
    "created_at": "2012-01-04T20:15:54Z",
    "id": 15155,
    "latitude": "47.733975",
    "longitude": "-97.572524",
    "mascot": "Trojans",
    "name": "Northwood School",
    "primary_color": "Royal",
    "secondary_color": "Red",
    "state": "ND",
    "timezone": "America/Chicago",
    "updated_at": "2012-07-08T00:26:27Z",
    "zip": "58267"
  },
  {
    "address": "1207 Foster Ave NE",
    "city": "Cooperstown",
    "county": "Griggs County",
    "created_at": "2012-01-04T20:15:54Z",
    "id": 15156,
    "latitude": "47.447818",
    "longitude": "-98.119945",
    "mascot": "Cougars",
    "name": "Griggs County Central School",
    "primary_color": "Gray",
    "secondary_color": "Columbia Blue",
    "state": "ND",
    "timezone": "America/Chicago",
    "updated_at": "2012-07-08T00:26:27Z",
    "zip": "58425"
  },
  {
    "address": "Highway 36 East",
    "city": "Robinson",
    "county": "Kidder County",
    "created_at": "2012-01-04T20:15:54Z",
    "id": 15157,
    "latitude": "47.140220",
    "longitude": "-99.777084",
    "mascot": null,
    "name": "Robinson School",
    "primary_color": null,
    "secondary_color": null,
    "state": "ND",
    "timezone": "America/Chicago",
    "updated_at": "2012-07-08T00:26:28Z",
    "zip": "58478"
  },
  {
    "address": "325 2nd St NE",
    "city": "Tappen",
    "county": "Kidder County",
    "created_at": "2012-01-04T20:15:54Z",
    "id": 15158,
    "latitude": "46.876694",
    "longitude": "-99.632870",
    "mascot": "Comets",
    "name": "Tappen Public School",
    "primary_color": "Royal",
    "secondary_color": "White",
    "state": "ND",
    "timezone": "America/Chicago",
    "updated_at": "2012-07-08T00:26:28Z",
    "zip": "58487"
  },
  {
    "address": "3rd & Main St",
    "city": "Tuttle",
    "county": "Kidder County",
    "created_at": "2012-01-04T20:15:54Z",
    "id": 15159,
    "latitude": "47.145600",
    "longitude": "-99.994599",
    "mascot": "Wildcats",
    "name": "Tuttle Public School",
    "primary_color": "Red",
    "secondary_color": "White",
    "state": "ND",
    "timezone": "America/Chicago",
    "updated_at": "2012-07-08T00:26:28Z",
    "zip": "58488"
  },
  {
    "address": "501 4th St SE",
    "city": "Steele",
    "county": "Kidder County",
    "created_at": "2012-01-04T20:15:54Z",
    "id": 15160,
    "latitude": "46.859610",
    "longitude": "-99.921739",
    "mascot": "Pirates",
    "name": "Steele-Dawson Public School",
    "primary_color": "Maroon",
    "secondary_color": "Gold",
    "state": "ND",
    "timezone": "America/Chicago",
    "updated_at": "2012-07-08T00:26:29Z",
    "zip": "58482"
  },
  {
    "address": "305 6th St",
    "city": "Edgeley",
    "county": "LaMoure County",
    "created_at": "2012-01-04T20:15:54Z",
    "id": 15161,
    "latitude": "46.358173",
    "longitude": "-98.717138",
    "mascot": "Rangers",
    "name": "Edgeley Public School",
    "primary_color": "Gold",
    "secondary_color": "Kelly Green",
    "state": "ND",
    "timezone": "America/Chicago",
    "updated_at": "2012-07-08T00:26:29Z",
    "zip": "58433"
  },
  {
    "address": "105 6th Ave SE",
    "city": "La Moure",
    "county": "LaMoure County",
    "created_at": "2012-01-04T20:15:54Z",
    "id": 15162,
    "latitude": "46.352193",
    "longitude": "-98.294281",
    "mascot": "Wolves",
    "name": "La Moure Public School",
    "primary_color": "Black",
    "secondary_color": "Red",
    "state": "ND",
    "timezone": "America/Chicago",
    "updated_at": "2012-07-08T00:26:29Z",
    "zip": "58458"
  },
  {
    "address": "104 2nd St",
    "city": "Marion",
    "county": "LaMoure County",
    "created_at": "2012-01-04T20:15:54Z",
    "id": 15163,
    "latitude": "46.604208",
    "longitude": "-98.331391",
    "mascot": "Rebels",
    "name": "Litchville-Marion High School",
    "primary_color": "Black",
    "secondary_color": "Maroon",
    "state": "ND",
    "timezone": "America/Chicago",
    "updated_at": "2012-07-08T00:26:30Z",
    "zip": "58466"
  },
  {
    "address": "205 7th St",
    "city": "Verona",
    "county": "LaMoure County",
    "created_at": "2012-01-04T20:15:54Z",
    "id": 15164,
    "latitude": "46.363901",
    "longitude": "-98.067614",
    "mascot": "Cardinals",
    "name": "Verona School",
    "primary_color": "Red",
    "secondary_color": "Royal",
    "state": "ND",
    "timezone": "America/Chicago",
    "updated_at": "2012-07-08T00:26:30Z",
    "zip": "58490"
  },
  {
    "address": "212 Ave D E",
    "city": "Napoleon",
    "county": "Logan County",
    "created_at": "2012-01-04T20:15:54Z",
    "id": 15165,
    "latitude": "46.505228",
    "longitude": "-99.767293",
    "mascot": null,
    "name": "Napoleon Junior Senior High School",
    "primary_color": "Gold",
    "secondary_color": "Royal",
    "state": "ND",
    "timezone": "America/Chicago",
    "updated_at": "2012-07-08T00:26:30Z",
    "zip": "58561"
  },
  {
    "address": "411 Main St",
    "city": "Drake",
    "county": "McHenry County",
    "created_at": "2012-01-04T20:15:54Z",
    "id": 15166,
    "latitude": "47.925436",
    "longitude": "-100.372155",
    "mascot": "Raiders",
    "name": "Drake School",
    "primary_color": "Black",
    "secondary_color": "White",
    "state": "ND",
    "timezone": "America/Chicago",
    "updated_at": "2012-07-08T00:26:30Z",
    "zip": "58736"
  },
  {
    "address": "School Rd",
    "city": "Granville",
    "county": "McHenry County",
    "created_at": "2012-01-04T20:15:54Z",
    "id": 15167,
    "latitude": "48.272470",
    "longitude": "-100.799169",
    "mascot": "Eagles",
    "name": "Granville School",
    "primary_color": "Royal",
    "secondary_color": "White",
    "state": "ND",
    "timezone": "America/Chicago",
    "updated_at": "2012-07-08T00:26:31Z",
    "zip": "58741"
  },
  {
    "address": "302 2nd Ave SE",
    "city": "Towner",
    "county": "McHenry County",
    "created_at": "2012-01-04T20:15:54Z",
    "id": 15168,
    "latitude": "48.344575",
    "longitude": "-100.402011",
    "mascot": "Cardinals",
    "name": "Towner School",
    "primary_color": "Red",
    "secondary_color": "White",
    "state": "ND",
    "timezone": "America/Chicago",
    "updated_at": "2012-07-08T00:26:31Z",
    "zip": "58788"
  },
  {
    "address": "School Rd 101 W 4th St",
    "city": "Velva",
    "county": "McHenry County",
    "created_at": "2012-01-04T20:15:54Z",
    "id": 15169,
    "latitude": "48.061741",
    "longitude": "-100.932434",
    "mascot": "Farmers",
    "name": "Velva School",
    "primary_color": "Royal",
    "secondary_color": "Gold",
    "state": "ND",
    "timezone": "America/Chicago",
    "updated_at": "2012-07-08T00:26:31Z",
    "zip": "58790"
  },
  {
    "address": "703 W Main St",
    "city": "Ashley",
    "county": "McIntosh County",
    "created_at": "2012-01-04T20:15:54Z",
    "id": 15170,
    "latitude": "46.034500",
    "longitude": "-99.381518",
    "mascot": "Aces",
    "name": "Ashley School",
    "primary_color": "Gold",
    "secondary_color": "Royal",
    "state": "ND",
    "timezone": "America/Chicago",
    "updated_at": "2012-07-08T00:26:32Z",
    "zip": "58413"
  },
  {
    "address": "510 S Main St",
    "city": "Zeeland",
    "county": "McIntosh County",
    "created_at": "2012-01-04T20:15:54Z",
    "id": 15171,
    "latitude": "45.968332",
    "longitude": "-99.830446",
    "mascot": "Vikings",
    "name": "Zeeland Public School",
    "primary_color": "Kelly Green",
    "secondary_color": "White",
    "state": "ND",
    "timezone": "America/Chicago",
    "updated_at": "2012-07-08T00:26:32Z",
    "zip": "58581"
  },
  {
    "address": "1 School St",
    "city": "Alexander",
    "county": "McKenzie County",
    "created_at": "2012-01-04T20:15:54Z",
    "id": 15172,
    "latitude": "47.867820",
    "longitude": "-103.647974",
    "mascot": "Comets",
    "name": "Alexander School",
    "primary_color": "Gray",
    "secondary_color": "Red",
    "state": "ND",
    "timezone": "America/Chicago",
    "updated_at": "2012-07-08T00:26:32Z",
    "zip": "58831"
  },
  {
    "address": "Hwy 83 N",
    "city": "Max",
    "county": "McLean County",
    "created_at": "2012-01-04T20:15:54Z",
    "id": 15173,
    "latitude": "47.827530",
    "longitude": "-101.293289",
    "mascot": "Cossack",
    "name": "Max Elementary & High School",
    "primary_color": "Gray",
    "secondary_color": "Navy",
    "state": "ND",
    "timezone": "America/Chicago",
    "updated_at": "2012-07-08T00:26:33Z",
    "zip": "58759"
  },
  {
    "address": "101 E Broadway",
    "city": "Butte",
    "county": "Sheridan County",
    "created_at": "2012-01-04T20:15:54Z",
    "id": 15174,
    "latitude": "47.795722",
    "longitude": "-100.584895",
    "mascot": "Raiders",
    "name": "Butte Public School",
    "primary_color": "Black",
    "secondary_color": "Gray",
    "state": "ND",
    "timezone": "America/Chicago",
    "updated_at": "2012-07-08T00:26:33Z",
    "zip": "58723"
  },
  {
    "address": "504 Dakota Ave",
    "city": "Wilton",
    "county": "McLean County",
    "created_at": "2012-01-04T20:15:54Z",
    "id": 15175,
    "latitude": "47.157998",
    "longitude": "-100.789578",
    "mascot": "Miners",
    "name": "Wilton School",
    "primary_color": "Purple",
    "secondary_color": "White",
    "state": "ND",
    "timezone": "America/Chicago",
    "updated_at": "2012-07-08T00:26:33Z",
    "zip": "58579"
  },
  {
    "address": "51 5th Ave NW  ",
    "city": "Garrison",
    "county": "McLean County",
    "created_at": "2012-01-04T20:15:54Z",
    "id": 15176,
    "latitude": "47.656533",
    "longitude": "-101.417561",
    "mascot": "Troopers",
    "name": "Garrison High School",
    "primary_color": "Royal",
    "secondary_color": "White",
    "state": "ND",
    "timezone": "America/Chicago",
    "updated_at": "2012-07-08T00:26:33Z",
    "zip": "58540"
  },
  {
    "address": "713 7th St",
    "city": "Washburn",
    "county": "McLean County",
    "created_at": "2012-01-04T20:15:54Z",
    "id": 15177,
    "latitude": "47.291430",
    "longitude": "-101.026699",
    "mascot": null,
    "name": "Washburn School",
    "primary_color": null,
    "secondary_color": null,
    "state": "ND",
    "timezone": "America/Chicago",
    "updated_at": "2012-07-08T00:26:34Z",
    "zip": "58577"
  },
  {
    "address": "10 3rd Street NW",
    "city": "Golden Valley",
    "county": "Mercer County",
    "created_at": "2012-01-04T20:15:54Z",
    "id": 15178,
    "latitude": "47.292044",
    "longitude": "-102.064746",
    "mascot": "Panthers",
    "name": "Golden Valley Junior Senior High School",
    "primary_color": "Black",
    "secondary_color": "Teal",
    "state": "ND",
    "timezone": "America/North_Dakota/Beulah",
    "updated_at": "2012-07-08T00:26:34Z",
    "zip": "58541"
  },
  {
    "address": "400 Pine Ave",
    "city": "Glen Ullin",
    "county": "Morton County",
    "created_at": "2012-01-04T20:15:54Z",
    "id": 15179,
    "latitude": "46.811409",
    "longitude": "-101.825132",
    "mascot": "Rattlers",
    "name": "Glen Ullin School",
    "primary_color": "Black",
    "secondary_color": "Orange",
    "state": "ND",
    "timezone": "America/North_Dakota/New_Salem",
    "updated_at": "2012-07-08T00:26:34Z",
    "zip": "58631"
  },
  {
    "address": "400 Church Ave",
    "city": "Hebron",
    "county": "Morton County",
    "created_at": "2012-01-04T20:15:54Z",
    "id": 15180,
    "latitude": "46.903032",
    "longitude": "-102.050011",
    "mascot": "Brickmakers",
    "name": "Hebron School",
    "primary_color": "Royal",
    "secondary_color": "White",
    "state": "ND",
    "timezone": "America/North_Dakota/New_Salem",
    "updated_at": "2012-07-08T00:26:35Z",
    "zip": "58638"
  },
  {
    "address": "905 8th Ave NW",
    "city": "Mandan",
    "county": "Morton County",
    "created_at": "2012-01-04T20:15:54Z",
    "id": 15181,
    "latitude": "46.833455",
    "longitude": "-100.902047",
    "mascot": "Braves",
    "name": "Mandan High School",
    "primary_color": "Black",
    "secondary_color": "White",
    "state": "ND",
    "timezone": "America/North_Dakota/New_Salem",
    "updated_at": "2012-07-08T00:26:35Z",
    "zip": "58554"
  },
  {
    "address": "300 Eagle Dr",
    "city": "New Town",
    "county": "Mountrail County",
    "created_at": "2012-01-04T20:15:54Z",
    "id": 15182,
    "latitude": "47.980768",
    "longitude": "-102.488713",
    "mascot": "Eagles",
    "name": "New Town Junior Senior High School",
    "primary_color": "Purple",
    "secondary_color": "Gold",
    "state": "ND",
    "timezone": "America/Chicago",
    "updated_at": "2012-07-08T00:26:35Z",
    "zip": "58763"
  },
  {
    "address": "1 Educational Rd",
    "city": "Stanley",
    "county": "Mountrail County",
    "created_at": "2012-01-04T20:15:54Z",
    "id": 15183,
    "latitude": "48.327246",
    "longitude": "-102.461039",
    "mascot": "Bluejays",
    "name": "Stanley Junior Senior High School",
    "primary_color": "Royal",
    "secondary_color": "White",
    "state": "ND",
    "timezone": "America/Chicago",
    "updated_at": "2012-07-08T00:26:35Z",
    "zip": "58784"
  },
  {
    "address": "E Ave & Main St",
    "city": "Lakota",
    "county": "Nelson County",
    "created_at": "2012-01-04T20:15:54Z",
    "id": 15184,
    "latitude": "48.044500",
    "longitude": "-98.343439",
    "mascot": "Raiders",
    "name": "Lakota High School",
    "primary_color": "Purple",
    "secondary_color": "Gold",
    "state": "ND",
    "timezone": "America/Chicago",
    "updated_at": "2012-07-08T00:26:36Z",
    "zip": "58344"
  },
  {
    "address": "518 4th Ave",
    "city": "Petersburg",
    "county": "Nelson County",
    "created_at": "2012-01-04T20:15:54Z",
    "id": 15185,
    "latitude": "48.008563",
    "longitude": "-98.000697",
    "mascot": "Knights",
    "name": "Dakota Prairie High School",
    "primary_color": "Teal",
    "secondary_color": "Black",
    "state": "ND",
    "timezone": "America/Chicago",
    "updated_at": "2012-07-08T00:26:36Z",
    "zip": "58272"
  },
  {
    "address": "300 Main St E",
    "city": "Cavalier",
    "county": "Pembina County",
    "created_at": "2012-01-04T20:15:54Z",
    "id": 15186,
    "latitude": "48.794068",
    "longitude": "-97.619095",
    "mascot": "Tornados",
    "name": "Cavalier High School",
    "primary_color": "Orange",
    "secondary_color": "Black",
    "state": "ND",
    "timezone": "America/Chicago",
    "updated_at": "2012-07-08T00:26:37Z",
    "zip": "58220"
  },
  {
    "address": "155 S 3rd St",
    "city": "Pembina",
    "county": "Pembina County",
    "created_at": "2012-01-04T20:15:54Z",
    "id": 15187,
    "latitude": "48.967191",
    "longitude": "-97.247939",
    "mascot": "Bandits",
    "name": "Pembina School",
    "primary_color": "Columbia Blue",
    "secondary_color": "Navy",
    "state": "ND",
    "timezone": "America/Chicago",
    "updated_at": "2012-07-08T00:26:37Z",
    "zip": "58271"
  },
  {
    "address": "2324 Myrtle Ave",
    "city": "Hoople",
    "county": "Walsh County",
    "created_at": "2012-01-04T20:15:54Z",
    "id": 15188,
    "latitude": "48.531640",
    "longitude": "-97.634649",
    "mascot": "Titians & Blue Knights",
    "name": "Valley High School",
    "primary_color": "Hunter Green",
    "secondary_color": "Black",
    "state": "ND",
    "timezone": "America/Chicago",
    "updated_at": "2012-07-08T00:26:37Z",
    "zip": "58243"
  },
  {
    "address": "1123 S Main St",
    "city": "Rugby",
    "county": "Pierce County",
    "created_at": "2012-01-04T20:15:54Z",
    "id": 15189,
    "latitude": "48.359937",
    "longitude": "-99.995461",
    "mascot": null,
    "name": "Rugby High School",
    "primary_color": "Orange",
    "secondary_color": "Black",
    "state": "ND",
    "timezone": "America/Chicago",
    "updated_at": "2012-07-08T00:26:37Z",
    "zip": "58368"
  },
  {
    "address": "706 N Main",
    "city": "Edmore",
    "county": "Ramsey County",
    "created_at": "2012-01-04T20:15:54Z",
    "id": 15190,
    "latitude": "48.414483",
    "longitude": "-98.454303",
    "mascot": "Vikings",
    "name": "Edmore School",
    "primary_color": "Orange",
    "secondary_color": "Black",
    "state": "ND",
    "timezone": "America/Chicago",
    "updated_at": "2012-07-08T00:26:38Z",
    "zip": "58330"
  },
  {
    "address": "Main St Box 45",
    "city": "Starkweather",
    "county": "Ramsey County",
    "created_at": "2012-01-04T20:15:54Z",
    "id": 15191,
    "latitude": "48.451770",
    "longitude": "-98.883089",
    "mascot": "Magic Stars",
    "name": "Starkweather School",
    "primary_color": "Orange",
    "secondary_color": "Purple",
    "state": "ND",
    "timezone": "America/Chicago",
    "updated_at": "2012-07-08T00:26:38Z",
    "zip": "58377"
  },
  {
    "address": "502 Ash St",
    "city": "Lisbon",
    "county": "Ransom County",
    "created_at": "2012-01-04T20:15:54Z",
    "id": 15192,
    "latitude": "46.441750",
    "longitude": "-97.686989",
    "mascot": "Broncos",
    "name": "Lisbon High School",
    "primary_color": "Red",
    "secondary_color": "Gold",
    "state": "ND",
    "timezone": "America/Chicago",
    "updated_at": "2012-07-08T00:26:38Z",
    "zip": "58054"
  },
  {
    "address": "23 Grand Ave N",
    "city": "Sheldon",
    "county": "Ransom County",
    "created_at": "2012-01-04T20:15:54Z",
    "id": 15193,
    "latitude": "46.586827",
    "longitude": "-97.490071",
    "mascot": "Shadows",
    "name": "Sheldon Public School",
    "primary_color": "Red",
    "secondary_color": "Black",
    "state": "ND",
    "timezone": "America/Chicago",
    "updated_at": "2012-07-08T00:26:39Z",
    "zip": "58068"
  },
  {
    "address": "600 N Main St",
    "city": "Sherwood",
    "county": "Renville County",
    "created_at": "2012-01-04T20:15:54Z",
    "id": 15194,
    "latitude": "48.963459",
    "longitude": "-101.632653",
    "mascot": "Wildcats",
    "name": "Sherwood School",
    "primary_color": "Royal",
    "secondary_color": "White",
    "state": "ND",
    "timezone": "America/Chicago",
    "updated_at": "2012-07-08T00:26:39Z",
    "zip": "58782"
  },
  {
    "address": "102 Raymond St",
    "city": "Glenburn",
    "county": "Renville County",
    "created_at": "2012-01-04T20:15:55Z",
    "id": 15195,
    "latitude": "48.515074",
    "longitude": "-101.223442",
    "mascot": "Panthers",
    "name": "Glenburn Public School",
    "primary_color": "Gold",
    "secondary_color": "Purple",
    "state": "ND",
    "timezone": "America/Chicago",
    "updated_at": "2012-07-08T00:26:39Z",
    "zip": "58740"
  },
  {
    "address": "101 3rd St NW",
    "city": "Mohall",
    "county": "Renville County",
    "created_at": "2012-01-04T20:15:55Z",
    "id": 15196,
    "latitude": "48.766568",
    "longitude": "-101.513349",
    "mascot": "Yellow Jackets",
    "name": "Mohall School",
    "primary_color": "Gold",
    "secondary_color": "Black",
    "state": "ND",
    "timezone": "America/Chicago",
    "updated_at": "2012-07-08T00:26:39Z",
    "zip": "58761"
  },
  {
    "address": "400 E Main St",
    "city": "Fairmount",
    "county": "Richland County",
    "created_at": "2012-01-04T20:15:55Z",
    "id": 15197,
    "latitude": "46.054997",
    "longitude": "-96.600793",
    "mascot": null,
    "name": "Fairmount Public School",
    "primary_color": "Gold",
    "secondary_color": "Purple",
    "state": "ND",
    "timezone": "America/Chicago",
    "updated_at": "2012-07-08T00:26:39Z",
    "zip": "58030"
  },
  {
    "address": "1021 N 11th St",
    "city": "Wahpeton",
    "county": "Richland County",
    "created_at": "2012-01-04T20:15:55Z",
    "id": 15198,
    "latitude": "46.274002",
    "longitude": "-96.615702",
    "mascot": "Huskies",
    "name": "Wahpeton High School",
    "primary_color": "Purple",
    "secondary_color": "Gold",
    "state": "ND",
    "timezone": "America/Chicago",
    "updated_at": "2012-07-08T00:26:40Z",
    "zip": "58075"
  },
  {
    "address": "101 Main St",
    "city": "Colfax",
    "county": "Richland County",
    "created_at": "2012-01-04T20:15:55Z",
    "id": 15199,
    "latitude": "46.470839",
    "longitude": "-96.873090",
    "mascot": "Colts",
    "name": "Richland Junior Senior High School",
    "primary_color": "Gold",
    "secondary_color": "Columbia Blue",
    "state": "ND",
    "timezone": "America/Chicago",
    "updated_at": "2012-07-08T00:26:40Z",
    "zip": "58018"
  },
  {
    "address": "2nd St SW",
    "city": "Dunseith",
    "county": "Rolette County",
    "created_at": "2012-01-04T20:15:55Z",
    "id": 15200,
    "latitude": "48.814380",
    "longitude": "-100.058014",
    "mascot": "Dragons",
    "name": "Dunseith Junior Senior High School",
    "primary_color": "Royal",
    "secondary_color": "White",
    "state": "ND",
    "timezone": "America/Chicago",
    "updated_at": "2012-07-08T00:26:40Z",
    "zip": "58329"
  },
  {
    "address": "201 5th St NE",
    "city": "Rolla",
    "county": "Rolette County",
    "created_at": "2012-01-04T20:15:55Z",
    "id": 15201,
    "latitude": "48.861986",
    "longitude": "-99.610475",
    "mascot": "Bulldogs",
    "name": "Mount Pleasant School",
    "primary_color": "Gold",
    "secondary_color": "Purple",
    "state": "ND",
    "timezone": "America/Chicago",
    "updated_at": "2012-07-08T00:26:41Z",
    "zip": "58367"
  },
  {
    "address": "201 5th St NE",
    "city": "Rolla",
    "county": "Rolette County",
    "created_at": "2012-01-04T20:15:55Z",
    "id": 15202,
    "latitude": "48.861986",
    "longitude": "-99.610475",
    "mascot": "Bulldogs",
    "name": "Rolla Junior Senior High School",
    "primary_color": "Gold",
    "secondary_color": "Purple",
    "state": "ND",
    "timezone": "America/Chicago",
    "updated_at": "2012-07-08T00:26:41Z",
    "zip": "58367"
  },
  {
    "address": "530 5th St",
    "city": "Milnor",
    "county": "Sargent County",
    "created_at": "2012-01-04T20:15:55Z",
    "id": 15203,
    "latitude": "46.260043",
    "longitude": "-97.455086",
    "mascot": "Bisons",
    "name": "Milnor School",
    "primary_color": "Gold",
    "secondary_color": "Royal",
    "state": "ND",
    "timezone": "America/Chicago",
    "updated_at": "2012-07-08T00:26:41Z",
    "zip": "58060"
  },
  {
    "address": "979 13th Ave W",
    "city": "Dickinson",
    "county": "Stark County",
    "created_at": "2012-01-04T20:15:55Z",
    "id": 15204,
    "latitude": "46.889588",
    "longitude": "-102.805092",
    "mascot": "Midgets",
    "name": "Dickinson High School",
    "primary_color": "Orange",
    "secondary_color": "Black",
    "state": "ND",
    "timezone": "America/Denver",
    "updated_at": "2012-07-08T00:26:41Z",
    "zip": "58601"
  },
  {
    "address": "308 4th St NW",
    "city": "South Heart",
    "county": "Stark County",
    "created_at": "2012-01-04T20:15:55Z",
    "id": 15205,
    "latitude": "46.865761",
    "longitude": "-102.991588",
    "mascot": "Eagles",
    "name": "South Heart Public School",
    "primary_color": "White",
    "secondary_color": "Maroon",
    "state": "ND",
    "timezone": "America/Denver",
    "updated_at": "2012-07-08T00:26:42Z",
    "zip": "58655"
  },
  {
    "address": "201 3rd St E",
    "city": "Finley",
    "county": "Steele County",
    "created_at": "2012-01-04T20:15:55Z",
    "id": 15206,
    "latitude": "47.513495",
    "longitude": "-97.833924",
    "mascot": "Raiders",
    "name": "Finley-Sharon School",
    "primary_color": "Red",
    "secondary_color": "White",
    "state": "ND",
    "timezone": "America/Chicago",
    "updated_at": "2012-07-08T00:26:42Z",
    "zip": "58230"
  },
  {
    "address": "100 Bates Ave",
    "city": "Hope",
    "county": "Steele County",
    "created_at": "2012-01-04T20:15:55Z",
    "id": 15207,
    "latitude": "47.319105",
    "longitude": "-97.719179",
    "mascot": "Wolverines",
    "name": "Hope High School",
    "primary_color": "Gold",
    "secondary_color": "Navy",
    "state": "ND",
    "timezone": "America/Chicago",
    "updated_at": "2012-07-08T00:26:42Z",
    "zip": "58046"
  },
  {
    "address": "200 3rd Ave SE",
    "city": "Jamestown",
    "county": "Stutsman County",
    "created_at": "2012-01-04T20:15:55Z",
    "id": 15208,
    "latitude": "46.907556",
    "longitude": "-98.705414",
    "mascot": "Blue Jays",
    "name": "Jamestown Senior High School",
    "primary_color": "Royal",
    "secondary_color": "White",
    "state": "ND",
    "timezone": "America/Chicago",
    "updated_at": "2012-07-08T00:26:42Z",
    "zip": "58401"
  },
  {
    "address": "803 1st Ave",
    "city": "Kensal",
    "county": "Stutsman County",
    "created_at": "2012-01-04T20:15:55Z",
    "id": 15209,
    "latitude": "47.304457",
    "longitude": "-98.733931",
    "mascot": "Rebels",
    "name": "Kensal School",
    "primary_color": "Red",
    "secondary_color": "Black",
    "state": "ND",
    "timezone": "America/Chicago",
    "updated_at": "2012-07-08T00:26:43Z",
    "zip": "58455"
  },
  {
    "address": "38 Forrest St",
    "city": "Rock Lake",
    "county": "Cavalier County",
    "created_at": "2012-01-04T20:15:55Z",
    "id": 15210,
    "latitude": "48.944195",
    "longitude": "-99.000274",
    "mascot": "Aces",
    "name": "Rock Lake Public School",
    "primary_color": "Royal",
    "secondary_color": "Red",
    "state": "ND",
    "timezone": "America/Chicago",
    "updated_at": "2012-07-08T00:26:43Z",
    "zip": "58365"
  },
  {
    "address": "204 3rd Ave W",
    "city": "Bisbee",
    "county": "Towner County",
    "created_at": "2012-01-04T20:15:55Z",
    "id": 15211,
    "latitude": "48.625688",
    "longitude": "-99.380875",
    "mascot": null,
    "name": "Bisbee-Egeland School",
    "primary_color": "Gold",
    "secondary_color": "Black",
    "state": "ND",
    "timezone": "America/Chicago",
    "updated_at": "2012-07-08T00:26:44Z",
    "zip": "58317"
  },
  {
    "address": "RR 1 Box 152B",
    "city": "Buxton",
    "county": "Traill County",
    "created_at": "2012-01-04T20:15:55Z",
    "id": 15212,
    "latitude": "47.599557",
    "longitude": "-97.058739",
    "mascot": "Valiants",
    "name": "Central Valley School",
    "primary_color": "Gold",
    "secondary_color": "Royal",
    "state": "ND",
    "timezone": "America/Chicago",
    "updated_at": "2012-07-08T00:26:44Z",
    "zip": "58218"
  },
  {
    "address": "900 Main St W",
    "city": "Mayville",
    "county": "Traill County",
    "created_at": "2012-01-04T20:15:55Z",
    "id": 15213,
    "latitude": "47.498496",
    "longitude": "-97.348505",
    "mascot": "Patriots",
    "name": "May Port CG High School",
    "primary_color": "Red",
    "secondary_color": "Royal",
    "state": "ND",
    "timezone": "America/Chicago",
    "updated_at": "2012-07-08T00:26:44Z",
    "zip": "58257"
  },
  {
    "address": "503 4th Street",
    "city": "Hatton",
    "county": "Traill County",
    "created_at": "2012-01-04T20:15:55Z",
    "id": 15214,
    "latitude": "47.640625",
    "longitude": "-97.460842",
    "mascot": "Flyers",
    "name": "Hatton School",
    "primary_color": "Gold",
    "secondary_color": "Black",
    "state": "ND",
    "timezone": "America/Chicago",
    "updated_at": "2012-07-08T00:26:44Z",
    "zip": "58240"
  },
  {
    "address": "600 S 5th St",
    "city": "Edinburg",
    "county": "Walsh County",
    "created_at": "2012-01-04T20:15:55Z",
    "id": 15215,
    "latitude": "48.497190",
    "longitude": "-97.866909",
    "mascot": "Spartans",
    "name": "Edinburg School",
    "primary_color": "Red",
    "secondary_color": "Black",
    "state": "ND",
    "timezone": "America/Chicago",
    "updated_at": "2012-07-08T00:26:45Z",
    "zip": "58227"
  },
  {
    "address": "102 4th Ave W",
    "city": "Fordville",
    "county": "Walsh County",
    "created_at": "2012-01-04T20:15:55Z",
    "id": 15216,
    "latitude": "48.219460",
    "longitude": "-97.792329",
    "mascot": "Flyers",
    "name": "Fordville-Lankin High School",
    "primary_color": "Red",
    "secondary_color": "White",
    "state": "ND",
    "timezone": "America/Chicago",
    "updated_at": "2012-07-08T00:26:46Z",
    "zip": "58231"
  },
  {
    "address": "1548 School Rd",
    "city": "Grafton",
    "county": "Walsh County",
    "created_at": "2012-01-04T20:15:55Z",
    "id": 15217,
    "latitude": "48.407319",
    "longitude": "-97.426651",
    "mascot": null,
    "name": "Grafton Senior High School",
    "primary_color": "Gold",
    "secondary_color": "Maroon",
    "state": "ND",
    "timezone": "America/Chicago",
    "updated_at": "2012-07-08T00:26:46Z",
    "zip": "58237"
  },
  {
    "address": "605 6th St W",
    "city": "Park River",
    "county": "Walsh County",
    "created_at": "2012-01-04T20:15:55Z",
    "id": 15218,
    "latitude": "48.392955",
    "longitude": "-97.742134",
    "mascot": "Horses",
    "name": "Park River Junior Senior High School",
    "primary_color": "Yellow",
    "secondary_color": "Black",
    "state": "ND",
    "timezone": "America/Chicago",
    "updated_at": "2012-07-08T00:26:46Z",
    "zip": "58270"
  },
  {
    "address": "200 4th St",
    "city": "Minto",
    "county": "Walsh County",
    "created_at": "2012-01-04T20:15:55Z",
    "id": 15219,
    "latitude": "48.204864",
    "longitude": "-97.340594",
    "mascot": "Rockets",
    "name": "Minto School",
    "primary_color": "Maroon",
    "secondary_color": "White",
    "state": "ND",
    "timezone": "America/Chicago",
    "updated_at": "2012-07-08T00:26:46Z",
    "zip": "58261"
  },
  {
    "address": "300 7th Ave NE",
    "city": "Kenmare",
    "county": "Ward County",
    "created_at": "2012-01-04T20:15:55Z",
    "id": 15220,
    "latitude": "48.673683",
    "longitude": "-102.071621",
    "mascot": "Honkers",
    "name": "Kenmare Junior Senior High School",
    "primary_color": "Gold",
    "secondary_color": "Maroon",
    "state": "ND",
    "timezone": "America/Chicago",
    "updated_at": "2012-07-08T00:26:47Z",
    "zip": "58746"
  },
  {
    "address": "215 1st St SE",
    "city": "Minot",
    "county": "Ward County",
    "created_at": "2012-01-04T20:15:55Z",
    "id": 15221,
    "latitude": "48.234170",
    "longitude": "-101.291477",
    "mascot": "Magicians",
    "name": "Central Campus High School",
    "primary_color": "Maroon",
    "secondary_color": "Gold",
    "state": "ND",
    "timezone": "America/Chicago",
    "updated_at": "2012-07-08T00:26:48Z",
    "zip": "58701"
  },
  {
    "address": "1100 11th Ave SW",
    "city": "Minot",
    "county": "Ward County",
    "created_at": "2012-01-04T20:15:55Z",
    "id": 15222,
    "latitude": "48.225557",
    "longitude": "-101.308795",
    "mascot": "Magicians",
    "name": "Minot High School-Magic City Campus",
    "primary_color": "Maroon",
    "secondary_color": "Gold",
    "state": "ND",
    "timezone": "America/Chicago",
    "updated_at": "2012-07-08T00:26:48Z",
    "zip": "58701"
  },
  {
    "address": "3rd Ave & Rose St",
    "city": "Makoti",
    "county": "Ward County",
    "created_at": "2012-01-04T20:15:55Z",
    "id": 15223,
    "latitude": "47.961760",
    "longitude": "-101.801559",
    "mascot": "Wildcats",
    "name": "North Shore Junior Senior High School",
    "primary_color": "Gray",
    "secondary_color": "Black",
    "state": "ND",
    "timezone": "America/Chicago",
    "updated_at": "2012-07-08T00:26:49Z",
    "zip": "58756"
  },
  {
    "address": "317 Roosevelt St",
    "city": "Des Lacs",
    "county": "Ward County",
    "created_at": "2012-01-04T20:15:55Z",
    "id": 15224,
    "latitude": "48.257114",
    "longitude": "-101.560949",
    "mascot": "Lakers",
    "name": "Des Lacs-Burlington High School",
    "primary_color": "Red",
    "secondary_color": "White",
    "state": "ND",
    "timezone": "America/Chicago",
    "updated_at": "2012-07-08T00:26:49Z",
    "zip": "58733"
  },
  {
    "address": "500 N 2nd St",
    "city": "Fessenden",
    "county": "Wells County",
    "created_at": "2012-01-04T20:15:55Z",
    "id": 15225,
    "latitude": "47.651550",
    "longitude": "-99.627251",
    "mascot": "Orioles",
    "name": "Fessenden School",
    "primary_color": "Black",
    "secondary_color": "Orange",
    "state": "ND",
    "timezone": "America/Chicago",
    "updated_at": "2012-07-08T00:26:49Z",
    "zip": "58438"
  },
  {
    "address": "200 E North St",
    "city": "Harvey",
    "county": "Wells County",
    "created_at": "2012-01-04T20:15:55Z",
    "id": 15226,
    "latitude": "47.774908",
    "longitude": "-99.929144",
    "mascot": "Hornets",
    "name": "Harvey High School",
    "primary_color": "Gold",
    "secondary_color": "Purple",
    "state": "ND",
    "timezone": "America/Chicago",
    "updated_at": "2012-07-08T00:26:50Z",
    "zip": "58341"
  },
  {
    "address": "114 B St NE",
    "city": "Sykeston",
    "county": "Wells County",
    "created_at": "2012-01-04T20:15:55Z",
    "id": 15227,
    "latitude": "47.466336",
    "longitude": "-99.395871",
    "mascot": "Wolverines",
    "name": "Sykeston School",
    "primary_color": "Columbia Blue",
    "secondary_color": "Navy",
    "state": "ND",
    "timezone": "America/Chicago",
    "updated_at": "2012-07-08T00:26:50Z",
    "zip": "58486"
  },
  {
    "address": "Hwy 1804 ",
    "city": "Trenton",
    "county": "Williams County",
    "created_at": "2012-01-04T20:15:55Z",
    "id": 15228,
    "latitude": "48.053630",
    "longitude": "-103.863064",
    "mascot": "Tigers",
    "name": "Trenton Public School",
    "primary_color": "Royal",
    "secondary_color": "Gold",
    "state": "ND",
    "timezone": "America/Chicago",
    "updated_at": "2012-07-08T00:26:50Z",
    "zip": "58853"
  },
  {
    "address": "402 Robinson Street",
    "city": "Grenora",
    "county": "Williams County",
    "created_at": "2012-01-04T20:15:55Z",
    "id": 15229,
    "latitude": "48.620694",
    "longitude": "-103.934051",
    "mascot": "Gophers",
    "name": "Grenora Public School",
    "primary_color": "Gold",
    "secondary_color": "Maroon",
    "state": "ND",
    "timezone": "America/Chicago",
    "updated_at": "2012-07-08T00:26:50Z",
    "zip": "58845"
  },
  {
    "address": "303 N Linden St",
    "city": "Tioga",
    "county": "Williams County",
    "created_at": "2012-01-04T20:15:55Z",
    "id": 15230,
    "latitude": "48.399737",
    "longitude": "-102.947596",
    "mascot": "Pirates",
    "name": "Tioga Junior Senior High School",
    "primary_color": "Navy",
    "secondary_color": "Gold",
    "state": "ND",
    "timezone": "America/Chicago",
    "updated_at": "2012-07-08T00:26:51Z",
    "zip": "58852"
  },
  {
    "address": "205 Cooley St",
    "city": "Wildrose",
    "county": "Williams County",
    "created_at": "2012-01-04T20:15:55Z",
    "id": 15231,
    "latitude": "48.630714",
    "longitude": "-103.181143",
    "mascot": "Roses",
    "name": "Wildrose Alamo School",
    "primary_color": "Red",
    "secondary_color": "White",
    "state": "ND",
    "timezone": "America/Chicago",
    "updated_at": "2012-07-08T00:26:51Z",
    "zip": "58795"
  },
  {
    "address": "315 Lincoln Ave",
    "city": "Center",
    "county": "Oliver County",
    "created_at": "2012-01-04T20:15:55Z",
    "id": 15232,
    "latitude": "47.118635",
    "longitude": "-101.298184",
    "mascot": "Wildcats",
    "name": "Center High School",
    "primary_color": "Red",
    "secondary_color": "White",
    "state": "ND",
    "timezone": "America/North_Dakota/Center",
    "updated_at": "2012-07-08T00:26:51Z",
    "zip": "58530"
  },
  {
    "address": "715 14th Ave",
    "city": "Langdon",
    "county": "Cavalier County",
    "created_at": "2012-01-04T20:15:55Z",
    "id": 15233,
    "latitude": "48.767508",
    "longitude": "-98.374595",
    "mascot": "Cardinals",
    "name": "Langdon High School",
    "primary_color": "Red",
    "secondary_color": "White",
    "state": "ND",
    "timezone": "America/Chicago",
    "updated_at": "2012-07-08T00:26:51Z",
    "zip": "58249"
  },
  {
    "address": "520 1st Ave NE",
    "city": "Hazen",
    "county": "Mercer County",
    "created_at": "2012-01-04T20:15:55Z",
    "id": 15234,
    "latitude": "47.297849",
    "longitude": "-101.621689",
    "mascot": "Bison",
    "name": "Hazen High School",
    "primary_color": "Kelly Green",
    "secondary_color": "White",
    "state": "ND",
    "timezone": "America/North_Dakota/Beulah",
    "updated_at": "2012-07-08T00:26:52Z",
    "zip": "58545"
  },
  {
    "address": "2419 9th Ave W",
    "city": "Williston",
    "county": "Williams County",
    "created_at": "2012-01-04T20:15:55Z",
    "id": 15235,
    "latitude": "48.166506",
    "longitude": "-103.636529",
    "mascot": "Crusaders",
    "name": "Trinity Christian School",
    "primary_color": "Teal",
    "secondary_color": "Purple",
    "state": "ND",
    "timezone": "America/Chicago",
    "updated_at": "2012-07-08T00:26:52Z",
    "zip": "58801"
  },
  {
    "address": "357 6th Ave S",
    "city": "Fargo",
    "county": "Cass County",
    "created_at": "2012-01-04T20:15:55Z",
    "id": 15236,
    "latitude": "46.868635",
    "longitude": "-96.784221",
    "mascot": null,
    "name": "Rivers Edge School",
    "primary_color": null,
    "secondary_color": null,
    "state": "ND",
    "timezone": "America/Chicago",
    "updated_at": "2012-07-08T00:26:52Z",
    "zip": "58103"
  },
  {
    "address": "1717 40th Ave S",
    "city": "Fargo",
    "county": "Cass County",
    "created_at": "2012-01-04T20:15:55Z",
    "id": 15237,
    "latitude": "46.818151",
    "longitude": "-96.809931",
    "mascot": "Wolverines",
    "name": "Discovery Junior High School",
    "primary_color": "Black",
    "secondary_color": "Teal",
    "state": "ND",
    "timezone": "America/Chicago",
    "updated_at": "2012-07-08T00:26:53Z",
    "zip": "58104"
  },
  {
    "address": "1 Main St",
    "city": "Mandaree",
    "county": "McKenzie County",
    "created_at": "2012-01-04T20:15:55Z",
    "id": 15238,
    "latitude": "47.912635",
    "longitude": "-102.711059",
    "mascot": "Warriors",
    "name": "Mandaree Public School",
    "primary_color": "Maroon",
    "secondary_color": "Gold",
    "state": "ND",
    "timezone": "America/Chicago",
    "updated_at": "2012-07-08T00:26:53Z",
    "zip": "58757"
  },
  {
    "address": "501 N Main St",
    "city": "Parshall",
    "county": "Mountrail County",
    "created_at": "2012-01-04T20:15:55Z",
    "id": 15239,
    "latitude": "47.960230",
    "longitude": "-102.133379",
    "mascot": "Braves",
    "name": "Parshall High School",
    "primary_color": "Purple",
    "secondary_color": "White",
    "state": "ND",
    "timezone": "America/Chicago",
    "updated_at": "2012-07-08T00:26:53Z",
    "zip": "58770"
  },
  {
    "address": "1510 University Ave W",
    "city": "Minot",
    "county": "Ward County",
    "created_at": "2012-01-04T20:15:55Z",
    "id": 15240,
    "latitude": "48.245191",
    "longitude": "-101.316207",
    "mascot": "Magicians",
    "name": "Souris River Campus",
    "primary_color": "Gold",
    "secondary_color": "Maroon",
    "state": "ND",
    "timezone": "America/Chicago",
    "updated_at": "2012-07-08T00:26:54Z",
    "zip": "58703"
  },
  {
    "address": "924 S 7th St",
    "city": "Oakes",
    "county": "Dickey County",
    "created_at": "2012-01-04T20:15:55Z",
    "id": 15241,
    "latitude": "46.127583",
    "longitude": "-98.090621",
    "mascot": null,
    "name": "SE Area Vocational Technical Center",
    "primary_color": "Columbia Blue",
    "secondary_color": "White",
    "state": "ND",
    "timezone": "America/Chicago",
    "updated_at": "2012-07-08T00:26:54Z",
    "zip": "58474"
  },
  {
    "address": "205 16th St NW",
    "city": "Devils Lake",
    "county": "Ramsey County",
    "created_at": "2012-01-04T20:15:55Z",
    "id": 15242,
    "latitude": "48.124640",
    "longitude": "-98.867392",
    "mascot": null,
    "name": "Lake Area Vocational Center",
    "primary_color": "Royal",
    "secondary_color": "White",
    "state": "ND",
    "timezone": "America/Chicago",
    "updated_at": "2012-07-08T00:26:55Z",
    "zip": "58301"
  },
  {
    "address": "1580 School Rd",
    "city": "Grafton",
    "county": "Walsh County",
    "created_at": "2012-01-04T20:15:55Z",
    "id": 15243,
    "latitude": "48.406876",
    "longitude": "-97.426651",
    "mascot": "Spoilers",
    "name": "North Valley Vocational Center",
    "primary_color": "Navy",
    "secondary_color": "Gray",
    "state": "ND",
    "timezone": "America/Chicago",
    "updated_at": "2012-07-08T00:26:55Z",
    "zip": "58237"
  },
  {
    "address": "2101 N 9th St",
    "city": "Wahpeton",
    "county": "Richland County",
    "created_at": "2012-01-04T20:15:55Z",
    "id": 15244,
    "latitude": "46.290073",
    "longitude": "-96.611754",
    "mascot": null,
    "name": "Richland County Vocational Center",
    "primary_color": null,
    "secondary_color": null,
    "state": "ND",
    "timezone": "America/Chicago",
    "updated_at": "2012-07-08T00:26:55Z",
    "zip": "58075"
  },
  {
    "address": "PO Box 30",
    "city": "Valley City",
    "county": "Barnes County",
    "created_at": "2012-01-04T20:15:55Z",
    "id": 15245,
    "latitude": "46.979571",
    "longitude": "-98.085349",
    "mascot": null,
    "name": "Valley City Area Vocational Technical",
    "primary_color": null,
    "secondary_color": null,
    "state": "ND",
    "timezone": "America/Chicago",
    "updated_at": "2012-07-08T00:26:55Z",
    "zip": "58072"
  },
  {
    "address": "910 12th Ave NE",
    "city": "Jamestown",
    "county": "Stutsman County",
    "created_at": "2012-01-04T20:15:55Z",
    "id": 15246,
    "latitude": "46.915712",
    "longitude": "-98.691864",
    "mascot": null,
    "name": "James Valley Multi District Vocational",
    "primary_color": null,
    "secondary_color": null,
    "state": "ND",
    "timezone": "America/Chicago",
    "updated_at": "2012-07-08T00:26:56Z",
    "zip": "58401"
  },
  {
    "address": "RR 1 Box 31",
    "city": "Beulah",
    "county": "Mercer County",
    "created_at": "2012-01-04T20:15:55Z",
    "id": 15247,
    "latitude": "47.335304",
    "longitude": "-102.173591",
    "mascot": null,
    "name": "Prairie Winds Christian Academy",
    "primary_color": null,
    "secondary_color": null,
    "state": "ND",
    "timezone": "America/North_Dakota/Beulah",
    "updated_at": "2012-07-08T00:26:56Z",
    "zip": "58523"
  },
  {
    "address": "301 7th Ave NW",
    "city": "Jamestown",
    "county": "Stutsman County",
    "created_at": "2012-01-04T20:15:55Z",
    "id": 15248,
    "latitude": "46.911084",
    "longitude": "-98.716810",
    "mascot": null,
    "name": "Anne Carlsen Center For Children",
    "primary_color": null,
    "secondary_color": null,
    "state": "ND",
    "timezone": "America/Chicago",
    "updated_at": "2012-07-08T00:26:56Z",
    "zip": "58401"
  },
  {
    "address": "1207 Foster Ave NE",
    "city": "Cooperstown",
    "county": "Griggs County",
    "created_at": "2012-01-04T20:15:55Z",
    "id": 15249,
    "latitude": "47.447818",
    "longitude": "-98.119945",
    "mascot": "Cougars",
    "name": "Griggs County Central High School",
    "primary_color": "Columbia Blue",
    "secondary_color": "Black",
    "state": "ND",
    "timezone": "America/Chicago",
    "updated_at": "2012-07-08T00:26:56Z",
    "zip": "58425"
  },
  {
    "address": "110 West St N",
    "city": "Elgin",
    "county": "Grant County",
    "created_at": "2012-01-04T20:15:55Z",
    "id": 15250,
    "latitude": "46.403395",
    "longitude": "-101.848368",
    "mascot": "Panthers",
    "name": "Elgin High School",
    "primary_color": "Gold",
    "secondary_color": "Black",
    "state": "ND",
    "timezone": "America/Denver",
    "updated_at": "2012-07-08T00:26:57Z",
    "zip": "58533"
  }
]