[
  {
    "address": "209 School Dr",
    "city": "Darby",
    "county": "Ravalli County",
    "created_at": "2012-01-04T20:15:42Z",
    "id": 14158,
    "latitude": "46.028213",
    "longitude": "-114.178319",
    "mascot": "Tigers",
    "name": "Darby High School",
    "primary_color": "Red",
    "secondary_color": "Black",
    "state": "MT",
    "timezone": "America/Denver",
    "updated_at": "2012-07-08T00:21:35Z",
    "zip": "59829"
  },
  {
    "address": "423 1st Ave W",
    "city": "Culbertson",
    "county": "Roosevelt County",
    "created_at": "2012-01-04T20:15:42Z",
    "id": 14159,
    "latitude": "48.147107",
    "longitude": "-104.519420",
    "mascot": "Cowboys",
    "name": "Culbertson School",
    "primary_color": "Gold",
    "secondary_color": "Purple",
    "state": "MT",
    "timezone": "America/Denver",
    "updated_at": "2012-07-08T00:21:35Z",
    "zip": "59218"
  },
  {
    "address": "1000 Tongue River Rd",
    "city": "Ashland",
    "county": "Rosebud County",
    "created_at": "2012-01-04T20:15:42Z",
    "id": 14160,
    "latitude": "45.621320",
    "longitude": "-106.288599",
    "mascot": "Braves",
    "name": "Saint Labre Indian School",
    "primary_color": "Gold",
    "secondary_color": "Purple",
    "state": "MT",
    "timezone": "America/Denver",
    "updated_at": "2012-07-08T00:21:36Z",
    "zip": "59003"
  },
  {
    "address": "121 Main St",
    "city": "Plevna",
    "county": "Fallon County",
    "created_at": "2012-01-04T20:15:42Z",
    "id": 14161,
    "latitude": "46.416201",
    "longitude": "-104.517510",
    "mascot": "Cougars",
    "name": "Plevna School",
    "primary_color": "Gold",
    "secondary_color": "Purple",
    "state": "MT",
    "timezone": "America/Denver",
    "updated_at": "2012-07-08T00:21:36Z",
    "zip": "59344"
  },
  {
    "address": "408 1st St S",
    "city": "Froid",
    "county": "Roosevelt County",
    "created_at": "2012-01-04T20:15:42Z",
    "id": 14162,
    "latitude": "48.336825",
    "longitude": "-104.486604",
    "mascot": "Cardinals",
    "name": "Froid School",
    "primary_color": "Red",
    "secondary_color": "Black",
    "state": "MT",
    "timezone": "America/Denver",
    "updated_at": "2012-07-08T00:21:36Z",
    "zip": "59226"
  },
  {
    "address": "4th & Blain St",
    "city": "Saint Ignatius",
    "county": "Lake County",
    "created_at": "2012-01-04T20:15:42Z",
    "id": 14163,
    "latitude": "47.319639",
    "longitude": "-114.096546",
    "mascot": "Bulldogs",
    "name": "Saint Ignatius School",
    "primary_color": "Royal",
    "secondary_color": "White",
    "state": "MT",
    "timezone": "America/Denver",
    "updated_at": "2012-07-08T00:21:37Z",
    "zip": "59865"
  },
  {
    "address": "319 School St",
    "city": "Fromberg",
    "county": "Carbon County",
    "created_at": "2012-01-04T20:15:42Z",
    "id": 14164,
    "latitude": "45.392839",
    "longitude": "-108.911602",
    "mascot": "Falcons",
    "name": "Fromberg Junior Senior High School",
    "primary_color": "Gold",
    "secondary_color": "Red",
    "state": "MT",
    "timezone": "America/Denver",
    "updated_at": "2012-07-08T00:21:37Z",
    "zip": "59029"
  },
  {
    "address": "101 Ammaachimmuua St",
    "city": "Crow Agency",
    "county": "Big Horn County",
    "created_at": "2012-01-04T20:15:42Z",
    "id": 14165,
    "latitude": "45.650510",
    "longitude": "-107.515145",
    "mascot": "Indians",
    "name": "Crow Agency School",
    "primary_color": "Red",
    "secondary_color": "White",
    "state": "MT",
    "timezone": "America/Denver",
    "updated_at": "2012-07-08T00:21:38Z",
    "zip": "59022"
  },
  {
    "address": "304 E Division",
    "city": "Harlowton",
    "county": "Wheatland County",
    "created_at": "2012-01-04T20:15:42Z",
    "id": 14166,
    "latitude": "46.436227",
    "longitude": "-109.828409",
    "mascot": "Engineers",
    "name": "Harlowton Junior Senior High School",
    "primary_color": "Gold",
    "secondary_color": "Maroon",
    "state": "MT",
    "timezone": "America/Denver",
    "updated_at": "2012-07-08T00:21:38Z",
    "zip": "59036"
  },
  {
    "address": "400 7th Ave",
    "city": "Laurel",
    "county": "Yellowstone County",
    "created_at": "2012-01-04T20:15:42Z",
    "id": 14167,
    "latitude": "45.672554",
    "longitude": "-108.780536",
    "mascot": "Eagles",
    "name": "Yellowstone Valley Christian School",
    "primary_color": "Gold",
    "secondary_color": "Royal",
    "state": "MT",
    "timezone": "America/Denver",
    "updated_at": "2012-07-08T00:21:38Z",
    "zip": "59044"
  },
  {
    "address": "207 2nd Ave W",
    "city": "Ryegate",
    "county": "Golden Valley County",
    "created_at": "2012-01-04T20:15:42Z",
    "id": 14168,
    "latitude": "46.298302",
    "longitude": "-109.253738",
    "mascot": "Demons",
    "name": "Ryegate School",
    "primary_color": "Royal",
    "secondary_color": "White",
    "state": "MT",
    "timezone": "America/Denver",
    "updated_at": "2012-07-08T00:21:39Z",
    "zip": "59074"
  },
  {
    "address": "104 4th Ave S",
    "city": "Stanford",
    "county": "Judith Basin County",
    "created_at": "2012-01-04T20:15:42Z",
    "id": 14169,
    "latitude": "47.152337",
    "longitude": "-110.223092",
    "mascot": "Wolves",
    "name": "Stanford Public School",
    "primary_color": "Red",
    "secondary_color": "Black",
    "state": "MT",
    "timezone": "America/Denver",
    "updated_at": "2012-07-08T00:21:39Z",
    "zip": "59479"
  },
  {
    "address": "51 Main St",
    "city": "Anaconda",
    "county": "Deer Lodge County",
    "created_at": "2012-01-04T20:15:42Z",
    "id": 14170,
    "latitude": "46.130738",
    "longitude": "-112.952471",
    "mascot": "Copperheads",
    "name": "Anaconda High School",
    "primary_color": "Navy",
    "secondary_color": "White",
    "state": "MT",
    "timezone": "America/Denver",
    "updated_at": "2012-07-08T00:21:39Z",
    "zip": "59711"
  },
  {
    "address": "5 6th St N",
    "city": "Melstone",
    "county": "Musselshell County",
    "created_at": "2012-01-04T20:15:42Z",
    "id": 14171,
    "latitude": "46.598482",
    "longitude": "-107.869829",
    "mascot": "Broncs",
    "name": "Melstone School",
    "primary_color": "Gold",
    "secondary_color": "Royal",
    "state": "MT",
    "timezone": "America/Denver",
    "updated_at": "2012-07-08T00:21:39Z",
    "zip": "59054"
  },
  {
    "address": "601 Main St",
    "city": "Rosebud",
    "county": "Rosebud County",
    "created_at": "2012-01-04T20:15:42Z",
    "id": 14172,
    "latitude": "46.274765",
    "longitude": "-106.443869",
    "mascot": "Wranglers",
    "name": "Rosebud School",
    "primary_color": "Red",
    "secondary_color": "Black",
    "state": "MT",
    "timezone": "America/Denver",
    "updated_at": "2012-07-08T00:21:40Z",
    "zip": "59347"
  },
  {
    "address": "School Rd",
    "city": "Heart Butte",
    "county": "Pondera County",
    "created_at": "2012-01-04T20:15:42Z",
    "id": 14173,
    "latitude": "48.279332",
    "longitude": "-112.828981",
    "mascot": "Warriors",
    "name": "Heart Butte School",
    "primary_color": "Gold",
    "secondary_color": "Black",
    "state": "MT",
    "timezone": "America/Denver",
    "updated_at": "2012-07-08T00:21:40Z",
    "zip": "59448"
  },
  {
    "address": "210 E Neal St",
    "city": "Three Forks",
    "county": "Gallatin County",
    "created_at": "2012-01-04T20:15:42Z",
    "id": 14174,
    "latitude": "45.896098",
    "longitude": "-111.549148",
    "mascot": "Wolves",
    "name": "Three Forks School",
    "primary_color": "Red",
    "secondary_color": "White",
    "state": "MT",
    "timezone": "America/Denver",
    "updated_at": "2012-07-08T00:21:40Z",
    "zip": "59752"
  },
  {
    "address": "8000 Churchill Rd",
    "city": "Manhattan",
    "county": "Gallatin County",
    "created_at": "2012-01-04T20:15:42Z",
    "id": 14175,
    "latitude": "45.750763",
    "longitude": "-111.302311",
    "mascot": "Eagles",
    "name": "Manhattan Christian School",
    "primary_color": "Gold",
    "secondary_color": "Maroon",
    "state": "MT",
    "timezone": "America/Denver",
    "updated_at": "2012-07-08T00:21:40Z",
    "zip": "59741"
  },
  {
    "address": "123 Walker St",
    "city": "Simms",
    "county": "Cascade County",
    "created_at": "2012-01-04T20:15:42Z",
    "id": 14176,
    "latitude": "47.491960",
    "longitude": "-111.928739",
    "mascot": "Tigers",
    "name": "Simms High School",
    "primary_color": "Red",
    "secondary_color": "Black",
    "state": "MT",
    "timezone": "America/Denver",
    "updated_at": "2012-07-08T00:21:41Z",
    "zip": "59477"
  },
  {
    "address": "4525 Grand Ave",
    "city": "Billings",
    "county": "Yellowstone County",
    "created_at": "2012-01-04T20:15:42Z",
    "id": 14177,
    "latitude": "45.784083",
    "longitude": "-108.630549",
    "mascot": "Warriors",
    "name": "Billings Christian School",
    "primary_color": "Gray",
    "secondary_color": "Maroon",
    "state": "MT",
    "timezone": "America/Denver",
    "updated_at": "2012-07-08T00:21:41Z",
    "zip": "59106"
  },
  {
    "address": "20 S Center St",
    "city": "Miles City",
    "county": "Custer County",
    "created_at": "2012-01-04T20:15:42Z",
    "id": 14178,
    "latitude": "46.407911",
    "longitude": "-105.840903",
    "mascot": "Cowboys & Cowgirls",
    "name": "Custer County District High School",
    "primary_color": "Gold",
    "secondary_color": "Navy",
    "state": "MT",
    "timezone": "America/Denver",
    "updated_at": "2012-07-08T00:21:42Z",
    "zip": "59301"
  },
  {
    "address": "900 N Merrill Ave",
    "city": "Glendive",
    "county": "Dawson County",
    "created_at": "2012-01-04T20:15:42Z",
    "id": 14179,
    "latitude": "47.111445",
    "longitude": "-104.706622",
    "mascot": "Devils",
    "name": "Dawson County High School",
    "primary_color": "Red",
    "secondary_color": "White",
    "state": "MT",
    "timezone": "America/Denver",
    "updated_at": "2012-07-08T00:21:42Z",
    "zip": "59330"
  },
  {
    "address": "600 E 2nd St",
    "city": "Whitefish",
    "county": "Flathead County",
    "created_at": "2012-01-04T20:15:42Z",
    "id": 14180,
    "latitude": "48.410639",
    "longitude": "-114.335145",
    "mascot": "Bulldogs",
    "name": "Whitefish High School",
    "primary_color": "Gold",
    "secondary_color": "Kelly Green",
    "state": "MT",
    "timezone": "America/Denver",
    "updated_at": "2012-07-08T00:21:42Z",
    "zip": "59937"
  },
  {
    "address": "1300 Billings Ave",
    "city": "Helena",
    "county": "Lewis and Clark County",
    "created_at": "2012-01-04T20:15:42Z",
    "id": 14181,
    "latitude": "46.594149",
    "longitude": "-112.018342",
    "mascot": "Bengals",
    "name": "Helena High School",
    "primary_color": "Red",
    "secondary_color": "White",
    "state": "MT",
    "timezone": "America/Denver",
    "updated_at": "2012-07-08T00:21:42Z",
    "zip": "59601"
  },
  {
    "address": "100 Valley Dr",
    "city": "Helena",
    "county": "Lewis and Clark County",
    "created_at": "2012-01-04T20:15:42Z",
    "id": 14182,
    "latitude": "46.612997",
    "longitude": "-112.049345",
    "mascot": "Bruin Bears",
    "name": "Capital High School",
    "primary_color": "Gold",
    "secondary_color": "Brown",
    "state": "MT",
    "timezone": "America/Denver",
    "updated_at": "2012-07-08T00:21:43Z",
    "zip": "59601"
  },
  {
    "address": "901 S Ave W",
    "city": "Missoula",
    "county": "Missoula County",
    "created_at": "2012-01-04T20:15:42Z",
    "id": 14183,
    "latitude": "46.848880",
    "longitude": "-114.011548",
    "mascot": "Spartans",
    "name": "Sentinel High School",
    "primary_color": "Purple",
    "secondary_color": "Gold",
    "state": "MT",
    "timezone": "America/Denver",
    "updated_at": "2012-07-08T00:21:43Z",
    "zip": "59801"
  },
  {
    "address": "425 Grand Ave",
    "city": "Billings",
    "county": "Yellowstone County",
    "created_at": "2012-01-04T20:15:42Z",
    "id": 14184,
    "latitude": "45.784108",
    "longitude": "-108.526227",
    "mascot": "Broncs",
    "name": "Billings Senior High School",
    "primary_color": "Orange",
    "secondary_color": "Black",
    "state": "MT",
    "timezone": "America/Denver",
    "updated_at": "2012-07-08T00:21:43Z",
    "zip": "59101"
  },
  {
    "address": "205 Main St",
    "city": "Box Elder",
    "county": "Hill County",
    "created_at": "2012-01-04T20:15:42Z",
    "id": 14185,
    "latitude": "48.316941",
    "longitude": "-110.009901",
    "mascot": "Bears",
    "name": "Box Elder School",
    "primary_color": "Royal",
    "secondary_color": "Gold",
    "state": "MT",
    "timezone": "America/Denver",
    "updated_at": "2012-07-08T00:21:43Z",
    "zip": "59521"
  },
  {
    "address": "5th Ave & 6th St",
    "city": "Roundup",
    "county": "Musselshell County",
    "created_at": "2012-01-04T20:15:42Z",
    "id": 14186,
    "latitude": "46.446740",
    "longitude": "-108.548639",
    "mascot": "Panthers",
    "name": "Roundup Junior Senior High School",
    "primary_color": "Maroon",
    "secondary_color": "White",
    "state": "MT",
    "timezone": "America/Denver",
    "updated_at": "2012-07-08T00:21:44Z",
    "zip": "59072"
  },
  {
    "address": "School Rd",
    "city": "Busby",
    "county": "Big Horn County",
    "created_at": "2012-01-04T20:15:42Z",
    "id": 14187,
    "latitude": "45.537141",
    "longitude": "-106.951281",
    "mascot": "Eagles",
    "name": "Northern Cheyenne Tribal School",
    "primary_color": "Royal",
    "secondary_color": "Gold",
    "state": "MT",
    "timezone": "America/Denver",
    "updated_at": "2012-07-08T00:21:44Z",
    "zip": "59016"
  },
  {
    "address": "RR 1 Box 620",
    "city": "Box Elder",
    "county": "Hill County",
    "created_at": "2012-01-04T20:15:42Z",
    "id": 14188,
    "latitude": "48.322802",
    "longitude": "-109.869267",
    "mascot": "North Stars & Morning Stars",
    "name": "Rocky Boy High School",
    "primary_color": "Maroon",
    "secondary_color": "Gold",
    "state": "MT",
    "timezone": "America/Denver",
    "updated_at": "2012-07-08T00:21:44Z",
    "zip": "59521"
  },
  {
    "address": "3641 Bozeman Trail Rd",
    "city": "Bozeman",
    "county": "Gallatin County",
    "created_at": "2012-01-04T20:15:42Z",
    "id": 14189,
    "latitude": "45.652648",
    "longitude": "-110.953942",
    "mascot": "Eagles",
    "name": "Mount Ellis Academy",
    "primary_color": "Royal",
    "secondary_color": "Gold",
    "state": "MT",
    "timezone": "America/Denver",
    "updated_at": "2012-07-08T00:21:45Z",
    "zip": "59715"
  },
  {
    "address": "1015 S 3rd W",
    "city": "Baker",
    "county": "Fallon County",
    "created_at": "2012-01-04T20:15:42Z",
    "id": 14190,
    "latitude": "46.357642",
    "longitude": "-104.279759",
    "mascot": "Spartans",
    "name": "Baker School",
    "primary_color": "Maroon",
    "secondary_color": "Gold",
    "state": "MT",
    "timezone": "America/Denver",
    "updated_at": "2012-07-08T00:21:45Z",
    "zip": "59313"
  },
  {
    "address": "4310 Durston Rd",
    "city": "Bozeman",
    "county": "Gallatin County",
    "created_at": "2012-01-04T20:15:42Z",
    "id": 14191,
    "latitude": "45.685749",
    "longitude": "-111.099568",
    "mascot": "Falcons",
    "name": "Heritage Christian School",
    "primary_color": "Gold",
    "secondary_color": "Royal",
    "state": "MT",
    "timezone": "America/Denver",
    "updated_at": "2012-07-08T00:21:45Z",
    "zip": "59718"
  },
  {
    "address": "400 1st Ave",
    "city": "Flaxville",
    "county": "Daniels County",
    "created_at": "2012-01-04T20:15:42Z",
    "id": 14192,
    "latitude": "48.804285",
    "longitude": "-105.174612",
    "mascot": "Cardinals",
    "name": "Flaxville Public School",
    "primary_color": "Red",
    "secondary_color": "White",
    "state": "MT",
    "timezone": "America/Denver",
    "updated_at": "2012-07-08T00:21:45Z",
    "zip": "59222"
  },
  {
    "address": "123 Main St",
    "city": "Peerless",
    "county": "Daniels County",
    "created_at": "2012-01-04T20:15:42Z",
    "id": 14193,
    "latitude": "48.783030",
    "longitude": "-105.831099",
    "mascot": "Panthers",
    "name": "Peerless School",
    "primary_color": "Gold",
    "secondary_color": "Royal",
    "state": "MT",
    "timezone": "America/Denver",
    "updated_at": "2012-07-08T00:21:46Z",
    "zip": "59253"
  },
  {
    "address": "320 Edith St",
    "city": "Missoula",
    "county": "Missoula County",
    "created_at": "2012-01-04T20:15:42Z",
    "id": 14194,
    "latitude": "46.862576",
    "longitude": "-114.002189",
    "mascot": "Rams/Breakers",
    "name": "Loyola Sacred Heart High School",
    "primary_color": "Columbia Blue",
    "secondary_color": "Red",
    "state": "MT",
    "timezone": "America/Denver",
    "updated_at": "2012-07-08T00:21:46Z",
    "zip": "59801"
  },
  {
    "address": "1 N Harrison St",
    "city": "Lima",
    "county": "Beaverhead County",
    "created_at": "2012-01-04T20:15:42Z",
    "id": 14195,
    "latitude": "44.635087",
    "longitude": "-112.592340",
    "mascot": "Lima Bears",
    "name": "Lima Public School",
    "primary_color": "Gold",
    "secondary_color": "Maroon",
    "state": "MT",
    "timezone": "America/Denver",
    "updated_at": "2012-07-08T00:21:46Z",
    "zip": "59739"
  },
  {
    "address": "404 1st Ave W",
    "city": "Charlo",
    "county": "Lake County",
    "created_at": "2012-01-04T20:15:42Z",
    "id": 14196,
    "latitude": "47.439777",
    "longitude": "-114.173884",
    "mascot": "Vikings",
    "name": "Charlo District 7-J School",
    "primary_color": "Purple",
    "secondary_color": "White",
    "state": "MT",
    "timezone": "America/Denver",
    "updated_at": "2012-07-08T00:21:47Z",
    "zip": "59824"
  },
  {
    "address": "101 2nd St NE",
    "city": "Dutton",
    "county": "Teton County",
    "created_at": "2012-01-04T20:15:42Z",
    "id": 14197,
    "latitude": "47.850647",
    "longitude": "-111.713636",
    "mascot": "Cardinals",
    "name": "Dutton/Brady School",
    "primary_color": "Red",
    "secondary_color": "White",
    "state": "MT",
    "timezone": "America/Denver",
    "updated_at": "2012-07-08T00:21:47Z",
    "zip": "59433"
  },
  {
    "address": "2930 Flood Rd",
    "city": "Great Falls",
    "county": "Cascade County",
    "created_at": "2012-01-04T20:15:42Z",
    "id": 14198,
    "latitude": "47.478272",
    "longitude": "-111.338249",
    "mascot": "Saints",
    "name": "Palisades Christian School",
    "primary_color": "Royal",
    "secondary_color": "White",
    "state": "MT",
    "timezone": "America/Denver",
    "updated_at": "2012-07-08T00:21:47Z",
    "zip": "59404"
  },
  {
    "address": "25 Railroad Rd",
    "city": "Noxon",
    "county": "Sanders County",
    "created_at": "2012-01-04T20:15:42Z",
    "id": 14199,
    "latitude": "47.995477",
    "longitude": "-115.778837",
    "mascot": "Red Devils",
    "name": "Noxon Public School",
    "primary_color": "Red",
    "secondary_color": "White",
    "state": "MT",
    "timezone": "America/Denver",
    "updated_at": "2012-07-08T00:21:47Z",
    "zip": "59853"
  },
  {
    "address": "1st St E",
    "city": "Turner",
    "county": "Blaine County",
    "created_at": "2012-01-04T20:15:43Z",
    "id": 14200,
    "latitude": "48.845685",
    "longitude": "-108.403779",
    "mascot": "Tornados",
    "name": "Turner Public School",
    "primary_color": "Kelly Green",
    "secondary_color": "White",
    "state": "MT",
    "timezone": "America/Denver",
    "updated_at": "2012-07-08T00:21:48Z",
    "zip": "59542"
  },
  {
    "address": "2526 Sunset Ln",
    "city": "Missoula",
    "county": "Missoula County",
    "created_at": "2012-01-04T20:15:43Z",
    "id": 14201,
    "latitude": "46.857865",
    "longitude": "-114.040398",
    "mascot": "Eagles",
    "name": "Valley Christian School",
    "primary_color": "Kelly Green",
    "secondary_color": "Royal",
    "state": "MT",
    "timezone": "America/Denver",
    "updated_at": "2012-07-08T00:21:48Z",
    "zip": "59804"
  },
  {
    "address": "709 Missouri Ave",
    "city": "Deer Lodge",
    "county": "Powell County",
    "created_at": "2012-01-04T20:15:43Z",
    "id": 14202,
    "latitude": "46.398766",
    "longitude": "-112.728651",
    "mascot": "Wardens",
    "name": "Powell County High School",
    "primary_color": "Navy",
    "secondary_color": "Gold",
    "state": "MT",
    "timezone": "America/Denver",
    "updated_at": "2012-07-08T00:21:48Z",
    "zip": "59722"
  },
  {
    "address": "1477 Ash St",
    "city": "Worden",
    "county": "Yellowstone County",
    "created_at": "2012-01-04T20:15:43Z",
    "id": 14203,
    "latitude": "45.959441",
    "longitude": "-108.165141",
    "mascot": "Devils",
    "name": "Huntley Project School",
    "primary_color": "Red",
    "secondary_color": "White",
    "state": "MT",
    "timezone": "America/Denver",
    "updated_at": "2012-07-08T00:21:48Z",
    "zip": "59088"
  },
  {
    "address": "124 N George St",
    "city": "Lodge Grass",
    "county": "Big Horn County",
    "created_at": "2012-01-04T20:15:43Z",
    "id": 14204,
    "latitude": "45.315438",
    "longitude": "-107.369717",
    "mascot": "Indians",
    "name": "Lodge Grass High School",
    "primary_color": "Orange",
    "secondary_color": "Black",
    "state": "MT",
    "timezone": "America/Denver",
    "updated_at": "2012-07-08T00:21:48Z",
    "zip": "59050"
  },
  {
    "address": "600 Commerce St",
    "city": "Bigfork",
    "county": "Flathead County",
    "created_at": "2012-01-04T20:15:43Z",
    "id": 14205,
    "latitude": "48.065342",
    "longitude": "-114.079580",
    "mascot": "Vikings",
    "name": "Bigfork High School",
    "primary_color": "Royal",
    "secondary_color": "White",
    "state": "MT",
    "timezone": "America/Denver",
    "updated_at": "2012-07-08T00:21:49Z",
    "zip": "59911"
  },
  {
    "address": "160 West St S",
    "city": "Highwood",
    "county": "Chouteau County",
    "created_at": "2012-01-04T20:15:43Z",
    "id": 14206,
    "latitude": "47.584181",
    "longitude": "-110.796773",
    "mascot": "Mountaineers",
    "name": "Highwood Public School",
    "primary_color": "Gold",
    "secondary_color": "Royal",
    "state": "MT",
    "timezone": "America/Denver",
    "updated_at": "2012-07-08T00:21:49Z",
    "zip": "59450"
  },
  {
    "address": "214 1st Ave E",
    "city": "Lavina",
    "county": "Golden Valley County",
    "created_at": "2012-01-04T20:15:43Z",
    "id": 14207,
    "latitude": "46.294555",
    "longitude": "-108.937169",
    "mascot": null,
    "name": "Lavina School",
    "primary_color": "Purple",
    "secondary_color": "White",
    "state": "MT",
    "timezone": "America/Denver",
    "updated_at": "2012-07-08T00:21:49Z",
    "zip": "59046"
  },
  {
    "address": "5000 Pine Butte Dr",
    "city": "Colstrip",
    "county": "Rosebud County",
    "created_at": "2012-01-04T20:15:43Z",
    "id": 14208,
    "latitude": "45.914445",
    "longitude": "-106.636479",
    "mascot": "Colts And Fillies",
    "name": "Colstrip High School",
    "primary_color": "Kelly Green",
    "secondary_color": "Black",
    "state": "MT",
    "timezone": "America/Denver",
    "updated_at": "2012-07-08T00:21:49Z",
    "zip": "59323"
  },
  {
    "address": "306 Railroad Ave",
    "city": "Alberton",
    "county": "Mineral County",
    "created_at": "2012-01-04T20:15:43Z",
    "id": 14209,
    "latitude": "47.003980",
    "longitude": "-114.481249",
    "mascot": "Panthers",
    "name": "Alberton School",
    "primary_color": "Maroon",
    "secondary_color": "White",
    "state": "MT",
    "timezone": "America/Denver",
    "updated_at": "2012-07-08T00:21:50Z",
    "zip": "59820"
  },
  {
    "address": "3723 Central Ave",
    "city": "Billings",
    "county": "Yellowstone County",
    "created_at": "2012-01-04T20:15:43Z",
    "id": 14210,
    "latitude": "45.769628",
    "longitude": "-108.610550",
    "mascot": null,
    "name": "Billings Career Education Center",
    "primary_color": "Columbia Blue",
    "secondary_color": "White",
    "state": "MT",
    "timezone": "America/Denver",
    "updated_at": "2012-07-08T00:21:50Z",
    "zip": "59102"
  },
  {
    "address": "124 3rd Ave E",
    "city": "Kalispell",
    "county": "Flathead County",
    "created_at": "2012-01-04T20:15:43Z",
    "id": 14211,
    "latitude": "48.198227",
    "longitude": "-114.308902",
    "mascot": "Lions",
    "name": "Bridge Academy",
    "primary_color": "Black",
    "secondary_color": "Orange",
    "state": "MT",
    "timezone": "America/Denver",
    "updated_at": "2012-07-08T00:21:50Z",
    "zip": "59901"
  },
  {
    "address": "104 N Pacific St",
    "city": "Dillon",
    "county": "Beaverhead County",
    "created_at": "2012-01-04T20:15:43Z",
    "id": 14212,
    "latitude": "45.216621",
    "longitude": "-112.633829",
    "mascot": "Beavers",
    "name": "Beaverhead County High School",
    "primary_color": "Royal",
    "secondary_color": "Gold",
    "state": "MT",
    "timezone": "America/Denver",
    "updated_at": "2012-07-08T00:21:50Z",
    "zip": "59725"
  },
  {
    "address": "304 4th Ave",
    "city": "Custer",
    "county": "Yellowstone County",
    "created_at": "2012-01-04T20:15:43Z",
    "id": 14213,
    "latitude": "46.127062",
    "longitude": "-107.556568",
    "mascot": "Cougars",
    "name": "Custer Public School",
    "primary_color": "Gold",
    "secondary_color": "Royal",
    "state": "MT",
    "timezone": "America/Denver",
    "updated_at": "2012-07-08T00:21:51Z",
    "zip": "59024"
  },
  {
    "address": "1200 Lehman Ave",
    "city": "Denton",
    "county": "Fergus County",
    "created_at": "2012-01-04T20:15:43Z",
    "id": 14214,
    "latitude": "47.317320",
    "longitude": "-109.940629",
    "mascot": "Trojans",
    "name": "Denton School",
    "primary_color": "Royal",
    "secondary_color": "White",
    "state": "MT",
    "timezone": "America/Denver",
    "updated_at": "2012-07-08T00:21:51Z",
    "zip": "59430"
  },
  {
    "address": "201 Casino Creek Dr",
    "city": "Lewistown",
    "county": "Fergus County",
    "created_at": "2012-01-04T20:15:43Z",
    "id": 14215,
    "latitude": "47.055543",
    "longitude": "-109.424026",
    "mascot": "Golden Eagles",
    "name": "Fergus High School",
    "primary_color": "Gold",
    "secondary_color": "Royal",
    "state": "MT",
    "timezone": "America/Denver",
    "updated_at": "2012-07-08T00:21:51Z",
    "zip": "59457"
  },
  {
    "address": "1105 F Ave",
    "city": "Circle",
    "county": "McCone County",
    "created_at": "2012-01-04T20:15:43Z",
    "id": 14216,
    "latitude": "47.416552",
    "longitude": "-105.592550",
    "mascot": "Wildcats",
    "name": "Circle High School",
    "primary_color": "Gold",
    "secondary_color": "Maroon",
    "state": "MT",
    "timezone": "America/Denver",
    "updated_at": "2012-07-08T00:21:52Z",
    "zip": "59215"
  },
  {
    "address": "4 N Haynes Ave",
    "city": "Miles City",
    "county": "Custer County",
    "created_at": "2012-01-04T20:15:43Z",
    "id": 14217,
    "latitude": "46.408531",
    "longitude": "-105.822640",
    "mascot": null,
    "name": "Pine Hills School",
    "primary_color": null,
    "secondary_color": null,
    "state": "MT",
    "timezone": "America/Denver",
    "updated_at": "2012-07-08T00:21:52Z",
    "zip": "59301"
  },
  {
    "address": "335 6th St E",
    "city": "Eureka",
    "county": "Lincoln County",
    "created_at": "2012-01-04T20:15:43Z",
    "id": 14218,
    "latitude": "48.882398",
    "longitude": "-115.045926",
    "mascot": "Lions",
    "name": "Lincoln County High School",
    "primary_color": "Orange",
    "secondary_color": "Black",
    "state": "MT",
    "timezone": "America/Denver",
    "updated_at": "2012-07-08T00:21:52Z",
    "zip": "59917"
  },
  {
    "address": "17620 Frontage Rd",
    "city": "Frenchtown",
    "county": "Missoula County",
    "created_at": "2012-01-04T20:15:43Z",
    "id": 14219,
    "latitude": "47.019490",
    "longitude": "-114.243189",
    "mascot": "Broncs",
    "name": "Frenchtown High School",
    "primary_color": "Gray",
    "secondary_color": "Black",
    "state": "MT",
    "timezone": "America/Denver",
    "updated_at": "2012-07-08T00:21:52Z",
    "zip": "59834"
  },
  {
    "address": "Tongue River Rd",
    "city": "Ashland",
    "county": "Rosebud County",
    "created_at": "2012-01-04T20:15:43Z",
    "id": 14220,
    "latitude": "45.620585",
    "longitude": "-106.288194",
    "mascot": "Braves",
    "name": "Saint Labre Indian Catholic High School",
    "primary_color": "Gold",
    "secondary_color": "Purple",
    "state": "MT",
    "timezone": "America/Denver",
    "updated_at": "2012-07-08T00:21:53Z",
    "zip": "59003"
  },
  {
    "address": "9 S Idaho St",
    "city": "Butte",
    "county": "Silver Bow County",
    "created_at": "2012-01-04T20:15:43Z",
    "id": 14221,
    "latitude": "46.012397",
    "longitude": "-112.540522",
    "mascot": "Maroons",
    "name": "Butte Central Catholic High School",
    "primary_color": "Maroon",
    "secondary_color": "White",
    "state": "MT",
    "timezone": "America/Denver",
    "updated_at": "2012-07-08T00:21:53Z",
    "zip": "59701"
  },
  {
    "address": "3 Broadwater Ave",
    "city": "Billings",
    "county": "Yellowstone County",
    "created_at": "2012-01-04T20:15:43Z",
    "id": 14222,
    "latitude": "45.777118",
    "longitude": "-108.515650",
    "mascot": "Rams",
    "name": "Billings Central Catholic High School",
    "primary_color": "Kelly Green",
    "secondary_color": "White",
    "state": "MT",
    "timezone": "America/Denver",
    "updated_at": "2012-07-08T00:21:53Z",
    "zip": "59101"
  },
  {
    "address": "PO Box 2209",
    "city": "Cut Bank",
    "county": "Glacier County",
    "created_at": "2012-01-04T20:15:43Z",
    "id": 14223,
    "latitude": "48.711306",
    "longitude": "-112.366069",
    "mascot": null,
    "name": "Glacier Colony School",
    "primary_color": null,
    "secondary_color": null,
    "state": "MT",
    "timezone": "America/Denver",
    "updated_at": "2012-07-08T00:21:53Z",
    "zip": "59427"
  },
  {
    "address": "100 46th St N",
    "city": "Great Falls",
    "county": "Cascade County",
    "created_at": "2012-01-04T20:15:43Z",
    "id": 14224,
    "latitude": "47.506050",
    "longitude": "-111.227792",
    "mascot": "Eagles",
    "name": "Treasure State Academy",
    "primary_color": "Royal",
    "secondary_color": "White",
    "state": "MT",
    "timezone": "America/Denver",
    "updated_at": "2012-07-08T00:21:54Z",
    "zip": "59405"
  },
  {
    "address": "1251 Willow Glan Dr",
    "city": "Kalispell",
    "county": "Flathead County",
    "created_at": "2012-01-04T20:15:43Z",
    "id": 14225,
    "latitude": "48.172746",
    "longitude": "-114.287817",
    "mascot": "Colts",
    "name": "Stillwater Christian School",
    "primary_color": "Gold",
    "secondary_color": "Royal",
    "state": "MT",
    "timezone": "America/Denver",
    "updated_at": "2012-07-08T00:21:54Z",
    "zip": "59901"
  },
  {
    "address": "118 Mud Creek Ln",
    "city": "Ronan",
    "county": "Lake County",
    "created_at": "2012-01-04T20:15:43Z",
    "id": 14226,
    "latitude": "47.569600",
    "longitude": "-114.109889",
    "mascot": null,
    "name": "Glacier View Christian School",
    "primary_color": "Royal",
    "secondary_color": "White",
    "state": "MT",
    "timezone": "America/Denver",
    "updated_at": "2012-07-08T00:21:54Z",
    "zip": "59864"
  },
  {
    "address": "311 Power St",
    "city": "Helena",
    "county": "Lewis and Clark County",
    "created_at": "2012-01-04T20:15:43Z",
    "id": 14227,
    "latitude": "46.592842",
    "longitude": "-112.041497",
    "mascot": "Lions",
    "name": "Helena Christian Academy",
    "primary_color": "Gold",
    "secondary_color": "Purple",
    "state": "MT",
    "timezone": "America/Denver",
    "updated_at": "2012-07-08T00:21:55Z",
    "zip": "59601"
  },
  {
    "address": "502 S Central",
    "city": "Sidney",
    "county": "Richland County",
    "created_at": "2012-01-04T20:15:43Z",
    "id": 14228,
    "latitude": "47.711378",
    "longitude": "-104.159755",
    "mascot": "Crusaders",
    "name": "Liberty Christian School",
    "primary_color": "Red",
    "secondary_color": "White",
    "state": "MT",
    "timezone": "America/Denver",
    "updated_at": "2012-07-08T00:21:55Z",
    "zip": "59270"
  },
  {
    "address": "1342 Blue Slide Rd",
    "city": "Thompson Falls",
    "county": "Sanders County",
    "created_at": "2012-01-04T20:15:43Z",
    "id": 14229,
    "latitude": "47.729673",
    "longitude": "-115.420837",
    "mascot": null,
    "name": "Spring Creek Lodge Academy",
    "primary_color": "Maroon",
    "secondary_color": "Hunter Green",
    "state": "MT",
    "timezone": "America/Denver",
    "updated_at": "2012-07-08T00:21:55Z",
    "zip": "59873"
  },
  {
    "address": "294 Luster Rd",
    "city": "Frazer",
    "county": "Valley County",
    "created_at": "2012-01-04T20:15:43Z",
    "id": 14230,
    "latitude": "48.407150",
    "longitude": "-105.934779",
    "mascot": "Lions",
    "name": "Lustre Christian High School",
    "primary_color": "Royal",
    "secondary_color": "White",
    "state": "MT",
    "timezone": "America/Denver",
    "updated_at": "2012-07-08T00:21:55Z",
    "zip": "59225"
  },
  {
    "address": "1 High School Ln",
    "city": "Pryor",
    "county": "Big Horn County",
    "created_at": "2012-01-04T20:15:43Z",
    "id": 14231,
    "latitude": "45.430520",
    "longitude": "-108.532519",
    "mascot": "Warriors",
    "name": "Plenty Coups High School",
    "primary_color": "Orange",
    "secondary_color": "Turquoise",
    "state": "MT",
    "timezone": "America/Denver",
    "updated_at": "2012-07-08T00:21:56Z",
    "zip": "59066"
  },
  {
    "address": "702 N Terry Ave",
    "city": "Hardin",
    "county": "Big Horn County",
    "created_at": "2012-01-04T20:15:43Z",
    "id": 14232,
    "latitude": "45.735384",
    "longitude": "-107.614887",
    "mascot": "Bulldogs",
    "name": "Hardin High School",
    "primary_color": "Orange",
    "secondary_color": "Black",
    "state": "MT",
    "timezone": "America/Denver",
    "updated_at": "2012-07-08T00:21:56Z",
    "zip": "59034"
  },
  {
    "address": "610 1st Ave SE",
    "city": "Harlem",
    "county": "Blaine County",
    "created_at": "2012-01-04T20:15:43Z",
    "id": 14233,
    "latitude": "48.530915",
    "longitude": "-108.779079",
    "mascot": "Wildcats",
    "name": "Harlem Junior Senior High School",
    "primary_color": "Maroon",
    "secondary_color": "White",
    "state": "MT",
    "timezone": "America/Denver",
    "updated_at": "2012-07-08T00:21:56Z",
    "zip": "59526"
  },
  {
    "address": "201 N Spruce St",
    "city": "Townsend",
    "county": "Broadwater County",
    "created_at": "2012-01-04T20:15:43Z",
    "id": 14234,
    "latitude": "46.322204",
    "longitude": "-111.519107",
    "mascot": "Bulldogs",
    "name": "Broadwater High School",
    "primary_color": "Royal",
    "secondary_color": "White",
    "state": "MT",
    "timezone": "America/Denver",
    "updated_at": "2012-07-08T00:21:56Z",
    "zip": "59644"
  },
  {
    "address": "200 Wisconsin St",
    "city": "Belfry",
    "county": "Carbon County",
    "created_at": "2012-01-04T20:15:43Z",
    "id": 14235,
    "latitude": "45.142876",
    "longitude": "-109.005791",
    "mascot": "Bats",
    "name": "Belfry Public School",
    "primary_color": "Gold",
    "secondary_color": "Royal",
    "state": "MT",
    "timezone": "America/Denver",
    "updated_at": "2012-07-08T00:21:57Z",
    "zip": "59008"
  },
  {
    "address": "106 N 4th",
    "city": "Bridger",
    "county": "Carbon County",
    "created_at": "2012-01-04T20:15:43Z",
    "id": 14236,
    "latitude": "45.295872",
    "longitude": "-108.918489",
    "mascot": "Infantry Scouts",
    "name": "Bridger K-12 School",
    "primary_color": "Gold",
    "secondary_color": "Maroon",
    "state": "MT",
    "timezone": "America/Denver",
    "updated_at": "2012-07-08T00:21:57Z",
    "zip": "59014"
  },
  {
    "address": "429 W Park Ave",
    "city": "Bridger",
    "county": "Carbon County",
    "created_at": "2012-01-04T20:15:43Z",
    "id": 14237,
    "latitude": "45.296760",
    "longitude": "-108.919055",
    "mascot": "Scouts",
    "name": "Bridger High School",
    "primary_color": "Maroon",
    "secondary_color": "White",
    "state": "MT",
    "timezone": "America/Denver",
    "updated_at": "2012-07-08T00:21:57Z",
    "zip": "59014"
  },
  {
    "address": "413 S Oaks",
    "city": "Red Lodge",
    "county": "Carbon County",
    "created_at": "2012-01-04T20:15:43Z",
    "id": 14238,
    "latitude": "45.182759",
    "longitude": "-109.249213",
    "mascot": "Redskins",
    "name": "Red Lodge High School",
    "primary_color": "Gold",
    "secondary_color": "Royal",
    "state": "MT",
    "timezone": "America/Denver",
    "updated_at": "2012-07-08T00:21:58Z",
    "zip": "59068"
  },
  {
    "address": "106 Maple St",
    "city": "Roberts",
    "county": "Carbon County",
    "created_at": "2012-01-04T20:15:43Z",
    "id": 14239,
    "latitude": "45.361070",
    "longitude": "-109.165864",
    "mascot": "Rockets",
    "name": "Roberts School",
    "primary_color": "Gold",
    "secondary_color": "Royal",
    "state": "MT",
    "timezone": "America/Denver",
    "updated_at": "2012-07-08T00:21:58Z",
    "zip": "59070"
  },
  {
    "address": "111 W Speelman St",
    "city": "Ekalaka",
    "county": "Carter County",
    "created_at": "2012-01-04T20:15:43Z",
    "id": 14240,
    "latitude": "45.889747",
    "longitude": "-104.550934",
    "mascot": "Bulldogs",
    "name": "Carter County High School",
    "primary_color": "Royal",
    "secondary_color": "Red",
    "state": "MT",
    "timezone": "America/Denver",
    "updated_at": "2012-07-08T00:21:58Z",
    "zip": "59324"
  },
  {
    "address": "1900 2nd Ave S",
    "city": "Great Falls",
    "county": "Cascade County",
    "created_at": "2012-01-04T20:15:43Z",
    "id": 14241,
    "latitude": "47.502980",
    "longitude": "-111.274525",
    "mascot": "Bison",
    "name": "Great Falls High School",
    "primary_color": "Royal",
    "secondary_color": "White",
    "state": "MT",
    "timezone": "America/Denver",
    "updated_at": "2012-07-08T00:21:58Z",
    "zip": "59405"
  },
  {
    "address": "228 17th Ave NW",
    "city": "Great Falls",
    "county": "Cascade County",
    "created_at": "2012-01-04T20:15:43Z",
    "id": 14242,
    "latitude": "47.521930",
    "longitude": "-111.318946",
    "mascot": "Rustlers",
    "name": "C M Russell High School",
    "primary_color": "Gold",
    "secondary_color": "Kelly Green",
    "state": "MT",
    "timezone": "America/Denver",
    "updated_at": "2012-07-08T00:21:59Z",
    "zip": "59405"
  },
  {
    "address": "3300 3rd St NE",
    "city": "Great Falls",
    "county": "Cascade County",
    "created_at": "2012-01-04T20:15:43Z",
    "id": 14243,
    "latitude": "47.535985",
    "longitude": "-111.308847",
    "mascot": "Lynx",
    "name": "Skyline Education Center",
    "primary_color": "Gray",
    "secondary_color": "Maroon",
    "state": "MT",
    "timezone": "America/Denver",
    "updated_at": "2012-07-08T00:21:59Z",
    "zip": "59404"
  },
  {
    "address": "398 1st Ave",
    "city": "Big Sandy",
    "county": "Chouteau County",
    "created_at": "2012-01-04T20:15:43Z",
    "id": 14244,
    "latitude": "48.180151",
    "longitude": "-110.116117",
    "mascot": "Pioneers",
    "name": "Big Sandy Junior Senior High School",
    "primary_color": "Gold",
    "secondary_color": "Purple",
    "state": "MT",
    "timezone": "America/Denver",
    "updated_at": "2012-07-08T00:22:00Z",
    "zip": "59520"
  },
  {
    "address": "1820 Washington St",
    "city": "Fort Benton",
    "county": "Chouteau County",
    "created_at": "2012-01-04T20:15:43Z",
    "id": 14245,
    "latitude": "47.822050",
    "longitude": "-110.667620",
    "mascot": "Longhorns",
    "name": "Fort Benton Junior & Senior School",
    "primary_color": "Maroon",
    "secondary_color": "White",
    "state": "MT",
    "timezone": "America/Denver",
    "updated_at": "2012-07-08T00:22:00Z",
    "zip": "59442"
  },
  {
    "address": "238 Brewster St",
    "city": "Geraldine",
    "county": "Chouteau County",
    "created_at": "2012-01-04T20:15:43Z",
    "id": 14246,
    "latitude": "47.597032",
    "longitude": "-110.268896",
    "mascot": "Tigers",
    "name": "Geraldine High School",
    "primary_color": "Orange",
    "secondary_color": "Black",
    "state": "MT",
    "timezone": "America/Denver",
    "updated_at": "2012-07-08T00:22:00Z",
    "zip": "59446"
  },
  {
    "address": "205 2nd Ave E",
    "city": "Scobey",
    "county": "Daniels County",
    "created_at": "2012-01-04T20:15:43Z",
    "id": 14247,
    "latitude": "48.791717",
    "longitude": "-105.418641",
    "mascot": "Spartans",
    "name": "Scobey Public School",
    "primary_color": "Gold",
    "secondary_color": "Royal",
    "state": "MT",
    "timezone": "America/Denver",
    "updated_at": "2012-07-08T00:22:00Z",
    "zip": "59263"
  },
  {
    "address": "202 Royal Ave",
    "city": "Richey",
    "county": "Dawson County",
    "created_at": "2012-01-04T20:15:43Z",
    "id": 14248,
    "latitude": "47.641794",
    "longitude": "-105.076214",
    "mascot": "Royals",
    "name": "Richey High School",
    "primary_color": "Royal",
    "secondary_color": "White",
    "state": "MT",
    "timezone": "America/Denver",
    "updated_at": "2012-07-08T00:22:01Z",
    "zip": "59259"
  },
  {
    "address": "1015 S 3rd W",
    "city": "Baker",
    "county": "Fallon County",
    "created_at": "2012-01-04T20:15:43Z",
    "id": 14249,
    "latitude": "46.357642",
    "longitude": "-104.279759",
    "mascot": "Spartans",
    "name": "Baker High School",
    "primary_color": "Gold",
    "secondary_color": "Maroon",
    "state": "MT",
    "timezone": "America/Denver",
    "updated_at": "2012-07-08T00:22:01Z",
    "zip": "59313"
  },
  {
    "address": "310 E 2nd St",
    "city": "Grass Range",
    "county": "Fergus County",
    "created_at": "2012-01-04T20:15:43Z",
    "id": 14250,
    "latitude": "47.021186",
    "longitude": "-108.797916",
    "mascot": "Rangers",
    "name": "Grass Range School",
    "primary_color": "Royal",
    "secondary_color": "White",
    "state": "MT",
    "timezone": "America/Denver",
    "updated_at": "2012-07-08T00:22:01Z",
    "zip": "59032"
  },
  {
    "address": "509 Highland Ave",
    "city": "Moore",
    "county": "Fergus County",
    "created_at": "2012-01-04T20:15:43Z",
    "id": 14251,
    "latitude": "46.977597",
    "longitude": "-109.692002",
    "mascot": "Bulldogs",
    "name": "Moore School",
    "primary_color": "Gold",
    "secondary_color": "Columbia Blue",
    "state": "MT",
    "timezone": "America/Denver",
    "updated_at": "2012-07-08T00:22:01Z",
    "zip": "59464"
  },
  {
    "address": "500 David St",
    "city": "Roy",
    "county": "Fergus County",
    "created_at": "2012-01-04T20:15:43Z",
    "id": 14252,
    "latitude": "47.350495",
    "longitude": "-108.834969",
    "mascot": "Pirates",
    "name": "Roy School",
    "primary_color": "Orange",
    "secondary_color": "Black",
    "state": "MT",
    "timezone": "America/Denver",
    "updated_at": "2012-07-08T00:22:02Z",
    "zip": "59471"
  },
  {
    "address": "5th Ave Hwy 131",
    "city": "Winifred",
    "county": "Fergus County",
    "created_at": "2012-01-04T20:15:43Z",
    "id": 14253,
    "latitude": "47.591640",
    "longitude": "-109.302348",
    "mascot": "Red Raiders",
    "name": "Winifred School",
    "primary_color": "Red",
    "secondary_color": "White",
    "state": "MT",
    "timezone": "America/Denver",
    "updated_at": "2012-07-08T00:22:02Z",
    "zip": "59489"
  },
  {
    "address": "610 13th St W",
    "city": "Columbia Falls",
    "county": "Flathead County",
    "created_at": "2012-01-04T20:15:43Z",
    "id": 14254,
    "latitude": "48.367182",
    "longitude": "-114.189668",
    "mascot": "Wildcats",
    "name": "Columbia Falls High School",
    "primary_color": "Royal",
    "secondary_color": "White",
    "state": "MT",
    "timezone": "America/Denver",
    "updated_at": "2012-07-08T00:22:02Z",
    "zip": "59912"
  },
  {
    "address": "205 Northwest Ln",
    "city": "Kalispell",
    "county": "Flathead County",
    "created_at": "2012-01-04T20:15:43Z",
    "id": 14255,
    "latitude": "48.214790",
    "longitude": "-114.333631",
    "mascot": "Braves",
    "name": "Kalispell Junior High School",
    "primary_color": "Orange",
    "secondary_color": "Black",
    "state": "MT",
    "timezone": "America/Denver",
    "updated_at": "2012-07-08T00:22:02Z",
    "zip": "59901"
  },
  {
    "address": "644 4th Ave W",
    "city": "Kalispell",
    "county": "Flathead County",
    "created_at": "2012-01-04T20:15:43Z",
    "id": 14256,
    "latitude": "48.191566",
    "longitude": "-114.316901",
    "mascot": "Braves/Bravettes",
    "name": "Flathead High School",
    "primary_color": "Orange",
    "secondary_color": "Black",
    "state": "MT",
    "timezone": "America/Denver",
    "updated_at": "2012-07-08T00:22:03Z",
    "zip": "59901"
  },
  {
    "address": "303 N Hoffman",
    "city": "Belgrade",
    "county": "Gallatin County",
    "created_at": "2012-01-04T20:15:43Z",
    "id": 14257,
    "latitude": "45.781406",
    "longitude": "-111.177473",
    "mascot": "Panthers",
    "name": "Belgrade High School",
    "primary_color": "Kelly Green",
    "secondary_color": "White",
    "state": "MT",
    "timezone": "America/Denver",
    "updated_at": "2012-07-08T00:22:03Z",
    "zip": "59714"
  },
  {
    "address": "205 N 11th Ave",
    "city": "Bozeman",
    "county": "Gallatin County",
    "created_at": "2012-01-04T20:15:43Z",
    "id": 14258,
    "latitude": "45.681421",
    "longitude": "-111.051412",
    "mascot": "Hawks",
    "name": "Bozeman High School",
    "primary_color": "Red",
    "secondary_color": "Black",
    "state": "MT",
    "timezone": "America/Denver",
    "updated_at": "2012-07-08T00:22:03Z",
    "zip": "59715"
  },
  {
    "address": "200 W Fulton",
    "city": "Manhattan",
    "county": "Gallatin County",
    "created_at": "2012-01-04T20:15:43Z",
    "id": 14259,
    "latitude": "45.860448",
    "longitude": "-111.329052",
    "mascot": "Tigers",
    "name": "Manhattan High School",
    "primary_color": "Orange",
    "secondary_color": "Black",
    "state": "MT",
    "timezone": "America/Denver",
    "updated_at": "2012-07-08T00:22:03Z",
    "zip": "59741"
  },
  {
    "address": "411 N Geyser St",
    "city": "West Yellowstone",
    "county": "Gallatin County",
    "created_at": "2012-01-04T20:15:43Z",
    "id": 14260,
    "latitude": "44.665473",
    "longitude": "-111.108694",
    "mascot": "Wolverines",
    "name": "West Yellowstone School",
    "primary_color": "Red",
    "secondary_color": "White",
    "state": "MT",
    "timezone": "America/Denver",
    "updated_at": "2012-07-08T00:22:04Z",
    "zip": "59758"
  },
  {
    "address": "407 Main St",
    "city": "Willow Creek",
    "county": "Gallatin County",
    "created_at": "2012-01-04T20:15:43Z",
    "id": 14261,
    "latitude": "45.828740",
    "longitude": "-111.643909",
    "mascot": "Broncs",
    "name": "Willow Creek Public School",
    "primary_color": "Gold",
    "secondary_color": "Royal",
    "state": "MT",
    "timezone": "America/Denver",
    "updated_at": "2012-07-08T00:22:04Z",
    "zip": "59760"
  },
  {
    "address": "324 Marguerite St",
    "city": "Jordan",
    "county": "Garfield County",
    "created_at": "2012-01-04T20:15:43Z",
    "id": 14262,
    "latitude": "47.318480",
    "longitude": "-106.906739",
    "mascot": "Mustangs",
    "name": "Garfield County District High School",
    "primary_color": "Orange",
    "secondary_color": "Black",
    "state": "MT",
    "timezone": "America/Denver",
    "updated_at": "2012-07-08T00:22:04Z",
    "zip": "59337"
  },
  {
    "address": "112 1st Ave SW",
    "city": "Browning",
    "county": "Glacier County",
    "created_at": "2012-01-04T20:15:43Z",
    "id": 14263,
    "latitude": "48.554920",
    "longitude": "-113.020589",
    "mascot": "Indians",
    "name": "Browning High School",
    "primary_color": "Red",
    "secondary_color": "Black",
    "state": "MT",
    "timezone": "America/Denver",
    "updated_at": "2012-07-08T00:22:05Z",
    "zip": "59417"
  },
  {
    "address": "101 3rd Ave SE",
    "city": "Cut Bank",
    "county": "Glacier County",
    "created_at": "2012-01-04T20:15:43Z",
    "id": 14264,
    "latitude": "48.633039",
    "longitude": "-112.330447",
    "mascot": "Wolves",
    "name": "Cut Bank High School",
    "primary_color": "Gold",
    "secondary_color": "Purple",
    "state": "MT",
    "timezone": "America/Denver",
    "updated_at": "2012-07-08T00:22:05Z",
    "zip": "59427"
  },
  {
    "address": "108 W Edwards",
    "city": "Drummond",
    "county": "Granite County",
    "created_at": "2012-01-04T20:15:43Z",
    "id": 14265,
    "latitude": "46.669885",
    "longitude": "-113.147239",
    "mascot": "Trojans",
    "name": "Drummond High School",
    "primary_color": "Royal",
    "secondary_color": "White",
    "state": "MT",
    "timezone": "America/Denver",
    "updated_at": "2012-07-08T00:22:05Z",
    "zip": "59832"
  },
  {
    "address": "407 Schnepel St",
    "city": "Philipsburg",
    "county": "Granite County",
    "created_at": "2012-01-04T20:15:43Z",
    "id": 14266,
    "latitude": "46.329828",
    "longitude": "-113.295841",
    "mascot": "Prospectors",
    "name": "Granite High School",
    "primary_color": "Gold",
    "secondary_color": "Maroon",
    "state": "MT",
    "timezone": "America/Denver",
    "updated_at": "2012-07-08T00:22:06Z",
    "zip": "59858"
  },
  {
    "address": "900 18th St",
    "city": "Havre",
    "county": "Hill County",
    "created_at": "2012-01-04T20:15:43Z",
    "id": 14267,
    "latitude": "48.532686",
    "longitude": "-109.698480",
    "mascot": "Blue Ponies",
    "name": "Havre High School",
    "primary_color": "Royal",
    "secondary_color": "White",
    "state": "MT",
    "timezone": "America/Denver",
    "updated_at": "2012-07-08T00:22:06Z",
    "zip": "59501"
  },
  {
    "address": "105 3rd Ave NE",
    "city": "Rudyard",
    "county": "Hill County",
    "created_at": "2012-01-04T20:15:43Z",
    "id": 14268,
    "latitude": "48.561120",
    "longitude": "-110.559244",
    "mascot": "Eagles",
    "name": "North Star School",
    "primary_color": "Royal",
    "secondary_color": "Navy",
    "state": "MT",
    "timezone": "America/Denver",
    "updated_at": "2012-07-08T00:22:06Z",
    "zip": "59540"
  },
  {
    "address": "PO Box 250",
    "city": "Gildford",
    "county": "Hill County",
    "created_at": "2012-01-04T20:15:43Z",
    "id": 14269,
    "latitude": "48.586120",
    "longitude": "-110.248155",
    "mascot": "Kougars",
    "name": "Kremlin-Gilford High School",
    "primary_color": "Gold",
    "secondary_color": "Black",
    "state": "MT",
    "timezone": "America/Denver",
    "updated_at": "2012-07-08T00:22:06Z",
    "zip": "59525"
  },
  {
    "address": "PO Box 176",
    "city": "Boulder",
    "county": "Jefferson County",
    "created_at": "2012-01-04T20:15:43Z",
    "id": 14270,
    "latitude": "46.242645",
    "longitude": "-112.116390",
    "mascot": "Panthers",
    "name": "Jefferson High School",
    "primary_color": "Gold",
    "secondary_color": "Purple",
    "state": "MT",
    "timezone": "America/Denver",
    "updated_at": "2012-07-08T00:22:07Z",
    "zip": "59632"
  },
  {
    "address": "PO Box 400",
    "city": "Whitehall",
    "county": "Jefferson County",
    "created_at": "2012-01-04T20:15:43Z",
    "id": 14271,
    "latitude": "45.880233",
    "longitude": "-112.182538",
    "mascot": "Trojans",
    "name": "Whitehall Senior High School",
    "primary_color": "Gold",
    "secondary_color": "Purple",
    "state": "MT",
    "timezone": "America/Denver",
    "updated_at": "2012-07-08T00:22:07Z",
    "zip": "59759"
  },
  {
    "address": "400 Central Ave",
    "city": "Hobson",
    "county": "Judith Basin County",
    "created_at": "2012-01-04T20:15:43Z",
    "id": 14272,
    "latitude": "47.000285",
    "longitude": "-109.874859",
    "mascot": "Tigers",
    "name": "Hobson School",
    "primary_color": "Orange",
    "secondary_color": "Black",
    "state": "MT",
    "timezone": "America/Denver",
    "updated_at": "2012-07-08T00:22:07Z",
    "zip": "59452"
  },
  {
    "address": "123 Fyant St",
    "city": "Arlee",
    "county": "Lake County",
    "created_at": "2012-01-04T20:15:43Z",
    "id": 14273,
    "latitude": "47.163008",
    "longitude": "-114.082049",
    "mascot": "Warriors",
    "name": "Arlee High School",
    "primary_color": "Red",
    "secondary_color": "White",
    "state": "MT",
    "timezone": "America/Denver",
    "updated_at": "2012-07-08T00:22:07Z",
    "zip": "59821"
  },
  {
    "address": "1712 2nd St W",
    "city": "Polson",
    "county": "Lake County",
    "created_at": "2012-01-04T20:15:43Z",
    "id": 14274,
    "latitude": "47.678385",
    "longitude": "-114.166775",
    "mascot": "Pirates",
    "name": "Polson High School",
    "primary_color": "Gold",
    "secondary_color": "Purple",
    "state": "MT",
    "timezone": "America/Denver",
    "updated_at": "2012-07-08T00:22:08Z",
    "zip": "59860"
  },
  {
    "address": "421 Andrew NW",
    "city": "Ronan",
    "county": "Lake County",
    "created_at": "2012-01-04T20:15:43Z",
    "id": 14275,
    "latitude": "47.531152",
    "longitude": "-114.110061",
    "mascot": "Chiefs & Maidens",
    "name": "Ronan High School",
    "primary_color": "Orange",
    "secondary_color": "Black",
    "state": "MT",
    "timezone": "America/Denver",
    "updated_at": "2012-07-08T00:22:08Z",
    "zip": "59864"
  },
  {
    "address": "808 Main St",
    "city": "Lincoln",
    "county": "Lewis and Clark County",
    "created_at": "2012-01-04T20:15:44Z",
    "id": 14276,
    "latitude": "46.955180",
    "longitude": "-112.674662",
    "mascot": "Lynx",
    "name": "Lincoln Public School",
    "primary_color": "Gold",
    "secondary_color": "Hunter Green",
    "state": "MT",
    "timezone": "America/Denver",
    "updated_at": "2012-07-08T00:22:08Z",
    "zip": "59639"
  },
  {
    "address": "101 School St",
    "city": "Joplin",
    "county": "Liberty County",
    "created_at": "2012-01-04T20:15:44Z",
    "id": 14277,
    "latitude": "48.711643",
    "longitude": "-110.805139",
    "mascot": "Rams",
    "name": "Joplin Junior Senior High School",
    "primary_color": "Gray",
    "secondary_color": "Royal",
    "state": "MT",
    "timezone": "America/Denver",
    "updated_at": "2012-07-08T00:22:08Z",
    "zip": "59531"
  },
  {
    "address": "150 Education Way",
    "city": "Libby",
    "county": "Lincoln County",
    "created_at": "2012-01-04T20:15:44Z",
    "id": 14278,
    "latitude": "48.393807",
    "longitude": "-115.570245",
    "mascot": "Loggers",
    "name": "Libby Senior High School",
    "primary_color": "Gold",
    "secondary_color": "Royal",
    "state": "MT",
    "timezone": "America/Denver",
    "updated_at": "2012-07-08T00:22:09Z",
    "zip": "59923"
  },
  {
    "address": "116 E Missoula",
    "city": "Troy",
    "county": "Lincoln County",
    "created_at": "2012-01-04T20:15:44Z",
    "id": 14279,
    "latitude": "48.464091",
    "longitude": "-115.896363",
    "mascot": "Trojans",
    "name": "Troy Junior Senior High School",
    "primary_color": "Gold",
    "secondary_color": "Maroon",
    "state": "MT",
    "timezone": "America/Denver",
    "updated_at": "2012-07-08T00:22:12Z",
    "zip": "59935"
  },
  {
    "address": "223 S Charles St",
    "city": "Ennis",
    "county": "Madison County",
    "created_at": "2012-01-04T20:15:44Z",
    "id": 14280,
    "latitude": "45.345830",
    "longitude": "-111.733749",
    "mascot": "Mustangs",
    "name": "Ennis High School",
    "primary_color": "Kelly Green",
    "secondary_color": "White",
    "state": "MT",
    "timezone": "America/Denver",
    "updated_at": "2012-07-08T00:22:13Z",
    "zip": "59729"
  },
  {
    "address": "7540 Hwy 287",
    "city": "Harrison",
    "county": "Madison County",
    "created_at": "2012-01-04T20:15:44Z",
    "id": 14281,
    "latitude": "45.651200",
    "longitude": "-111.748139",
    "mascot": "Wildcats",
    "name": "Harrison School",
    "primary_color": "Purple",
    "secondary_color": "White",
    "state": "MT",
    "timezone": "America/Denver",
    "updated_at": "2012-07-08T00:22:16Z",
    "zip": "59735"
  },
  {
    "address": "107 Madison St",
    "city": "Sheridan",
    "county": "Madison County",
    "created_at": "2012-01-04T20:15:44Z",
    "id": 14282,
    "latitude": "45.456591",
    "longitude": "-112.193403",
    "mascot": "Panthers",
    "name": "Sheridan Public School",
    "primary_color": "Purple",
    "secondary_color": "White",
    "state": "MT",
    "timezone": "America/Denver",
    "updated_at": "2012-07-08T00:22:16Z",
    "zip": "59749"
  },
  {
    "address": "107 Madison St",
    "city": "Sheridan",
    "county": "Madison County",
    "created_at": "2012-01-04T20:15:44Z",
    "id": 14283,
    "latitude": "45.456591",
    "longitude": "-112.193403",
    "mascot": "Panthers",
    "name": "Sheridan Public School",
    "primary_color": "Purple",
    "secondary_color": "White",
    "state": "MT",
    "timezone": "America/Denver",
    "updated_at": "2012-07-08T00:22:16Z",
    "zip": "59749"
  },
  {
    "address": "216 W & 4th",
    "city": "Twin Bridges",
    "county": "Madison County",
    "created_at": "2012-01-04T20:15:44Z",
    "id": 14284,
    "latitude": "45.544242",
    "longitude": "-112.331489",
    "mascot": "Falcons",
    "name": "Twin Bridges Junior Senior High School",
    "primary_color": "Red",
    "secondary_color": "White",
    "state": "MT",
    "timezone": "America/Denver",
    "updated_at": "2012-07-08T00:22:17Z",
    "zip": "59754"
  },
  {
    "address": "PO Box C",
    "city": "White Sulphur Springs",
    "county": "Meagher County",
    "created_at": "2012-01-04T20:15:44Z",
    "id": 14285,
    "latitude": "46.661630",
    "longitude": "-110.949517",
    "mascot": "Hornets",
    "name": "White Sulphur Springs Junior Senior High",
    "primary_color": "Orange",
    "secondary_color": "Black",
    "state": "MT",
    "timezone": "America/Denver",
    "updated_at": "2012-07-08T00:22:17Z",
    "zip": "59645"
  },
  {
    "address": "6 Tiger St",
    "city": "Saint Regis",
    "county": "Mineral County",
    "created_at": "2012-01-04T20:15:44Z",
    "id": 14286,
    "latitude": "47.299758",
    "longitude": "-115.101656",
    "mascot": "Tigers",
    "name": "Saint Regis School",
    "primary_color": "Gold",
    "secondary_color": "Kelly Green",
    "state": "MT",
    "timezone": "America/Denver",
    "updated_at": "2012-07-08T00:22:17Z",
    "zip": "59866"
  },
  {
    "address": "410 Arizona Ave",
    "city": "Superior",
    "county": "Mineral County",
    "created_at": "2012-01-04T20:15:44Z",
    "id": 14287,
    "latitude": "47.189491",
    "longitude": "-114.879513",
    "mascot": "Bobcats",
    "name": "Superior Junior Senior High School",
    "primary_color": "Red",
    "secondary_color": "Royal",
    "state": "MT",
    "timezone": "America/Denver",
    "updated_at": "2012-07-08T00:22:18Z",
    "zip": "59872"
  },
  {
    "address": "900 S Higgins Ave",
    "city": "Missoula",
    "county": "Missoula County",
    "created_at": "2012-01-04T20:15:44Z",
    "id": 14288,
    "latitude": "46.862957",
    "longitude": "-113.997450",
    "mascot": "Knights",
    "name": "Hellgate High School",
    "primary_color": "Gold",
    "secondary_color": "Red",
    "state": "MT",
    "timezone": "America/Denver",
    "updated_at": "2012-07-08T00:22:18Z",
    "zip": "59801"
  },
  {
    "address": "456 Airport Rd",
    "city": "Seeley Lake",
    "county": "Missoula County",
    "created_at": "2012-01-04T20:15:44Z",
    "id": 14289,
    "latitude": "47.173740",
    "longitude": "-113.466869",
    "mascot": "Black Hawks",
    "name": "Seeley Swan High School",
    "primary_color": "Gold",
    "secondary_color": "Black",
    "state": "MT",
    "timezone": "America/Denver",
    "updated_at": "2012-07-08T00:22:18Z",
    "zip": "59868"
  },
  {
    "address": "3100 South Ave W",
    "city": "Missoula",
    "county": "Missoula County",
    "created_at": "2012-01-04T20:15:44Z",
    "id": 14290,
    "latitude": "46.848749",
    "longitude": "-114.056057",
    "mascot": "Eagles",
    "name": "Big Sky High School",
    "primary_color": "Gold",
    "secondary_color": "Royal",
    "state": "MT",
    "timezone": "America/Denver",
    "updated_at": "2012-07-08T00:22:18Z",
    "zip": "59804"
  },
  {
    "address": "510 Stone St",
    "city": "Gardiner",
    "county": "Park County",
    "created_at": "2012-01-04T20:15:44Z",
    "id": 14291,
    "latitude": "45.031200",
    "longitude": "-110.709903",
    "mascot": "Bruins",
    "name": "Gardiner High School",
    "primary_color": "Gold",
    "secondary_color": "Royal",
    "state": "MT",
    "timezone": "America/Denver",
    "updated_at": "2012-07-08T00:22:19Z",
    "zip": "59030"
  },
  {
    "address": "102 View Vista Dr",
    "city": "Livingston",
    "county": "Park County",
    "created_at": "2012-01-04T20:15:44Z",
    "id": 14292,
    "latitude": "45.664470",
    "longitude": "-110.541532",
    "mascot": "Rangers",
    "name": "Park High School",
    "primary_color": "Gold",
    "secondary_color": "Purple",
    "state": "MT",
    "timezone": "America/Denver",
    "updated_at": "2012-07-08T00:22:19Z",
    "zip": "59047"
  },
  {
    "address": "305 S Hannaford St",
    "city": "Wilsall",
    "county": "Park County",
    "created_at": "2012-01-04T20:15:44Z",
    "id": 14293,
    "latitude": "45.990780",
    "longitude": "-110.662347",
    "mascot": "Rebels",
    "name": "Shields Valley School",
    "primary_color": "Gray",
    "secondary_color": "Black",
    "state": "MT",
    "timezone": "America/Denver",
    "updated_at": "2012-07-08T00:22:19Z",
    "zip": "59086"
  },
  {
    "address": "205 S Buckley",
    "city": "Winnett",
    "county": "Petroleum County",
    "created_at": "2012-01-04T20:15:44Z",
    "id": 14294,
    "latitude": "47.055367",
    "longitude": "-108.302009",
    "mascot": "Rams",
    "name": "Winnett School",
    "primary_color": "Gold",
    "secondary_color": "Black",
    "state": "MT",
    "timezone": "America/Denver",
    "updated_at": "2012-07-08T00:22:19Z",
    "zip": "59087"
  },
  {
    "address": "127 W 1st Ave",
    "city": "Dodson",
    "county": "Phillips County",
    "created_at": "2012-01-04T20:15:44Z",
    "id": 14295,
    "latitude": "48.458912",
    "longitude": "-107.343415",
    "mascot": "Coyotes",
    "name": "Dodson School",
    "primary_color": "Gold",
    "secondary_color": "Kelly Green",
    "state": "MT",
    "timezone": "America/Denver",
    "updated_at": "2012-07-08T00:22:20Z",
    "zip": "59524"
  },
  {
    "address": "321 Hwy 243",
    "city": "Saco",
    "county": "Phillips County",
    "created_at": "2012-01-04T20:15:44Z",
    "id": 14296,
    "latitude": "48.459499",
    "longitude": "-107.345163",
    "mascot": "Panthers",
    "name": "Saco Public School",
    "primary_color": "Orange",
    "secondary_color": "Black",
    "state": "MT",
    "timezone": "America/Denver",
    "updated_at": "2012-07-08T00:22:20Z",
    "zip": "59261"
  },
  {
    "address": "1 High School Ln S 9th St",
    "city": "Malta",
    "county": "Phillips County",
    "created_at": "2012-01-04T20:15:44Z",
    "id": 14297,
    "latitude": "48.351359",
    "longitude": "-107.874454",
    "mascot": "Colts",
    "name": "Malta Senior High School",
    "primary_color": "Royal",
    "secondary_color": "White",
    "state": "MT",
    "timezone": "America/Denver",
    "updated_at": "2012-07-08T00:22:20Z",
    "zip": "59538"
  },
  {
    "address": "1 Main St",
    "city": "Whitewater",
    "county": "Phillips County",
    "created_at": "2012-01-04T20:15:44Z",
    "id": 14298,
    "latitude": "48.760005",
    "longitude": "-107.628784",
    "mascot": "Penguins",
    "name": "Whitewater School",
    "primary_color": "Kelly Green",
    "secondary_color": "Black",
    "state": "MT",
    "timezone": "America/Denver",
    "updated_at": "2012-07-08T00:22:20Z",
    "zip": "59544"
  },
  {
    "address": "308 S Illinois St",
    "city": "Conrad",
    "county": "Pondera County",
    "created_at": "2012-01-04T20:15:44Z",
    "id": 14299,
    "latitude": "48.172003",
    "longitude": "-111.953509",
    "mascot": "Cowboys And Cowgirls",
    "name": "Conrad High School",
    "primary_color": "Red",
    "secondary_color": "White",
    "state": "MT",
    "timezone": "America/Denver",
    "updated_at": "2012-07-08T00:22:21Z",
    "zip": "59425"
  },
  {
    "address": "804 4th St",
    "city": "Valier",
    "county": "Pondera County",
    "created_at": "2012-01-04T20:15:44Z",
    "id": 14300,
    "latitude": "48.304873",
    "longitude": "-112.254221",
    "mascot": "Panthers",
    "name": "Valier High School",
    "primary_color": "Ash Grey",
    "secondary_color": "Purple",
    "state": "MT",
    "timezone": "America/Denver",
    "updated_at": "2012-07-08T00:22:21Z",
    "zip": "59486"
  },
  {
    "address": "321 1st Ave",
    "city": "Brady",
    "county": "Pondera County",
    "created_at": "2012-01-04T20:15:44Z",
    "id": 14301,
    "latitude": "48.036558",
    "longitude": "-111.838506",
    "mascot": "Bulldogs",
    "name": "Brady Public School",
    "primary_color": "Orange",
    "secondary_color": "Black",
    "state": "MT",
    "timezone": "America/Denver",
    "updated_at": "2012-07-08T00:22:21Z",
    "zip": "59416"
  },
  {
    "address": "500 N Trautman",
    "city": "Broadus",
    "county": "Powder River County",
    "created_at": "2012-01-04T20:15:44Z",
    "id": 14302,
    "latitude": "45.448208",
    "longitude": "-105.405203",
    "mascot": "Hawks",
    "name": "Powder River High School",
    "primary_color": "Gold",
    "secondary_color": "Kelly Green",
    "state": "MT",
    "timezone": "America/Denver",
    "updated_at": "2012-07-08T00:22:21Z",
    "zip": "59317"
  },
  {
    "address": "215 E Park",
    "city": "Terry",
    "county": "Prairie County",
    "created_at": "2012-01-04T20:15:44Z",
    "id": 14303,
    "latitude": "46.791770",
    "longitude": "-105.308175",
    "mascot": "Terriers",
    "name": "Terry High School",
    "primary_color": "Purple",
    "secondary_color": "White",
    "state": "MT",
    "timezone": "America/Denver",
    "updated_at": "2012-07-08T00:22:22Z",
    "zip": "59349"
  },
  {
    "address": "1045 Main St",
    "city": "Corvallis",
    "county": "Ravalli County",
    "created_at": "2012-01-04T20:15:44Z",
    "id": 14304,
    "latitude": "46.313645",
    "longitude": "-114.115482",
    "mascot": "Blue Devils",
    "name": "Corvallis High School",
    "primary_color": "Royal",
    "secondary_color": "White",
    "state": "MT",
    "timezone": "America/Denver",
    "updated_at": "2012-07-08T00:22:22Z",
    "zip": "59828"
  },
  {
    "address": "5602 Old US Hwy 93",
    "city": "Florence",
    "county": "Missoula County",
    "created_at": "2012-01-04T20:15:44Z",
    "id": 14305,
    "latitude": "46.687738",
    "longitude": "-114.077707",
    "mascot": "Falcons",
    "name": "Florence-Carlton Schools",
    "primary_color": "Gold",
    "secondary_color": "Maroon",
    "state": "MT",
    "timezone": "America/Denver",
    "updated_at": "2012-07-08T00:22:22Z",
    "zip": "59833"
  },
  {
    "address": "327 Fairgrounds Rd",
    "city": "Hamilton",
    "county": "Ravalli County",
    "created_at": "2012-01-04T20:15:44Z",
    "id": 14306,
    "latitude": "46.255014",
    "longitude": "-114.150152",
    "mascot": "Broncs",
    "name": "Hamilton High School",
    "primary_color": "Red",
    "secondary_color": "White",
    "state": "MT",
    "timezone": "America/Denver",
    "updated_at": "2012-07-08T00:22:22Z",
    "zip": "59840"
  },
  {
    "address": "300 Park St",
    "city": "Stevensville",
    "county": "Ravalli County",
    "created_at": "2012-01-04T20:15:44Z",
    "id": 14307,
    "latitude": "46.508330",
    "longitude": "-114.085289",
    "mascot": "Yellow Jackets",
    "name": "Stevensville High School",
    "primary_color": "Gold",
    "secondary_color": "Black",
    "state": "MT",
    "timezone": "America/Denver",
    "updated_at": "2012-07-08T00:22:23Z",
    "zip": "59870"
  },
  {
    "address": "425 4th Ave",
    "city": "Victor",
    "county": "Ravalli County",
    "created_at": "2012-01-04T20:15:44Z",
    "id": 14308,
    "latitude": "46.415398",
    "longitude": "-114.150651",
    "mascot": "Pirates",
    "name": "Victor Public School",
    "primary_color": "Gold",
    "secondary_color": "Royal",
    "state": "MT",
    "timezone": "America/Denver",
    "updated_at": "2012-07-08T00:22:23Z",
    "zip": "59875"
  },
  {
    "address": "713 S Western Ave",
    "city": "Fairview",
    "county": "Richland County",
    "created_at": "2012-01-04T20:15:44Z",
    "id": 14309,
    "latitude": "47.849993",
    "longitude": "-104.047729",
    "mascot": "Warriors",
    "name": "Fairview School",
    "primary_color": "Gold",
    "secondary_color": "Royal",
    "state": "MT",
    "timezone": "America/Denver",
    "updated_at": "2012-07-08T00:22:23Z",
    "zip": "59221"
  },
  {
    "address": "301 3rd Ave N",
    "city": "Lambert",
    "county": "Richland County",
    "created_at": "2012-01-04T20:15:44Z",
    "id": 14310,
    "latitude": "47.684580",
    "longitude": "-104.625759",
    "mascot": "Lions",
    "name": "Lambert School",
    "primary_color": "Red",
    "secondary_color": "White",
    "state": "MT",
    "timezone": "America/Denver",
    "updated_at": "2012-07-08T00:22:23Z",
    "zip": "59243"
  },
  {
    "address": "368 Mesa S",
    "city": "Savage",
    "county": "Richland County",
    "created_at": "2012-01-04T20:15:44Z",
    "id": 14311,
    "latitude": "47.450589",
    "longitude": "-104.342821",
    "mascot": "Warriors",
    "name": "Savage Public School",
    "primary_color": "Orange",
    "secondary_color": "Black",
    "state": "MT",
    "timezone": "America/Denver",
    "updated_at": "2012-07-08T00:22:24Z",
    "zip": "59262"
  },
  {
    "address": "1012 4th Ave SE",
    "city": "Sidney",
    "county": "Richland County",
    "created_at": "2012-01-04T20:15:44Z",
    "id": 14312,
    "latitude": "47.705133",
    "longitude": "-104.157699",
    "mascot": "Eagles",
    "name": "Sidney High School",
    "primary_color": "Maroon",
    "secondary_color": "White",
    "state": "MT",
    "timezone": "America/Denver",
    "updated_at": "2012-07-08T00:22:24Z",
    "zip": "59270"
  },
  {
    "address": "409 Tubman",
    "city": "Bainville",
    "county": "Roosevelt County",
    "created_at": "2012-01-04T20:15:44Z",
    "id": 14313,
    "latitude": "48.142505",
    "longitude": "-104.224864",
    "mascot": "Bulldogs",
    "name": "Bainville Public School",
    "primary_color": "Royal",
    "secondary_color": "White",
    "state": "MT",
    "timezone": "America/Denver",
    "updated_at": "2012-07-08T00:22:24Z",
    "zip": "59212"
  },
  {
    "address": "PO Box 198",
    "city": "Brockton",
    "county": "Roosevelt County",
    "created_at": "2012-01-04T20:15:44Z",
    "id": 14314,
    "latitude": "48.158507",
    "longitude": "-104.907081",
    "mascot": "Warriors",
    "name": "Brockton High School",
    "primary_color": "Hunter Green",
    "secondary_color": "White",
    "state": "MT",
    "timezone": "America/Denver",
    "updated_at": "2012-07-08T00:22:25Z",
    "zip": "59213"
  },
  {
    "address": "400 4th Ave W",
    "city": "Poplar",
    "county": "Roosevelt County",
    "created_at": "2012-01-04T20:15:44Z",
    "id": 14315,
    "latitude": "48.114235",
    "longitude": "-105.201609",
    "mascot": "Indians",
    "name": "Poplar High School",
    "primary_color": "Maroon",
    "secondary_color": "Gold",
    "state": "MT",
    "timezone": "America/Denver",
    "updated_at": "2012-07-08T00:22:25Z",
    "zip": "59255"
  },
  {
    "address": "213 6th Ave S",
    "city": "Wolf Point",
    "county": "Roosevelt County",
    "created_at": "2012-01-04T20:15:44Z",
    "id": 14316,
    "latitude": "48.089712",
    "longitude": "-105.646841",
    "mascot": "Wolves",
    "name": "Wolf Point Junior Senior High School",
    "primary_color": "Maroon",
    "secondary_color": "White",
    "state": "MT",
    "timezone": "America/Denver",
    "updated_at": "2012-07-08T00:22:25Z",
    "zip": "59201"
  },
  {
    "address": "917 Park",
    "city": "Forsyth",
    "county": "Rosebud County",
    "created_at": "2012-01-04T20:15:44Z",
    "id": 14317,
    "latitude": "46.268173",
    "longitude": "-106.681094",
    "mascot": "Dogies",
    "name": "Forsyth High School",
    "primary_color": "Purple",
    "secondary_color": "White",
    "state": "MT",
    "timezone": "America/Denver",
    "updated_at": "2012-07-08T00:22:26Z",
    "zip": "59327"
  },
  {
    "address": "PO Box 1005",
    "city": "Hot Springs",
    "county": "Sanders County",
    "created_at": "2012-01-04T20:15:44Z",
    "id": 14318,
    "latitude": "47.600500",
    "longitude": "-114.639227",
    "mascot": "Savages",
    "name": "Hot Springs High School",
    "primary_color": "Red",
    "secondary_color": "Black",
    "state": "MT",
    "timezone": "America/Denver",
    "updated_at": "2012-07-08T00:22:26Z",
    "zip": "59845"
  },
  {
    "address": "412 Rittenour St",
    "city": "Plains",
    "county": "Sanders County",
    "created_at": "2012-01-04T20:15:44Z",
    "id": 14319,
    "latitude": "47.464292",
    "longitude": "-114.885907",
    "mascot": "Horsemen and Trotters",
    "name": "Plains High School",
    "primary_color": "Orange",
    "secondary_color": "Black",
    "state": "MT",
    "timezone": "America/Denver",
    "updated_at": "2012-07-08T00:22:26Z",
    "zip": "59859"
  },
  {
    "address": "601 Golf St",
    "city": "Thompson Falls",
    "county": "Sanders County",
    "created_at": "2012-01-04T20:15:44Z",
    "id": 14320,
    "latitude": "47.595500",
    "longitude": "-115.331059",
    "mascot": "Bluehawks",
    "name": "Thompson Falls High School",
    "primary_color": "Gold",
    "secondary_color": "Royal",
    "state": "MT",
    "timezone": "America/Denver",
    "updated_at": "2012-07-08T00:22:27Z",
    "zip": "59873"
  },
  {
    "address": "311 Young St",
    "city": "Medicine Lake",
    "county": "Sheridan County",
    "created_at": "2012-01-04T20:15:44Z",
    "id": 14321,
    "latitude": "48.503367",
    "longitude": "-104.503683",
    "mascot": "Medicine Lake Honkers",
    "name": "Medicine Lake School",
    "primary_color": "Red",
    "secondary_color": "White",
    "state": "MT",
    "timezone": "America/Denver",
    "updated_at": "2012-07-08T00:22:27Z",
    "zip": "59247"
  },
  {
    "address": "2nd Ave & Wirtz St",
    "city": "Outlook",
    "county": "Sheridan County",
    "created_at": "2012-01-04T20:15:44Z",
    "id": 14322,
    "latitude": "48.889410",
    "longitude": "-104.783069",
    "mascot": "Knights",
    "name": "Outlook High School",
    "primary_color": "Royal",
    "secondary_color": "White",
    "state": "MT",
    "timezone": "America/Denver",
    "updated_at": "2012-07-08T00:22:27Z",
    "zip": "59252"
  },
  {
    "address": "100 E Laurel Ave",
    "city": "Plentywood",
    "county": "Sheridan County",
    "created_at": "2012-01-04T20:15:44Z",
    "id": 14323,
    "latitude": "48.777841",
    "longitude": "-104.556080",
    "mascot": "Wildcats",
    "name": "Plentywood School",
    "primary_color": "Orange",
    "secondary_color": "Black",
    "state": "MT",
    "timezone": "America/Denver",
    "updated_at": "2012-07-08T00:22:28Z",
    "zip": "59254"
  },
  {
    "address": "5th Ave E",
    "city": "Westby",
    "county": "Sheridan County",
    "created_at": "2012-01-04T20:15:44Z",
    "id": 14324,
    "latitude": "48.867470",
    "longitude": "-104.049194",
    "mascot": "Rangers",
    "name": "Westby School District 3",
    "primary_color": "Purple",
    "secondary_color": "White",
    "state": "MT",
    "timezone": "America/Denver",
    "updated_at": "2012-07-08T00:22:28Z",
    "zip": "59275"
  },
  {
    "address": "401 S Wyoming",
    "city": "Butte",
    "county": "Silver Bow County",
    "created_at": "2012-01-04T20:15:44Z",
    "id": 14325,
    "latitude": "46.008077",
    "longitude": "-112.532739",
    "mascot": "Bulldogs",
    "name": "Butte Senior High School",
    "primary_color": "Purple",
    "secondary_color": "White",
    "state": "MT",
    "timezone": "America/Denver",
    "updated_at": "2012-07-08T00:22:28Z",
    "zip": "59701"
  },
  {
    "address": "433 N 3rd St",
    "city": "Columbus",
    "county": "Stillwater County",
    "created_at": "2012-01-04T20:15:44Z",
    "id": 14326,
    "latitude": "45.642085",
    "longitude": "-109.254735",
    "mascot": "Cougars",
    "name": "Columbus High School",
    "primary_color": "Kelly Green",
    "secondary_color": "White",
    "state": "MT",
    "timezone": "America/Denver",
    "updated_at": "2012-07-08T00:22:28Z",
    "zip": "59019"
  },
  {
    "address": "10 2nd Ave SW",
    "city": "Park City",
    "county": "Stillwater County",
    "created_at": "2012-01-04T20:15:44Z",
    "id": 14327,
    "latitude": "45.628977",
    "longitude": "-108.917871",
    "mascot": "Panthers",
    "name": "Park City School",
    "primary_color": "Red",
    "secondary_color": "Black",
    "state": "MT",
    "timezone": "America/Denver",
    "updated_at": "2012-07-08T00:22:29Z",
    "zip": "59063"
  },
  {
    "address": "714 Main St",
    "city": "Rapelje",
    "county": "Stillwater County",
    "created_at": "2012-01-04T20:15:44Z",
    "id": 14328,
    "latitude": "45.972385",
    "longitude": "-109.263549",
    "mascot": "Rockets",
    "name": "Rapelje School",
    "primary_color": "Orange",
    "secondary_color": "Kelly Green",
    "state": "MT",
    "timezone": "America/Denver",
    "updated_at": "2012-07-08T00:22:29Z",
    "zip": "59067"
  },
  {
    "address": "308 Central",
    "city": "Reed Point",
    "county": "Stillwater County",
    "created_at": "2012-01-04T20:15:44Z",
    "id": 14329,
    "latitude": "45.706284",
    "longitude": "-109.559230",
    "mascot": "Pirates",
    "name": "Reed Point School",
    "primary_color": "Royal",
    "secondary_color": "White",
    "state": "MT",
    "timezone": "America/Denver",
    "updated_at": "2012-07-08T00:22:29Z",
    "zip": "59069"
  },
  {
    "address": "327 S Woodard Ave",
    "city": "Absarokee",
    "county": "Stillwater County",
    "created_at": "2012-01-04T20:15:44Z",
    "id": 14330,
    "latitude": "45.516273",
    "longitude": "-109.446437",
    "mascot": "Huskies",
    "name": "Absarokee High School",
    "primary_color": "Orange",
    "secondary_color": "Black",
    "state": "MT",
    "timezone": "America/Denver",
    "updated_at": "2012-07-08T00:22:29Z",
    "zip": "59001"
  },
  {
    "address": "501 W 5th St",
    "city": "Big Timber",
    "county": "Sweet Grass County",
    "created_at": "2012-01-04T20:15:44Z",
    "id": 14331,
    "latitude": "45.828974",
    "longitude": "-109.956136",
    "mascot": "Herders",
    "name": "Sweet Grass County High School",
    "primary_color": "Royal",
    "secondary_color": "White",
    "state": "MT",
    "timezone": "America/Denver",
    "updated_at": "2012-07-08T00:22:30Z",
    "zip": "59011"
  },
  {
    "address": "204 7th Ave NW",
    "city": "Choteau",
    "county": "Teton County",
    "created_at": "2012-01-04T20:15:44Z",
    "id": 14332,
    "latitude": "47.811338",
    "longitude": "-112.188710",
    "mascot": "Bulldogs",
    "name": "Choteau High School",
    "primary_color": "Gold",
    "secondary_color": "Maroon",
    "state": "MT",
    "timezone": "America/Denver",
    "updated_at": "2012-07-08T00:22:30Z",
    "zip": "59422"
  },
  {
    "address": "402 Teton",
    "city": "Power",
    "county": "Teton County",
    "created_at": "2012-01-04T20:15:44Z",
    "id": 14333,
    "latitude": "47.716455",
    "longitude": "-111.687791",
    "mascot": "Pirates",
    "name": "Power School",
    "primary_color": "Purple",
    "secondary_color": "White",
    "state": "MT",
    "timezone": "America/Denver",
    "updated_at": "2012-07-08T00:22:30Z",
    "zip": "59468"
  },
  {
    "address": "1001 6th St N",
    "city": "Shelby",
    "county": "Toole County",
    "created_at": "2012-01-04T20:15:44Z",
    "id": 14334,
    "latitude": "48.514268",
    "longitude": "-111.863170",
    "mascot": "Coyotes",
    "name": "Shelby High School",
    "primary_color": "Gold",
    "secondary_color": "Maroon",
    "state": "MT",
    "timezone": "America/Denver",
    "updated_at": "2012-07-08T00:22:30Z",
    "zip": "59474"
  },
  {
    "address": "414 3rd St S",
    "city": "Sunburst",
    "county": "Toole County",
    "created_at": "2012-01-04T20:15:44Z",
    "id": 14335,
    "latitude": "48.880730",
    "longitude": "-111.911249",
    "mascot": "Refiners",
    "name": "North Toole County High School",
    "primary_color": "Red",
    "secondary_color": "White",
    "state": "MT",
    "timezone": "America/Denver",
    "updated_at": "2012-07-08T00:22:31Z",
    "zip": "59482"
  },
  {
    "address": "115 Summitt",
    "city": "Hysham",
    "county": "Treasure County",
    "created_at": "2012-01-04T20:15:44Z",
    "id": 14336,
    "latitude": "46.292890",
    "longitude": "-107.230822",
    "mascot": "Pirates",
    "name": "Hysham School",
    "primary_color": "Gold",
    "secondary_color": "Black",
    "state": "MT",
    "timezone": "America/Denver",
    "updated_at": "2012-07-08T00:22:31Z",
    "zip": "59038"
  },
  {
    "address": "6th & Moccasin St",
    "city": "Frazer",
    "county": "Valley County",
    "created_at": "2012-01-04T20:15:44Z",
    "id": 14337,
    "latitude": "48.057970",
    "longitude": "-106.046029",
    "mascot": "Bear Cubs",
    "name": "Frazer School",
    "primary_color": "Columbia Blue",
    "secondary_color": "White",
    "state": "MT",
    "timezone": "America/Denver",
    "updated_at": "2012-07-08T00:22:31Z",
    "zip": "59225"
  },
  {
    "address": "600 Montana",
    "city": "Hinsdale",
    "county": "Valley County",
    "created_at": "2012-01-04T20:15:44Z",
    "id": 14338,
    "latitude": "48.394300",
    "longitude": "-107.084739",
    "mascot": "Raiders",
    "name": "Hinsdale School",
    "primary_color": "Maroon",
    "secondary_color": "White",
    "state": "MT",
    "timezone": "America/Denver",
    "updated_at": "2012-07-08T00:22:32Z",
    "zip": "59241"
  },
  {
    "address": "222 Mabel St",
    "city": "Nashua",
    "county": "Valley County",
    "created_at": "2012-01-04T20:15:44Z",
    "id": 14339,
    "latitude": "48.135001",
    "longitude": "-106.354650",
    "mascot": "Porcupines",
    "name": "Nashua School",
    "primary_color": "Gold",
    "secondary_color": "Purple",
    "state": "MT",
    "timezone": "America/Denver",
    "updated_at": "2012-07-08T00:22:32Z",
    "zip": "59248"
  },
  {
    "address": "1 Scottie Pride Dr",
    "city": "Glasgow",
    "county": "Valley County",
    "created_at": "2012-01-04T20:15:44Z",
    "id": 14340,
    "latitude": "48.195276",
    "longitude": "-106.614726",
    "mascot": "Scottie Dogs",
    "name": "Glasgow High School",
    "primary_color": "Red",
    "secondary_color": "White",
    "state": "MT",
    "timezone": "America/Denver",
    "updated_at": "2012-07-08T00:22:33Z",
    "zip": "59230"
  },
  {
    "address": "306 4th Ave",
    "city": "Judith Gap",
    "county": "Wheatland County",
    "created_at": "2012-01-04T20:15:44Z",
    "id": 14341,
    "latitude": "46.679120",
    "longitude": "-109.748553",
    "mascot": "Tigers",
    "name": "Judith Gap Public School",
    "primary_color": "Gold",
    "secondary_color": "Royal",
    "state": "MT",
    "timezone": "America/Denver",
    "updated_at": "2012-07-08T00:22:33Z",
    "zip": "59453"
  },
  {
    "address": "121 N F St",
    "city": "Wibaux",
    "county": "Wibaux County",
    "created_at": "2012-01-04T20:15:44Z",
    "id": 14342,
    "latitude": "46.990017",
    "longitude": "-104.195725",
    "mascot": "Longhorns",
    "name": "Wibaux High School",
    "primary_color": "Gold",
    "secondary_color": "Royal",
    "state": "MT",
    "timezone": "America/Denver",
    "updated_at": "2012-07-08T00:22:33Z",
    "zip": "59353"
  },
  {
    "address": "13935 1st St",
    "city": "Broadview",
    "county": "Yellowstone County",
    "created_at": "2012-01-04T20:15:44Z",
    "id": 14343,
    "latitude": "46.102371",
    "longitude": "-108.876593",
    "mascot": "Pirates",
    "name": "Broadview School",
    "primary_color": "Gold",
    "secondary_color": "Purple",
    "state": "MT",
    "timezone": "America/Denver",
    "updated_at": "2012-07-08T00:22:33Z",
    "zip": "59015"
  },
  {
    "address": "203 E 8th St",
    "city": "Laurel",
    "county": "Yellowstone County",
    "created_at": "2012-01-04T20:15:44Z",
    "id": 14344,
    "latitude": "45.676618",
    "longitude": "-108.769858",
    "mascot": "Locomotives",
    "name": "Laurel High School",
    "primary_color": "Gold",
    "secondary_color": "Purple",
    "state": "MT",
    "timezone": "America/Denver",
    "updated_at": "2012-07-08T00:22:34Z",
    "zip": "59044"
  },
  {
    "address": "PO Box 8",
    "city": "Shepherd",
    "county": "Yellowstone County",
    "created_at": "2012-01-04T20:15:44Z",
    "id": 14345,
    "latitude": "45.945060",
    "longitude": "-108.308909",
    "mascot": "Mustangs",
    "name": "Shepherd High School",
    "primary_color": "Gold",
    "secondary_color": "Royal",
    "state": "MT",
    "timezone": "America/Denver",
    "updated_at": "2012-07-08T00:22:34Z",
    "zip": "59079"
  },
  {
    "address": "2201 Saint Johns Ave",
    "city": "Billings",
    "county": "Yellowstone County",
    "created_at": "2012-01-04T20:15:44Z",
    "id": 14346,
    "latitude": "45.771384",
    "longitude": "-108.572114",
    "mascot": "Golden Bears",
    "name": "Billings West High School",
    "primary_color": "Gold",
    "secondary_color": "Black",
    "state": "MT",
    "timezone": "America/Denver",
    "updated_at": "2012-07-08T00:22:34Z",
    "zip": "59102"
  },
  {
    "address": "1775 High Sierra Blvd",
    "city": "Billings",
    "county": "Yellowstone County",
    "created_at": "2012-01-04T20:15:44Z",
    "id": 14347,
    "latitude": "45.830323",
    "longitude": "-108.516214",
    "mascot": "Falcons",
    "name": "Skyview High School",
    "primary_color": "White",
    "secondary_color": "Royal",
    "state": "MT",
    "timezone": "America/Denver",
    "updated_at": "2012-07-08T00:22:34Z",
    "zip": "59105"
  },
  {
    "address": "1001 Cleveland St",
    "city": "Missoula",
    "county": "Missoula County",
    "created_at": "2012-01-04T20:15:44Z",
    "id": 14348,
    "latitude": "46.858608",
    "longitude": "-114.014272",
    "mascot": "Crusaders",
    "name": "Christian Assembly Foursquare Academy",
    "primary_color": "Gray",
    "secondary_color": "Royal",
    "state": "MT",
    "timezone": "America/Denver",
    "updated_at": "2012-07-08T00:22:34Z",
    "zip": "59801"
  },
  {
    "address": "321 W Central Ave",
    "city": "Cascade",
    "county": "Cascade County",
    "created_at": "2012-01-04T20:15:44Z",
    "id": 14349,
    "latitude": "47.271470",
    "longitude": "-111.703797",
    "mascot": "Badgers",
    "name": "Cascade School",
    "primary_color": "Black",
    "secondary_color": "Gold",
    "state": "MT",
    "timezone": "America/Denver",
    "updated_at": "2012-07-08T00:22:35Z",
    "zip": "59421"
  },
  {
    "address": "PO Box 96",
    "city": "Lame Deer",
    "county": "Rosebud County",
    "created_at": "2012-01-04T20:15:44Z",
    "id": 14350,
    "latitude": "45.587980",
    "longitude": "-106.562369",
    "mascot": "Morning Stars",
    "name": "Lame Deer High School",
    "primary_color": "Black",
    "secondary_color": "Turquoise",
    "state": "MT",
    "timezone": "America/Denver",
    "updated_at": "2012-07-08T00:22:35Z",
    "zip": "59043"
  },
  {
    "address": "1050 S Montana St",
    "city": "Butte",
    "county": "Silver Bow County",
    "created_at": "2012-01-04T20:15:44Z",
    "id": 14351,
    "latitude": "46.000007",
    "longitude": "-112.539053",
    "mascot": "Lions",
    "name": "Alternative High School",
    "primary_color": "Turquoise",
    "secondary_color": "Black",
    "state": "MT",
    "timezone": "America/Denver",
    "updated_at": "2012-07-08T00:22:35Z",
    "zip": "59701"
  },
  {
    "address": "100 Rock St",
    "city": "Opheim",
    "county": "Valley County",
    "created_at": "2012-01-04T20:15:44Z",
    "id": 14352,
    "latitude": "48.857540",
    "longitude": "-106.410519",
    "mascot": "Vikings",
    "name": "Opheim School",
    "primary_color": "Orange",
    "secondary_color": "Black",
    "state": "MT",
    "timezone": "America/Denver",
    "updated_at": "2012-07-08T00:22:36Z",
    "zip": "59250"
  },
  {
    "address": "103 3rd St E",
    "city": "Geyser",
    "county": "Judith Basin County",
    "created_at": "2012-01-04T20:15:44Z",
    "id": 14353,
    "latitude": "47.259720",
    "longitude": "-110.491809",
    "mascot": "Wranglers",
    "name": "Geyser School",
    "primary_color": "Maroon",
    "secondary_color": "White",
    "state": "MT",
    "timezone": "America/Denver",
    "updated_at": "2012-07-08T00:22:36Z",
    "zip": "59447"
  },
  {
    "address": "528 Ohio St",
    "city": "Chinook",
    "county": "Blaine County",
    "created_at": "2012-01-04T20:15:44Z",
    "id": 14354,
    "latitude": "48.590450",
    "longitude": "-109.229581",
    "mascot": "Sugar Beeters",
    "name": "Chinook High School",
    "primary_color": "Orange",
    "secondary_color": "Black",
    "state": "MT",
    "timezone": "America/Denver",
    "updated_at": "2012-07-08T00:22:36Z",
    "zip": "59523"
  },
  {
    "address": "Hwy 66",
    "city": "Hays",
    "county": "Blaine County",
    "created_at": "2012-01-04T20:15:44Z",
    "id": 14355,
    "latitude": "48.210692",
    "longitude": "-108.713851",
    "mascot": "Thunderbirds",
    "name": "Hays-Lodge Pole Schools",
    "primary_color": "Gold",
    "secondary_color": "Purple",
    "state": "MT",
    "timezone": "America/Denver",
    "updated_at": "2012-07-08T00:22:36Z",
    "zip": "59527"
  },
  {
    "address": "2210 5th Ave N",
    "city": "Great Falls",
    "county": "Cascade County",
    "created_at": "2012-01-04T20:15:44Z",
    "id": 14356,
    "latitude": "47.510632",
    "longitude": "-111.269072",
    "mascot": "Falcons",
    "name": "Foothills Community Christian School",
    "primary_color": "Navy Blue",
    "secondary_color": "Metallic Gold",
    "state": "MT",
    "timezone": "America/Denver",
    "updated_at": "2012-07-08T00:22:37Z",
    "zip": "59401"
  },
  {
    "address": "410 Broadway",
    "city": "Augusta",
    "county": "Lewis and Clark County",
    "created_at": "2012-01-04T20:15:44Z",
    "id": 14357,
    "latitude": "47.491170",
    "longitude": "-112.397304",
    "mascot": "Elks",
    "name": "Augusta Public School",
    "primary_color": "Blue",
    "secondary_color": "Gold",
    "state": "MT",
    "timezone": "America/Denver",
    "updated_at": "2012-07-08T00:22:37Z",
    "zip": "59410"
  },
  {
    "address": "101 School St",
    "city": "Chester",
    "county": "Liberty County",
    "created_at": "2012-01-04T20:15:44Z",
    "id": 14358,
    "latitude": "48.509171",
    "longitude": "-110.963830",
    "mascot": "Hawks",
    "name": "Chester Joplin-Inverness School",
    "primary_color": "Blue",
    "secondary_color": "Gold",
    "state": "MT",
    "timezone": "America/Denver",
    "updated_at": "2012-07-08T00:22:37Z",
    "zip": "59522"
  },
  {
    "address": "32485 Bible Ln",
    "city": "Alberton",
    "county": "Missoula County",
    "created_at": "2012-01-04T20:15:44Z",
    "id": 14359,
    "latitude": "46.996876",
    "longitude": "-114.466546",
    "mascot": "Indian Heads",
    "name": "Northwest Indian Bible School",
    "primary_color": "Navy",
    "secondary_color": "White",
    "state": "MT",
    "timezone": "America/Denver",
    "updated_at": "2012-07-08T00:22:37Z",
    "zip": "59820"
  },
  {
    "address": "101 7th Ave SW",
    "city": "Polson",
    "county": "Lake County",
    "created_at": "2012-01-04T20:15:45Z",
    "id": 14360,
    "latitude": "47.689237",
    "longitude": "-114.161671",
    "mascot": null,
    "name": "Mission Valley Christian Academy",
    "primary_color": null,
    "secondary_color": null,
    "state": "MT",
    "timezone": "America/Denver",
    "updated_at": "2012-07-08T00:22:38Z",
    "zip": "59860"
  },
  {
    "address": "1212 Central Ave",
    "city": "Billings",
    "county": "Yellowstone County",
    "created_at": "2012-01-04T20:15:45Z",
    "id": 14361,
    "latitude": "45.769772",
    "longitude": "-108.546843",
    "mascot": null,
    "name": "Billings Educational Academy",
    "primary_color": null,
    "secondary_color": null,
    "state": "MT",
    "timezone": "America/Denver",
    "updated_at": "2012-07-08T00:22:38Z",
    "zip": "59102"
  },
  {
    "address": "100 Discovery Dr",
    "city": "Bozeman",
    "county": "Gallatin County",
    "created_at": "2012-01-04T20:15:45Z",
    "id": 14362,
    "latitude": "45.655281",
    "longitude": "-111.067117",
    "mascot": "Lions",
    "name": "Petra Academy",
    "primary_color": "Blue",
    "secondary_color": "White",
    "state": "MT",
    "timezone": "America/Denver",
    "updated_at": "2012-07-08T00:22:38Z",
    "zip": "59718"
  },
  {
    "address": "1900 Flowerree St",
    "city": "Helena",
    "county": "Lewis and Clark County",
    "created_at": "2012-01-04T20:15:45Z",
    "id": 14363,
    "latitude": "46.599806",
    "longitude": "-112.069810",
    "mascot": "Griffin",
    "name": "Saint Andrew School",
    "primary_color": "Red",
    "secondary_color": "Gold",
    "state": "MT",
    "timezone": "America/Denver",
    "updated_at": "2012-07-08T00:22:38Z",
    "zip": "59601"
  },
  {
    "address": "26 Aspen Lane",
    "city": "Heron",
    "county": "Sanders County",
    "created_at": "2012-01-04T20:15:45Z",
    "id": 14364,
    "latitude": "48.065034",
    "longitude": "-116.006835",
    "mascot": null,
    "name": "Monarch School",
    "primary_color": null,
    "secondary_color": null,
    "state": "MT",
    "timezone": "America/Denver",
    "updated_at": "2012-07-08T00:22:39Z",
    "zip": "59844"
  },
  {
    "address": "425 4th Ave",
    "city": "Victor",
    "county": "Ravalli County",
    "created_at": "2012-01-04T20:15:45Z",
    "id": 14365,
    "latitude": "46.415398",
    "longitude": "-114.150651",
    "mascot": "Pirates",
    "name": "Victor Public School-Middle/High",
    "primary_color": "Blue",
    "secondary_color": "Yellow",
    "state": "MT",
    "timezone": "America/Denver",
    "updated_at": "2012-07-08T00:22:39Z",
    "zip": "59875"
  },
  {
    "address": "1605 Danielson Rd",
    "city": "Kalispell",
    "county": "Flathead County",
    "created_at": "2012-01-04T20:15:45Z",
    "id": 14366,
    "latitude": "48.165413",
    "longitude": "-114.492131",
    "mascot": null,
    "name": "Summit Preparatory School",
    "primary_color": null,
    "secondary_color": null,
    "state": "MT",
    "timezone": "America/Denver",
    "updated_at": "2012-07-08T00:22:39Z",
    "zip": "59901"
  }
]