[
  {
    "address": "1100 6th Avenue",
    "city": "Altoona",
    "county": "Blair County",
    "created_at": "2012-01-04T20:17:00Z",
    "id": 20190,
    "latitude": "40.513317",
    "longitude": "-78.395426",
    "mascot": "Eagles",
    "name": "Great Commission School",
    "primary_color": "Gold",
    "secondary_color": "Royal",
    "state": "PA",
    "timezone": "America/New_York",
    "updated_at": "2012-07-08T00:55:46Z",
    "zip": "16602"
  },
  {
    "address": "120 W Birch St",
    "city": "Marienville",
    "county": "Forest County",
    "created_at": "2012-01-04T20:17:00Z",
    "id": 20191,
    "latitude": "41.472675",
    "longitude": "-79.119886",
    "mascot": "Bears",
    "name": "East Forest School",
    "primary_color": "Orange",
    "secondary_color": "Black",
    "state": "PA",
    "timezone": "America/New_York",
    "updated_at": "2012-07-08T00:55:46Z",
    "zip": "16239"
  },
  {
    "address": "229 Rice Ave",
    "city": "Girard",
    "county": "Erie County",
    "created_at": "2012-01-04T20:17:00Z",
    "id": 20192,
    "latitude": "42.002098",
    "longitude": "-80.321210",
    "mascot": "Lions",
    "name": "Girard Alliance Christian Academy",
    "primary_color": "Gold",
    "secondary_color": "Navy",
    "state": "PA",
    "timezone": "America/New_York",
    "updated_at": "2012-07-08T00:55:46Z",
    "zip": "16417"
  },
  {
    "address": "4091 C L School Rd",
    "city": "Strattanville",
    "county": "Clarion County",
    "created_at": "2012-01-04T20:17:00Z",
    "id": 20193,
    "latitude": "41.185644",
    "longitude": "-79.275637",
    "mascot": "Lions",
    "name": "Clarion-Limestone High School",
    "primary_color": "Gold",
    "secondary_color": "Royal",
    "state": "PA",
    "timezone": "America/New_York",
    "updated_at": "2012-07-08T00:55:47Z",
    "zip": "16258"
  },
  {
    "address": "318 S Oswayo St",
    "city": "Shinglehouse",
    "county": "Potter County",
    "created_at": "2012-01-04T20:17:00Z",
    "id": 20194,
    "latitude": "41.959415",
    "longitude": "-78.186595",
    "mascot": "Green Wave",
    "name": "Oswayo Valley High School",
    "primary_color": "Kelly Green",
    "secondary_color": "White",
    "state": "PA",
    "timezone": "America/New_York",
    "updated_at": "2012-07-08T00:55:47Z",
    "zip": "16748"
  },
  {
    "address": "263 Red Bird Dr",
    "city": "Waterfall",
    "county": "Fulton County",
    "created_at": "2012-01-04T20:17:00Z",
    "id": 20195,
    "latitude": "40.082814",
    "longitude": "-78.064882",
    "mascot": "Cardinals",
    "name": "Forbes Road High School",
    "primary_color": "Gold",
    "secondary_color": "Royal",
    "state": "PA",
    "timezone": "America/New_York",
    "updated_at": "2012-07-08T00:55:47Z",
    "zip": "16689"
  },
  {
    "address": "1751 Springs Rd",
    "city": "Springs",
    "county": "Somerset County",
    "created_at": "2012-01-04T20:17:00Z",
    "id": 20196,
    "latitude": "39.732585",
    "longitude": "-79.150399",
    "mascot": null,
    "name": "Mountain View Christian School",
    "primary_color": null,
    "secondary_color": null,
    "state": "PA",
    "timezone": "America/New_York",
    "updated_at": "2012-07-08T00:55:47Z",
    "zip": "15562"
  },
  {
    "address": "330 E John St",
    "city": "Bedford",
    "county": "Bedford County",
    "created_at": "2012-01-04T20:17:00Z",
    "id": 20197,
    "latitude": "40.016086",
    "longitude": "-78.498223",
    "mascot": null,
    "name": "Bedford High School",
    "primary_color": null,
    "secondary_color": null,
    "state": "PA",
    "timezone": "America/New_York",
    "updated_at": "2012-07-08T00:55:48Z",
    "zip": "15522"
  },
  {
    "address": "241 Main St",
    "city": "Tidioute",
    "county": "Warren County",
    "created_at": "2012-01-04T20:17:00Z",
    "id": 20198,
    "latitude": "41.683096",
    "longitude": "-79.402399",
    "mascot": "Bulldogs",
    "name": "Tidioute Community Charter School",
    "primary_color": "Ash Grey",
    "secondary_color": "Black",
    "state": "PA",
    "timezone": "America/New_York",
    "updated_at": "2012-07-08T00:55:48Z",
    "zip": "16351"
  },
  {
    "address": "25 Bridge St",
    "city": "Galeton",
    "county": "Potter County",
    "created_at": "2012-01-04T20:17:00Z",
    "id": 20199,
    "latitude": "41.734608",
    "longitude": "-77.642364",
    "mascot": "Tigers",
    "name": "Galeton Area School",
    "primary_color": "Orange",
    "secondary_color": "Black",
    "state": "PA",
    "timezone": "America/New_York",
    "updated_at": "2012-07-08T00:55:48Z",
    "zip": "16922"
  },
  {
    "address": "Front Mountain Rd",
    "city": "Belleville",
    "county": "Mifflin County",
    "created_at": "2012-01-04T20:17:00Z",
    "id": 20200,
    "latitude": "40.579277",
    "longitude": "-77.726623",
    "mascot": null,
    "name": "Belleville Mennonite School",
    "primary_color": "Red",
    "secondary_color": "White",
    "state": "PA",
    "timezone": "America/New_York",
    "updated_at": "2012-07-08T00:55:48Z",
    "zip": "17004"
  },
  {
    "address": "331 W Lockhart St",
    "city": "Sayre",
    "county": "Bradford County",
    "created_at": "2012-01-04T20:17:00Z",
    "id": 20201,
    "latitude": "41.982993",
    "longitude": "-76.522808",
    "mascot": "Redskins",
    "name": "Sayre Area High School",
    "primary_color": "Red",
    "secondary_color": "Royal",
    "state": "PA",
    "timezone": "America/New_York",
    "updated_at": "2012-07-08T00:55:49Z",
    "zip": "18840"
  },
  {
    "address": "14 Silvertown Rd",
    "city": "Jonestown",
    "county": "Lebanon County",
    "created_at": "2012-01-04T20:17:00Z",
    "id": 20202,
    "latitude": "40.419140",
    "longitude": "-76.500661",
    "mascot": "Knights",
    "name": "Blue Mountain Christian School",
    "primary_color": "Royal",
    "secondary_color": "White",
    "state": "PA",
    "timezone": "America/New_York",
    "updated_at": "2012-07-08T00:55:49Z",
    "zip": "17038"
  },
  {
    "address": "39 Gaylord Ave",
    "city": "Plymouth",
    "county": "Luzerne County",
    "created_at": "2012-01-04T20:17:00Z",
    "id": 20203,
    "latitude": "41.240941",
    "longitude": "-75.947196",
    "mascot": "Knights",
    "name": "Ebenezer Faith Christian School",
    "primary_color": "Royal",
    "secondary_color": "White",
    "state": "PA",
    "timezone": "America/New_York",
    "updated_at": "2012-07-08T00:55:49Z",
    "zip": "18651"
  },
  {
    "address": "10 Erford Rd",
    "city": "Wormleysburg",
    "county": "Cumberland County",
    "created_at": "2012-01-04T20:17:00Z",
    "id": 20204,
    "latitude": "40.252294",
    "longitude": "-76.912916",
    "mascot": "Spartans",
    "name": "Harrisburg Academy",
    "primary_color": "Gold",
    "secondary_color": "Royal",
    "state": "PA",
    "timezone": "America/New_York",
    "updated_at": "2012-07-08T00:55:49Z",
    "zip": "17043"
  },
  {
    "address": "6621 Marsh Rd",
    "city": "Waynesboro",
    "county": "Franklin County",
    "created_at": "2012-01-04T20:17:00Z",
    "id": 20205,
    "latitude": "39.752548",
    "longitude": "-77.600128",
    "mascot": null,
    "name": "Waynesboro Christian Academy",
    "primary_color": "Royal",
    "secondary_color": "White",
    "state": "PA",
    "timezone": "America/New_York",
    "updated_at": "2012-07-08T00:55:50Z",
    "zip": "17268"
  },
  {
    "address": "363 Stamm Rd",
    "city": "Milton",
    "county": "Northumberland County",
    "created_at": "2012-01-04T20:17:00Z",
    "id": 20206,
    "latitude": "41.023261",
    "longitude": "-76.822921",
    "mascot": "Lions",
    "name": "Meadowbrook Christian School",
    "primary_color": "Gold",
    "secondary_color": "Hunter Green",
    "state": "PA",
    "timezone": "America/New_York",
    "updated_at": "2012-07-08T00:55:50Z",
    "zip": "17847"
  },
  {
    "address": "4681 E Trindle Rd",
    "city": "Mechanicsburg",
    "county": "Cumberland County",
    "created_at": "2012-01-04T20:17:00Z",
    "id": 20207,
    "latitude": "40.229740",
    "longitude": "-76.959565",
    "mascot": "Patriots",
    "name": "Emmanuel Baptist Christian Academy",
    "primary_color": "Red",
    "secondary_color": "Royal",
    "state": "PA",
    "timezone": "America/New_York",
    "updated_at": "2012-07-08T00:55:50Z",
    "zip": "17055"
  },
  {
    "address": "139 E Main St",
    "city": "Canton",
    "county": "Bradford County",
    "created_at": "2012-01-04T20:17:00Z",
    "id": 20208,
    "latitude": "41.656762",
    "longitude": "-76.843119",
    "mascot": "Warriors",
    "name": "Canton High School",
    "primary_color": "Red",
    "secondary_color": "White",
    "state": "PA",
    "timezone": "America/New_York",
    "updated_at": "2012-07-08T00:55:50Z",
    "zip": "17724"
  },
  {
    "address": "310 Extension St",
    "city": "Mansfield",
    "county": "Tioga County",
    "created_at": "2012-01-04T20:17:00Z",
    "id": 20209,
    "latitude": "41.815215",
    "longitude": "-77.074200",
    "mascot": "Lions",
    "name": "New Covenant Academy",
    "primary_color": "Gray",
    "secondary_color": "Maroon",
    "state": "PA",
    "timezone": "America/New_York",
    "updated_at": "2012-07-08T00:55:51Z",
    "zip": "16933"
  },
  {
    "address": "2384 New Holland Pk",
    "city": "Lancaster",
    "county": "Lancaster County",
    "created_at": "2012-01-04T20:17:00Z",
    "id": 20210,
    "latitude": "40.084021",
    "longitude": "-76.227722",
    "mascot": "Lions",
    "name": "Living Word Academy",
    "primary_color": "White",
    "secondary_color": "Purple",
    "state": "PA",
    "timezone": "America/New_York",
    "updated_at": "2012-07-08T00:55:51Z",
    "zip": "17601"
  },
  {
    "address": "1485 Plottf Rd",
    "city": "Watsontown",
    "county": "Northumberland County",
    "created_at": "2012-01-04T20:17:00Z",
    "id": 20211,
    "latitude": "41.099913",
    "longitude": "-76.843403",
    "mascot": null,
    "name": "Maranatha Christian School",
    "primary_color": "Royal",
    "secondary_color": "White",
    "state": "PA",
    "timezone": "America/New_York",
    "updated_at": "2012-07-08T00:55:51Z",
    "zip": "17777"
  },
  {
    "address": "501 W Lincoln",
    "city": "Lititz",
    "county": "Lancaster County",
    "created_at": "2012-01-04T20:17:00Z",
    "id": 20212,
    "latitude": "40.167491",
    "longitude": "-76.318900",
    "mascot": "Eagles",
    "name": "Lititz Christian School",
    "primary_color": "Red",
    "secondary_color": "Navy",
    "state": "PA",
    "timezone": "America/New_York",
    "updated_at": "2012-07-08T00:55:52Z",
    "zip": "17543"
  },
  {
    "address": "55 W Shortcut",
    "city": "Newport",
    "county": "Perry County",
    "created_at": "2012-01-04T20:17:00Z",
    "id": 20213,
    "latitude": "40.493921",
    "longitude": "-77.121303",
    "mascot": "Eagles",
    "name": "Greater Perry Community Christian Acad",
    "primary_color": "Navy",
    "secondary_color": "White",
    "state": "PA",
    "timezone": "America/New_York",
    "updated_at": "2012-07-08T00:55:52Z",
    "zip": "17074"
  },
  {
    "address": "1225 8th Street Dr",
    "city": "Watsontown",
    "county": "Northumberland County",
    "created_at": "2012-01-04T20:17:00Z",
    "id": 20214,
    "latitude": "41.100217",
    "longitude": "-76.851614",
    "mascot": "Crusaders",
    "name": "Watsontown Christian Academy",
    "primary_color": "Red",
    "secondary_color": "White",
    "state": "PA",
    "timezone": "America/New_York",
    "updated_at": "2012-07-08T00:55:52Z",
    "zip": "17777"
  },
  {
    "address": "351 5th St",
    "city": "Northumberland",
    "county": "Northumberland County",
    "created_at": "2012-01-04T20:17:00Z",
    "id": 20215,
    "latitude": "40.894151",
    "longitude": "-76.800075",
    "mascot": "Roman Warriors",
    "name": "Northumberland Christian School",
    "primary_color": "Royal",
    "secondary_color": "White",
    "state": "PA",
    "timezone": "America/New_York",
    "updated_at": "2012-07-08T00:55:52Z",
    "zip": "17857"
  },
  {
    "address": "201 W Highland St",
    "city": "Avis",
    "county": "Clinton County",
    "created_at": "2012-01-04T20:17:00Z",
    "id": 20216,
    "latitude": "41.183454",
    "longitude": "-77.318811",
    "mascot": null,
    "name": "Walnut Street Christian School",
    "primary_color": "Gold",
    "secondary_color": "Royal",
    "state": "PA",
    "timezone": "America/New_York",
    "updated_at": "2012-07-08T00:55:53Z",
    "zip": "17721"
  },
  {
    "address": "14823 Path Valley Rd",
    "city": "Willow Hill",
    "county": "Franklin County",
    "created_at": "2012-01-04T20:17:01Z",
    "id": 20217,
    "latitude": "40.118501",
    "longitude": "-77.782362",
    "mascot": "Tigers",
    "name": "Fannett Metal Junior Senior High School",
    "primary_color": "Red",
    "secondary_color": "White",
    "state": "PA",
    "timezone": "America/New_York",
    "updated_at": "2012-07-08T00:55:53Z",
    "zip": "17271"
  },
  {
    "address": "1730 4 Mile Dr",
    "city": "Williamsport",
    "county": "Lycoming County",
    "created_at": "2012-01-04T20:17:01Z",
    "id": 20218,
    "latitude": "41.262727",
    "longitude": "-76.968904",
    "mascot": null,
    "name": "Williamsport Christian School",
    "primary_color": "Red",
    "secondary_color": "White",
    "state": "PA",
    "timezone": "America/New_York",
    "updated_at": "2012-07-08T00:55:53Z",
    "zip": "17701"
  },
  {
    "address": "Campbell Rd",
    "city": "New Freedom",
    "county": "York County",
    "created_at": "2012-01-04T20:17:01Z",
    "id": 20219,
    "latitude": "39.739365",
    "longitude": "-76.681189",
    "mascot": "Eagles",
    "name": "New Freedom Christian School",
    "primary_color": "Royal",
    "secondary_color": "White",
    "state": "PA",
    "timezone": "America/New_York",
    "updated_at": "2012-07-08T00:55:53Z",
    "zip": "17349"
  },
  {
    "address": "1000 Mapletown Rd",
    "city": "Greensboro",
    "county": "Greene County",
    "created_at": "2012-01-04T20:17:01Z",
    "id": 20220,
    "latitude": "39.804624",
    "longitude": "-79.944184",
    "mascot": null,
    "name": "Mapletown High School",
    "primary_color": "Gold",
    "secondary_color": "Black",
    "state": "PA",
    "timezone": "America/New_York",
    "updated_at": "2012-07-08T00:55:54Z",
    "zip": "15338"
  },
  {
    "address": "1231 Mt Pleasant Rd",
    "city": "Mount Pleasant",
    "county": "Fayette County",
    "created_at": "2012-01-04T20:17:01Z",
    "id": 20221,
    "latitude": "40.099091",
    "longitude": "-79.554821",
    "mascot": "Cougars",
    "name": "Mount Carmel Christian School",
    "primary_color": "Kelly Green",
    "secondary_color": "White",
    "state": "PA",
    "timezone": "America/New_York",
    "updated_at": "2012-07-08T00:55:54Z",
    "zip": "15666"
  },
  {
    "address": "158 Green St",
    "city": "Jefferson",
    "county": "Greene County",
    "created_at": "2012-01-04T20:17:01Z",
    "id": 20222,
    "latitude": "39.928800",
    "longitude": "-80.062099",
    "mascot": "Rockets",
    "name": "Jefferson-Morgan High School",
    "primary_color": "Black",
    "secondary_color": "Orange",
    "state": "PA",
    "timezone": "America/New_York",
    "updated_at": "2012-07-08T00:55:54Z",
    "zip": "15344"
  },
  {
    "address": "531 Reynolds Rd",
    "city": "Greenville",
    "county": "Mercer County",
    "created_at": "2012-01-04T20:17:01Z",
    "id": 20223,
    "latitude": "41.341214",
    "longitude": "-80.396146",
    "mascot": "Reynolds Raiders",
    "name": "Reynolds Junior Senior High School",
    "primary_color": "Gray",
    "secondary_color": "Columbia Blue",
    "state": "PA",
    "timezone": "America/New_York",
    "updated_at": "2012-07-08T00:55:55Z",
    "zip": "16125"
  },
  {
    "address": "159 Kreinbrook Hill Rd",
    "city": "Acme",
    "county": "Fayette County",
    "created_at": "2012-01-04T20:17:01Z",
    "id": 20224,
    "latitude": "40.112577",
    "longitude": "-79.459658",
    "mascot": "Lions",
    "name": "Mount Zion Christian Academy",
    "primary_color": "Royal",
    "secondary_color": "Red",
    "state": "PA",
    "timezone": "America/New_York",
    "updated_at": "2012-07-08T00:55:55Z",
    "zip": "15610"
  },
  {
    "address": "2005 Ridge Rd",
    "city": "Jeannette",
    "county": "Westmoreland County",
    "created_at": "2012-01-04T20:17:01Z",
    "id": 20225,
    "latitude": "40.365473",
    "longitude": "-79.587069",
    "mascot": "Patriots",
    "name": "Christian Fellowship Academy",
    "primary_color": "Red",
    "secondary_color": "White",
    "state": "PA",
    "timezone": "America/New_York",
    "updated_at": "2012-07-08T00:55:55Z",
    "zip": "15644"
  },
  {
    "address": "200 George Junior Rd",
    "city": "Grove City",
    "county": "Mercer County",
    "created_at": "2012-01-04T20:17:01Z",
    "id": 20226,
    "latitude": "41.167226",
    "longitude": "-80.110789",
    "mascot": "Tigers",
    "name": "George Junior Republic School",
    "primary_color": "Royal",
    "secondary_color": "Gold",
    "state": "PA",
    "timezone": "America/New_York",
    "updated_at": "2012-07-08T00:55:55Z",
    "zip": "16127"
  },
  {
    "address": "1531 George St Ext",
    "city": "Hermitage",
    "county": "Mercer County",
    "created_at": "2012-01-04T20:17:01Z",
    "id": 20227,
    "latitude": "41.221200",
    "longitude": "-80.482789",
    "mascot": "Patriots",
    "name": "Sharon Christian Academy",
    "primary_color": "Royal",
    "secondary_color": "White",
    "state": "PA",
    "timezone": "America/New_York",
    "updated_at": "2012-07-08T00:55:55Z",
    "zip": "16148"
  },
  {
    "address": "501 Butler Rd",
    "city": "Springdale",
    "county": "Allegheny County",
    "created_at": "2012-01-04T20:17:01Z",
    "id": 20228,
    "latitude": "40.546838",
    "longitude": "-79.779668",
    "mascot": null,
    "name": "Springdale Junior Senior High School",
    "primary_color": "Orange",
    "secondary_color": "Black",
    "state": "PA",
    "timezone": "America/New_York",
    "updated_at": "2012-07-08T00:55:56Z",
    "zip": "15144"
  },
  {
    "address": "11394 Route 286 Hwy E",
    "city": "Clymer",
    "county": "Indiana County",
    "created_at": "2012-01-04T20:17:01Z",
    "id": 20229,
    "latitude": "40.698905",
    "longitude": "-78.988177",
    "mascot": "Patroits",
    "name": "Clymer Calvary Baptist Academy",
    "primary_color": "Red",
    "secondary_color": "White",
    "state": "PA",
    "timezone": "America/New_York",
    "updated_at": "2012-07-08T00:55:56Z",
    "zip": "15728"
  },
  {
    "address": "4700 Wyalusing Ave",
    "city": "Philadelphia",
    "county": "Philadelphia County",
    "created_at": "2012-01-04T20:17:01Z",
    "id": 20230,
    "latitude": "39.970638",
    "longitude": "-75.216030",
    "mascot": null,
    "name": "Sister Clara Muhammad School",
    "primary_color": "Hunter Green",
    "secondary_color": "White",
    "state": "PA",
    "timezone": "America/New_York",
    "updated_at": "2012-07-08T00:55:56Z",
    "zip": "19131"
  },
  {
    "address": "2363 Mountain Rd",
    "city": "Hamburg",
    "county": "Berks County",
    "created_at": "2012-01-04T20:17:01Z",
    "id": 20231,
    "latitude": "40.555527",
    "longitude": "-76.036358",
    "mascot": null,
    "name": "Blue Mountain Academy",
    "primary_color": "Gold",
    "secondary_color": "Royal",
    "state": "PA",
    "timezone": "America/New_York",
    "updated_at": "2012-07-08T00:55:57Z",
    "zip": "19526"
  },
  {
    "address": "410 S 14th St",
    "city": "Reading",
    "county": "Berks County",
    "created_at": "2012-01-04T20:17:01Z",
    "id": 20232,
    "latitude": "40.329311",
    "longitude": "-75.910726",
    "mascot": null,
    "name": "Fairview Christian School",
    "primary_color": "Gray",
    "secondary_color": "White",
    "state": "PA",
    "timezone": "America/New_York",
    "updated_at": "2012-07-08T00:55:57Z",
    "zip": "19602"
  },
  {
    "address": "873 S Hanover St",
    "city": "Pottstown",
    "county": "Chester County",
    "created_at": "2012-01-04T20:17:01Z",
    "id": 20233,
    "latitude": "40.230661",
    "longitude": "-75.654736",
    "mascot": "West-Mont Wings",
    "name": "West Mont Christian Academy",
    "primary_color": "Gold",
    "secondary_color": "Black",
    "state": "PA",
    "timezone": "America/New_York",
    "updated_at": "2012-07-08T00:55:58Z",
    "zip": "19465"
  },
  {
    "address": "1099 Maple St",
    "city": "Coraopolis",
    "county": "Allegheny County",
    "created_at": "2012-01-04T20:17:01Z",
    "id": 20234,
    "latitude": "40.509274",
    "longitude": "-80.168132",
    "mascot": null,
    "name": "Cornell Senior High School",
    "primary_color": "Gold",
    "secondary_color": "Royal",
    "state": "PA",
    "timezone": "America/New_York",
    "updated_at": "2012-07-08T00:55:58Z",
    "zip": "15108"
  },
  {
    "address": "555 Morewood Ave",
    "city": "Pittsburgh",
    "county": "Allegheny County",
    "created_at": "2012-01-04T20:17:01Z",
    "id": 20235,
    "latitude": "40.451316",
    "longitude": "-79.943171",
    "mascot": "Bears",
    "name": "Winchester Thurston School",
    "primary_color": "Purple",
    "secondary_color": "White",
    "state": "PA",
    "timezone": "America/New_York",
    "updated_at": "2012-07-08T00:55:59Z",
    "zip": "15213"
  },
  {
    "address": "299 Ridge Ave",
    "city": "Pittsburgh",
    "county": "Allegheny County",
    "created_at": "2012-01-04T20:17:01Z",
    "id": 20236,
    "latitude": "40.427338",
    "longitude": "-79.854473",
    "mascot": "Falcons",
    "name": "Trinity Christian School",
    "primary_color": "Royal",
    "secondary_color": "White",
    "state": "PA",
    "timezone": "America/New_York",
    "updated_at": "2012-07-08T00:55:59Z",
    "zip": "15221"
  },
  {
    "address": "926 Philadelphia Ave",
    "city": "Birdsboro",
    "county": "Berks County",
    "created_at": "2012-01-04T20:17:01Z",
    "id": 20237,
    "latitude": "40.285980",
    "longitude": "-75.816679",
    "mascot": "Lions",
    "name": "Berks Christian School",
    "primary_color": "Gold",
    "secondary_color": "Maroon",
    "state": "PA",
    "timezone": "America/New_York",
    "updated_at": "2012-07-08T00:55:59Z",
    "zip": "19508"
  },
  {
    "address": "5765 Old Easton Rd",
    "city": "Plumsteadville",
    "county": "Bucks County",
    "created_at": "2012-01-04T20:17:01Z",
    "id": 20238,
    "latitude": "40.394156",
    "longitude": "-75.148141",
    "mascot": "Panthers",
    "name": "Plumstead Christian School",
    "primary_color": "Red",
    "secondary_color": "Black",
    "state": "PA",
    "timezone": "America/New_York",
    "updated_at": "2012-07-08T00:55:59Z",
    "zip": "18949"
  },
  {
    "address": "700 N Main St",
    "city": "Sellersville",
    "county": "Bucks County",
    "created_at": "2012-01-04T20:17:01Z",
    "id": 20239,
    "latitude": "40.369173",
    "longitude": "-75.313042",
    "mascot": "Lions",
    "name": "Faith Christian Academy",
    "primary_color": "Ash Grey",
    "secondary_color": "Burgandy",
    "state": "PA",
    "timezone": "America/New_York",
    "updated_at": "2012-07-08T00:56:00Z",
    "zip": "18960"
  },
  {
    "address": "Westtown Rd",
    "city": "Westtown",
    "county": "Chester County",
    "created_at": "2012-01-04T20:17:01Z",
    "id": 20240,
    "latitude": "39.964620",
    "longitude": "-75.591179",
    "mascot": "Moose",
    "name": "Westtown School",
    "primary_color": "Brown",
    "secondary_color": "White",
    "state": "PA",
    "timezone": "America/New_York",
    "updated_at": "2012-07-08T00:56:00Z",
    "zip": "19395"
  },
  {
    "address": "1237 Paoli Pk",
    "city": "West Chester",
    "county": "Chester County",
    "created_at": "2012-01-04T20:17:01Z",
    "id": 20241,
    "latitude": "39.980588",
    "longitude": "-75.570631",
    "mascot": "Conquerors",
    "name": "West Chester Christian School",
    "primary_color": "Red",
    "secondary_color": "White",
    "state": "PA",
    "timezone": "America/New_York",
    "updated_at": "2012-07-08T00:56:01Z",
    "zip": "19380"
  },
  {
    "address": "1001 Eagle Rd",
    "city": "Wayne",
    "county": "Delaware County",
    "created_at": "2012-01-04T20:17:01Z",
    "id": 20242,
    "latitude": "40.052680",
    "longitude": "-75.384166",
    "mascot": "Trojans",
    "name": "Valley Forge Military Academy",
    "primary_color": "Beige",
    "secondary_color": "Navy",
    "state": "PA",
    "timezone": "America/New_York",
    "updated_at": "2012-07-08T00:56:01Z",
    "zip": "19087"
  },
  {
    "address": "4301 Chancler",
    "city": "Media",
    "county": "Delaware County",
    "created_at": "2012-01-04T20:17:01Z",
    "id": 20243,
    "latitude": "39.865603",
    "longitude": "-75.387134",
    "mascot": "Crusaders",
    "name": "Christian Academy High School",
    "primary_color": "Royal",
    "secondary_color": "White",
    "state": "PA",
    "timezone": "America/New_York",
    "updated_at": "2012-07-08T00:56:01Z",
    "zip": "19015"
  },
  {
    "address": "4301 Chandler Dr",
    "city": "Brookhaven",
    "county": "Delaware County",
    "created_at": "2012-01-04T20:17:01Z",
    "id": 20244,
    "latitude": "39.870376",
    "longitude": "-75.393844",
    "mascot": "Crusaders",
    "name": "Christian Academy Lower School",
    "primary_color": "Royal",
    "secondary_color": "White",
    "state": "PA",
    "timezone": "America/New_York",
    "updated_at": "2012-07-08T00:56:01Z",
    "zip": "19015"
  },
  {
    "address": "651 Lampeter Rd",
    "city": "Lancaster",
    "county": "Lancaster County",
    "created_at": "2012-01-04T20:17:01Z",
    "id": 20245,
    "latitude": "40.025222",
    "longitude": "-76.265879",
    "mascot": "Lancers",
    "name": "Lancaster Christian School",
    "primary_color": "Navy",
    "secondary_color": "White",
    "state": "PA",
    "timezone": "America/New_York",
    "updated_at": "2012-07-08T00:56:02Z",
    "zip": "17602"
  },
  {
    "address": "629 Holly St",
    "city": "Elizabethtown",
    "county": "Lancaster County",
    "created_at": "2012-01-04T20:17:01Z",
    "id": 20246,
    "latitude": "40.163812",
    "longitude": "-76.605932",
    "mascot": "Chargers",
    "name": "Mount Calvary Christian School",
    "primary_color": "Red",
    "secondary_color": "White",
    "state": "PA",
    "timezone": "America/New_York",
    "updated_at": "2012-07-08T00:56:02Z",
    "zip": "17022"
  },
  {
    "address": "201 N Sprague Ave",
    "city": "Kingston",
    "county": "Luzerne County",
    "created_at": "2012-01-04T20:17:01Z",
    "id": 20247,
    "latitude": "41.263229",
    "longitude": "-75.898029",
    "mascot": "Blue Knights",
    "name": "Wyoming Seminary Upper School",
    "primary_color": "Royal",
    "secondary_color": "White",
    "state": "PA",
    "timezone": "America/New_York",
    "updated_at": "2012-07-08T00:56:02Z",
    "zip": "18704"
  },
  {
    "address": "1380 S Valley Forge Rd",
    "city": "Lansdale",
    "county": "Montgomery County",
    "created_at": "2012-01-04T20:17:01Z",
    "id": 20248,
    "latitude": "40.232535",
    "longitude": "-75.311326",
    "mascot": "Warriors",
    "name": "Calvary Baptist School",
    "primary_color": "Royal",
    "secondary_color": "White",
    "state": "PA",
    "timezone": "America/New_York",
    "updated_at": "2012-07-08T00:56:02Z",
    "zip": "19446"
  },
  {
    "address": "122 Dante St",
    "city": "Roseto",
    "county": "Northampton County",
    "created_at": "2012-01-04T20:17:01Z",
    "id": 20249,
    "latitude": "40.875200",
    "longitude": "-75.217912",
    "mascot": "Lions",
    "name": "Faith Christian School",
    "primary_color": "Royal",
    "secondary_color": "White",
    "state": "PA",
    "timezone": "America/New_York",
    "updated_at": "2012-07-08T00:56:03Z",
    "zip": "18013"
  },
  {
    "address": "4040 Market St",
    "city": "Philadelphia",
    "county": "Philadelphia County",
    "created_at": "2012-01-04T20:17:01Z",
    "id": 20250,
    "latitude": "39.957344",
    "longitude": "-75.203508",
    "mascot": null,
    "name": "Davidson Junior & Senior High School",
    "primary_color": "Red",
    "secondary_color": "Black",
    "state": "PA",
    "timezone": "America/New_York",
    "updated_at": "2012-07-08T00:56:03Z",
    "zip": "19104"
  },
  {
    "address": "907 Greenbriar Rd",
    "city": "York",
    "county": "York County",
    "created_at": "2012-01-04T20:17:01Z",
    "id": 20251,
    "latitude": "39.994611",
    "longitude": "-76.769930",
    "mascot": "Crusaders",
    "name": "Christian School Of York",
    "primary_color": "Royal",
    "secondary_color": "Red",
    "state": "PA",
    "timezone": "America/New_York",
    "updated_at": "2012-07-08T00:56:03Z",
    "zip": "17404"
  },
  {
    "address": "140 S Oxford Ave",
    "city": "McSherrystown",
    "county": "Adams County",
    "created_at": "2012-01-04T20:17:01Z",
    "id": 20252,
    "latitude": "39.806440",
    "longitude": "-77.009705",
    "mascot": "Squires",
    "name": "Delone Catholic High School",
    "primary_color": "Red",
    "secondary_color": "Royal",
    "state": "PA",
    "timezone": "America/New_York",
    "updated_at": "2012-07-08T00:56:03Z",
    "zip": "17344"
  },
  {
    "address": "1504 Woodcrest Ave",
    "city": "Coraopolis",
    "county": "Allegheny County",
    "created_at": "2012-01-04T20:17:01Z",
    "id": 20253,
    "latitude": "40.503248",
    "longitude": "-80.157598",
    "mascot": "Chargers",
    "name": "Our Lady Of The Sacred Heart School",
    "primary_color": "Gold",
    "secondary_color": "Purple",
    "state": "PA",
    "timezone": "America/New_York",
    "updated_at": "2012-07-08T00:56:04Z",
    "zip": "15108"
  },
  {
    "address": "Peebles and McKnight Roads",
    "city": "Pittsburgh",
    "county": "Allegheny County",
    "created_at": "2012-01-04T20:17:01Z",
    "id": 20254,
    "latitude": "40.554550",
    "longitude": "-80.021249",
    "mascot": "Lions",
    "name": "Vincentian Academy",
    "primary_color": "Gold",
    "secondary_color": "Royal",
    "state": "PA",
    "timezone": "America/New_York",
    "updated_at": "2012-07-08T00:56:04Z",
    "zip": "15237"
  },
  {
    "address": "200 Quigley Dr",
    "city": "Baden",
    "county": "Beaver County",
    "created_at": "2012-01-04T20:17:01Z",
    "id": 20255,
    "latitude": "40.652779",
    "longitude": "-80.226257",
    "mascot": "Spartans",
    "name": "Quigley Catholic High School",
    "primary_color": "Maroon",
    "secondary_color": "White",
    "state": "PA",
    "timezone": "America/New_York",
    "updated_at": "2012-07-08T00:56:05Z",
    "zip": "15005"
  },
  {
    "address": "2200 Market St",
    "city": "Harrisburg",
    "county": "Dauphin County",
    "created_at": "2012-01-04T20:17:01Z",
    "id": 20256,
    "latitude": "40.269974",
    "longitude": "-76.855274",
    "mascot": "Crusaders",
    "name": "Bishop McDevitt High School",
    "primary_color": "Gold",
    "secondary_color": "Royal",
    "state": "PA",
    "timezone": "America/New_York",
    "updated_at": "2012-07-08T00:56:05Z",
    "zip": "17103"
  },
  {
    "address": "211 Matson Ford Rd",
    "city": "Radnor",
    "county": "Montgomery County",
    "created_at": "2012-01-04T20:17:01Z",
    "id": 20257,
    "latitude": "40.048004",
    "longitude": "-75.354078",
    "mascot": "Patriots",
    "name": "Archbishop Carroll High School",
    "primary_color": "Red",
    "secondary_color": "White",
    "state": "PA",
    "timezone": "America/New_York",
    "updated_at": "2012-07-08T00:56:05Z",
    "zip": "19087"
  },
  {
    "address": "1701 S Sproul Rd",
    "city": "Springfield",
    "county": "Delaware County",
    "created_at": "2012-01-04T20:17:01Z",
    "id": 20258,
    "latitude": "39.955241",
    "longitude": "-75.353323",
    "mascot": "Lions",
    "name": "Cardinal O'Hara High School",
    "primary_color": "Navy",
    "secondary_color": "Red",
    "state": "PA",
    "timezone": "America/New_York",
    "updated_at": "2012-07-08T00:56:05Z",
    "zip": "19064"
  },
  {
    "address": "1400 Chestnut St",
    "city": "Lebanon",
    "county": "Lebanon County",
    "created_at": "2012-01-04T20:17:01Z",
    "id": 20259,
    "latitude": "40.337279",
    "longitude": "-76.435428",
    "mascot": "Lancers",
    "name": "Lebanon Catholic School",
    "primary_color": "Navy",
    "secondary_color": "White",
    "state": "PA",
    "timezone": "America/New_York",
    "updated_at": "2012-07-08T00:56:06Z",
    "zip": "17042"
  },
  {
    "address": "1700 W 22nd St",
    "city": "Hazleton",
    "county": "Luzerne County",
    "created_at": "2012-01-04T20:17:01Z",
    "id": 20260,
    "latitude": "40.970825",
    "longitude": "-75.994653",
    "mascot": "Vikings",
    "name": "Holy Family Academy",
    "primary_color": "Gold",
    "secondary_color": "White",
    "state": "PA",
    "timezone": "America/New_York",
    "updated_at": "2012-07-08T00:56:06Z",
    "zip": "18202"
  },
  {
    "address": "511 Montgomery Ave",
    "city": "Merion Station",
    "county": "Montgomery County",
    "created_at": "2012-01-04T20:17:01Z",
    "id": 20261,
    "latitude": "40.007549",
    "longitude": "-75.249243",
    "mascot": "Golden Bears",
    "name": "Merion Mercy Academy",
    "primary_color": "Gold",
    "secondary_color": "Royal",
    "state": "PA",
    "timezone": "America/New_York",
    "updated_at": "2012-07-08T00:56:06Z",
    "zip": "19066"
  },
  {
    "address": "5239 Ridge Rd",
    "city": "Westover",
    "county": "Clearfield County",
    "created_at": "2012-01-04T20:17:01Z",
    "id": 20262,
    "latitude": "40.776737",
    "longitude": "-78.726464",
    "mascot": "Owls",
    "name": "Harmony Area School",
    "primary_color": "Gold",
    "secondary_color": "Royal",
    "state": "PA",
    "timezone": "America/New_York",
    "updated_at": "2012-07-08T00:56:06Z",
    "zip": "16692"
  },
  {
    "address": "55 Rochester Rd",
    "city": "Pittsburgh",
    "county": "Allegheny County",
    "created_at": "2012-01-04T20:17:01Z",
    "id": 20263,
    "latitude": "40.523538",
    "longitude": "-80.029256",
    "mascot": "Indians",
    "name": "North Hills Junior High School",
    "primary_color": "White",
    "secondary_color": "Red",
    "state": "PA",
    "timezone": "America/New_York",
    "updated_at": "2012-07-08T00:56:07Z",
    "zip": "15229"
  },
  {
    "address": "151 E 39th St",
    "city": "Reading",
    "county": "Berks County",
    "created_at": "2012-01-04T20:17:01Z",
    "id": 20264,
    "latitude": "40.317419",
    "longitude": "-75.868174",
    "mascot": "Eagles",
    "name": "Exeter Township Junior High School",
    "primary_color": "Royal",
    "secondary_color": "White",
    "state": "PA",
    "timezone": "America/New_York",
    "updated_at": "2012-07-08T00:56:07Z",
    "zip": "19606"
  },
  {
    "address": "115 E Evergreen Rd",
    "city": "Lebanon",
    "county": "Lebanon County",
    "created_at": "2012-01-04T20:17:01Z",
    "id": 20265,
    "latitude": "40.310027",
    "longitude": "-76.402383",
    "mascot": "Falcons",
    "name": "Cedar Crest High School",
    "primary_color": "Royal",
    "secondary_color": "Gray",
    "state": "PA",
    "timezone": "America/New_York",
    "updated_at": "2012-07-08T00:56:07Z",
    "zip": "17042"
  },
  {
    "address": "5301 Media St",
    "city": "Philadelphia",
    "county": "Philadelphia County",
    "created_at": "2012-01-04T20:17:01Z",
    "id": 20266,
    "latitude": "39.975629",
    "longitude": "-75.228061",
    "mascot": null,
    "name": "Mastery Charter-Shoemaker Campus",
    "primary_color": "Red",
    "secondary_color": "White",
    "state": "PA",
    "timezone": "America/New_York",
    "updated_at": "2012-07-08T00:56:08Z",
    "zip": "19131"
  },
  {
    "address": "131 Arnold Palmer Dr",
    "city": "Latrobe",
    "county": "Westmoreland County",
    "created_at": "2012-01-04T20:17:01Z",
    "id": 20267,
    "latitude": "40.278666",
    "longitude": "-79.389493",
    "mascot": "Wildcats",
    "name": "Greater Latrobe Junior High School",
    "primary_color": "Orange",
    "secondary_color": "Black",
    "state": "PA",
    "timezone": "America/New_York",
    "updated_at": "2012-07-08T00:56:08Z",
    "zip": "15650"
  },
  {
    "address": "4653 Clairton Blvd",
    "city": "Pittsburgh",
    "county": "Allegheny County",
    "created_at": "2012-01-04T20:17:01Z",
    "id": 20268,
    "latitude": "40.355219",
    "longitude": "-79.979362",
    "mascot": "Baldwin Highlanders",
    "name": "Baldwin High School",
    "primary_color": "Purple",
    "secondary_color": "White",
    "state": "PA",
    "timezone": "America/New_York",
    "updated_at": "2012-07-08T00:56:08Z",
    "zip": "15236"
  },
  {
    "address": "3601 Brownsville Rd",
    "city": "Pittsburgh",
    "county": "Allegheny County",
    "created_at": "2012-01-04T20:17:01Z",
    "id": 20269,
    "latitude": "40.374070",
    "longitude": "-79.975533",
    "mascot": "Spartans",
    "name": "Brentwood Junior Senior High School",
    "primary_color": "Royal",
    "secondary_color": "Gold",
    "state": "PA",
    "timezone": "America/New_York",
    "updated_at": "2012-07-08T00:56:08Z",
    "zip": "15227"
  },
  {
    "address": "125 Parkfield St",
    "city": "Pittsburgh",
    "county": "Allegheny County",
    "created_at": "2012-01-04T20:17:01Z",
    "id": 20270,
    "latitude": "40.391296",
    "longitude": "-79.988312",
    "mascot": "Raiders",
    "name": "Carrick High School",
    "primary_color": "Gold",
    "secondary_color": "Royal",
    "state": "PA",
    "timezone": "America/New_York",
    "updated_at": "2012-07-08T00:56:08Z",
    "zip": "15210"
  },
  {
    "address": "515 N Highland",
    "city": "Pittsburgh",
    "county": "Allegheny County",
    "created_at": "2012-01-04T20:17:01Z",
    "id": 20271,
    "latitude": "40.466776",
    "longitude": "-79.922371",
    "mascot": null,
    "name": "Peabody High School",
    "primary_color": "White",
    "secondary_color": "Maroon",
    "state": "PA",
    "timezone": "America/New_York",
    "updated_at": "2012-07-08T00:56:13Z",
    "zip": "15206"
  },
  {
    "address": "3113 Main St",
    "city": "Munhall",
    "county": "Allegheny County",
    "created_at": "2012-01-04T20:17:01Z",
    "id": 20272,
    "latitude": "40.388716",
    "longitude": "-79.901424",
    "mascot": "Ironmen",
    "name": "Steel Valley High School",
    "primary_color": "Gold",
    "secondary_color": "Maroon",
    "state": "PA",
    "timezone": "America/New_York",
    "updated_at": "2012-07-08T00:56:13Z",
    "zip": "15120"
  },
  {
    "address": "1825 McLaughlin Run Rd",
    "city": "Pittsburgh",
    "county": "Allegheny County",
    "created_at": "2012-01-04T20:17:01Z",
    "id": 20273,
    "latitude": "40.334578",
    "longitude": "-80.072323",
    "mascot": "Panthers",
    "name": "Upper Saint Clair High School",
    "primary_color": "Red",
    "secondary_color": "Black",
    "state": "PA",
    "timezone": "America/New_York",
    "updated_at": "2012-07-08T00:56:13Z",
    "zip": "15241"
  },
  {
    "address": "2550 Greensburg Pike",
    "city": "Pittsburgh",
    "county": "Allegheny County",
    "created_at": "2012-01-04T20:17:01Z",
    "id": 20274,
    "latitude": "40.437940",
    "longitude": "-79.853158",
    "mascot": "Wolverines",
    "name": "Woodland Hills High School",
    "primary_color": "Black",
    "secondary_color": "White",
    "state": "PA",
    "timezone": "America/New_York",
    "updated_at": "2012-07-08T00:56:13Z",
    "zip": "15221"
  },
  {
    "address": "126 Monroeville Ave",
    "city": "Turtle Creek",
    "county": "Allegheny County",
    "created_at": "2012-01-04T20:17:01Z",
    "id": 20275,
    "latitude": "40.404826",
    "longitude": "-79.824954",
    "mascot": "Wolverines",
    "name": "Woodland Hills Junior High School East",
    "primary_color": "Black",
    "secondary_color": "White",
    "state": "PA",
    "timezone": "America/New_York",
    "updated_at": "2012-07-08T00:56:14Z",
    "zip": "15145"
  },
  {
    "address": "Box 428 Lytle St",
    "city": "Elderton",
    "county": "Armstrong County",
    "created_at": "2012-01-04T20:17:01Z",
    "id": 20276,
    "latitude": "40.693330",
    "longitude": "-79.343679",
    "mascot": "Bobcats",
    "name": "Elderton Junior Senior High School",
    "primary_color": "Kelly Green",
    "secondary_color": "White",
    "state": "PA",
    "timezone": "America/New_York",
    "updated_at": "2012-07-08T00:56:14Z",
    "zip": "15736"
  },
  {
    "address": "1200 Orr Ave",
    "city": "Kittanning",
    "county": "Armstrong County",
    "created_at": "2012-01-04T20:17:01Z",
    "id": 20277,
    "latitude": "40.829649",
    "longitude": "-79.527194",
    "mascot": "Wildcats",
    "name": "Kittanning High School",
    "primary_color": "Red",
    "secondary_color": "White",
    "state": "PA",
    "timezone": "America/New_York",
    "updated_at": "2012-07-08T00:56:14Z",
    "zip": "16201"
  },
  {
    "address": "909 Duss Ave",
    "city": "Ambridge",
    "county": "Beaver County",
    "created_at": "2012-01-04T20:17:01Z",
    "id": 20278,
    "latitude": "40.591410",
    "longitude": "-80.225249",
    "mascot": "Bridgers",
    "name": "Ambridge Area High School",
    "primary_color": "Gray",
    "secondary_color": "Red",
    "state": "PA",
    "timezone": "America/New_York",
    "updated_at": "2012-07-08T00:56:15Z",
    "zip": "15003"
  },
  {
    "address": "Gypsy Glen Rd",
    "city": "Beaver",
    "county": "Beaver County",
    "created_at": "2012-01-04T20:17:01Z",
    "id": 20279,
    "latitude": "40.708216",
    "longitude": "-80.346574",
    "mascot": "Bobcats",
    "name": "Beaver Area Middle High School",
    "primary_color": "Maroon",
    "secondary_color": "Gray",
    "state": "PA",
    "timezone": "America/New_York",
    "updated_at": "2012-07-08T00:56:15Z",
    "zip": "15009"
  },
  {
    "address": "1701 8th Ave",
    "city": "Beaver Falls",
    "county": "Beaver County",
    "created_at": "2012-01-04T20:17:01Z",
    "id": 20280,
    "latitude": "40.758039",
    "longitude": "-80.320775",
    "mascot": "Tigers",
    "name": "Big Beaver Falls Area Senior High School",
    "primary_color": "Black",
    "secondary_color": "Orange",
    "state": "PA",
    "timezone": "America/New_York",
    "updated_at": "2012-07-08T00:56:15Z",
    "zip": "15010"
  },
  {
    "address": "500 Blackhawk Rd",
    "city": "Beaver Falls",
    "county": "Beaver County",
    "created_at": "2012-01-04T20:17:01Z",
    "id": 20281,
    "latitude": "40.764131",
    "longitude": "-80.398465",
    "mascot": "Cougars",
    "name": "Blackhawk High School",
    "primary_color": "Kelly Green",
    "secondary_color": "Gold",
    "state": "PA",
    "timezone": "America/New_York",
    "updated_at": "2012-07-08T00:56:15Z",
    "zip": "15010"
  },
  {
    "address": "1500 Allen Ave",
    "city": "Monaca",
    "county": "Beaver County",
    "created_at": "2012-01-04T20:17:01Z",
    "id": 20282,
    "latitude": "40.681197",
    "longitude": "-80.277102",
    "mascot": "Indians",
    "name": "Monaca Junior Senior High School",
    "primary_color": "Royal",
    "secondary_color": "Red",
    "state": "PA",
    "timezone": "America/New_York",
    "updated_at": "2012-07-08T00:56:15Z",
    "zip": "15061"
  },
  {
    "address": "3200 43rd St",
    "city": "New Brighton",
    "county": "Beaver County",
    "created_at": "2012-01-04T20:17:01Z",
    "id": 20283,
    "latitude": "40.733614",
    "longitude": "-80.302261",
    "mascot": "Lions",
    "name": "New Brighton Area High School",
    "primary_color": "Red",
    "secondary_color": "Gold",
    "state": "PA",
    "timezone": "America/New_York",
    "updated_at": "2012-07-08T00:56:16Z",
    "zip": "15066"
  },
  {
    "address": "Windsor St",
    "city": "Hamburg",
    "county": "Berks County",
    "created_at": "2012-01-04T20:17:01Z",
    "id": 20284,
    "latitude": "40.550000",
    "longitude": "-75.977099",
    "mascot": "Hawks",
    "name": "Hamburg Area High School",
    "primary_color": "Red",
    "secondary_color": "White",
    "state": "PA",
    "timezone": "America/New_York",
    "updated_at": "2012-07-08T00:56:16Z",
    "zip": "19526"
  },
  {
    "address": "44 Big Spring Rd",
    "city": "Robesonia",
    "county": "Berks County",
    "created_at": "2012-01-04T20:17:01Z",
    "id": 20285,
    "latitude": "40.347092",
    "longitude": "-76.118018",
    "mascot": "Scouts",
    "name": "Conrad Weiser High School",
    "primary_color": "Columbia Blue",
    "secondary_color": "White",
    "state": "PA",
    "timezone": "America/New_York",
    "updated_at": "2012-07-08T00:56:16Z",
    "zip": "19551"
  },
  {
    "address": "2601 Grandview Blvd",
    "city": "West Lawn",
    "county": "Berks County",
    "created_at": "2012-01-04T20:17:01Z",
    "id": 20286,
    "latitude": "40.330417",
    "longitude": "-76.000743",
    "mascot": "Bulldogs",
    "name": "Wilson High School",
    "primary_color": "White",
    "secondary_color": "Red",
    "state": "PA",
    "timezone": "America/New_York",
    "updated_at": "2012-07-08T00:56:16Z",
    "zip": "19609"
  },
  {
    "address": "RR 2 Box 7",
    "city": "Wyalusing",
    "county": "Bradford County",
    "created_at": "2012-01-04T20:17:01Z",
    "id": 20287,
    "latitude": "41.668655",
    "longitude": "-76.262194",
    "mascot": "Rams",
    "name": "Wyalusing Valley Junior Senior High",
    "primary_color": "Gold",
    "secondary_color": "Kelly Green",
    "state": "PA",
    "timezone": "America/New_York",
    "updated_at": "2012-07-08T00:56:17Z",
    "zip": "18853"
  },
  {
    "address": "2804 Holicong Rd",
    "city": "Doylestown",
    "county": "Bucks County",
    "created_at": "2012-01-04T20:17:01Z",
    "id": 20288,
    "latitude": "40.339442",
    "longitude": "-75.054195",
    "mascot": "Patriots",
    "name": "Central Bucks East High School",
    "primary_color": "Red",
    "secondary_color": "White",
    "state": "PA",
    "timezone": "America/New_York",
    "updated_at": "2012-07-08T00:56:17Z",
    "zip": "18901"
  },
  {
    "address": "2001 Old Lincoln Hwy",
    "city": "Langhorne",
    "county": "Bucks County",
    "created_at": "2012-01-04T20:17:01Z",
    "id": 20289,
    "latitude": "40.156329",
    "longitude": "-74.945086",
    "mascot": "Redskins",
    "name": "Neshaminy High School",
    "primary_color": "Red",
    "secondary_color": "Royal",
    "state": "PA",
    "timezone": "America/New_York",
    "updated_at": "2012-07-08T00:56:17Z",
    "zip": "19047"
  },
  {
    "address": "1446 Kittanning Pike",
    "city": "Karns City",
    "county": "Butler County",
    "created_at": "2012-01-04T20:17:01Z",
    "id": 20290,
    "latitude": "40.987686",
    "longitude": "-79.725734",
    "mascot": "Gremlins",
    "name": "Karns City High School",
    "primary_color": "Gold",
    "secondary_color": "Purple",
    "state": "PA",
    "timezone": "America/New_York",
    "updated_at": "2012-07-08T00:56:18Z",
    "zip": "16041"
  },
  {
    "address": "85 Mountain Ave",
    "city": "Portage",
    "county": "Cambria County",
    "created_at": "2012-01-04T20:17:01Z",
    "id": 20291,
    "latitude": "40.383977",
    "longitude": "-78.665093",
    "mascot": "Mustangs",
    "name": "Portage Area High School",
    "primary_color": "Kelly Green",
    "secondary_color": "White",
    "state": "PA",
    "timezone": "America/New_York",
    "updated_at": "2012-07-08T00:56:18Z",
    "zip": "15946"
  },
  {
    "address": "1100 Center St",
    "city": "Jim Thorpe",
    "county": "Carbon County",
    "created_at": "2012-01-04T20:17:01Z",
    "id": 20292,
    "latitude": "40.880011",
    "longitude": "-75.725725",
    "mascot": "Olympian Torches",
    "name": "Jim Thorpe High School",
    "primary_color": "Red",
    "secondary_color": "Navy",
    "state": "PA",
    "timezone": "America/New_York",
    "updated_at": "2012-07-08T00:56:18Z",
    "zip": "18229"
  },
  {
    "address": "751 S Eagle Valley Rd",
    "city": "Wingate",
    "county": "Centre County",
    "created_at": "2012-01-04T20:17:01Z",
    "id": 20293,
    "latitude": "40.935960",
    "longitude": "-77.811045",
    "mascot": "Bald Eagles",
    "name": "Bald Eagle Area High School",
    "primary_color": "Gold",
    "secondary_color": "Navy",
    "state": "PA",
    "timezone": "America/New_York",
    "updated_at": "2012-07-08T00:56:18Z",
    "zip": "16823"
  },
  {
    "address": "225 N Phoenixville Pike",
    "city": "Malvern",
    "county": "Chester County",
    "created_at": "2012-01-04T20:17:01Z",
    "id": 20294,
    "latitude": "40.057483",
    "longitude": "-75.568501",
    "mascot": "Patriots",
    "name": "Great Valley High School",
    "primary_color": "Royal",
    "secondary_color": "White",
    "state": "PA",
    "timezone": "America/New_York",
    "updated_at": "2012-07-08T00:56:19Z",
    "zip": "19355"
  },
  {
    "address": "1200 Gay St",
    "city": "Phoenixville",
    "county": "Chester County",
    "created_at": "2012-01-04T20:17:01Z",
    "id": 20295,
    "latitude": "40.119490",
    "longitude": "-75.520014",
    "mascot": "Phantoms",
    "name": "Phoenixville Area High School",
    "primary_color": "Purple",
    "secondary_color": "White",
    "state": "PA",
    "timezone": "America/New_York",
    "updated_at": "2012-07-08T00:56:19Z",
    "zip": "19460"
  },
  {
    "address": "400 Montgomery Ave",
    "city": "West Chester",
    "county": "Chester County",
    "created_at": "2012-01-04T20:17:01Z",
    "id": 20296,
    "latitude": "39.967851",
    "longitude": "-75.597892",
    "mascot": "Warriors",
    "name": "Henderson High School",
    "primary_color": "Maroon",
    "secondary_color": "White",
    "state": "PA",
    "timezone": "America/New_York",
    "updated_at": "2012-07-08T00:56:19Z",
    "zip": "19380"
  },
  {
    "address": "700 Beatty Ave",
    "city": "Knox",
    "county": "Clarion County",
    "created_at": "2012-01-04T20:17:01Z",
    "id": 20297,
    "latitude": "41.232612",
    "longitude": "-79.529591",
    "mascot": "Panthers",
    "name": "Keystone Junior Senior High School",
    "primary_color": "Gold",
    "secondary_color": "Black",
    "state": "PA",
    "timezone": "America/New_York",
    "updated_at": "2012-07-08T00:56:19Z",
    "zip": "16232"
  },
  {
    "address": "762 State Rt 58",
    "city": "Foxburg",
    "county": "Clarion County",
    "created_at": "2012-01-04T20:17:01Z",
    "id": 20298,
    "latitude": "41.147331",
    "longitude": "-79.675680",
    "mascot": "Falcons",
    "name": "Allegheny Clarion Valley High School",
    "primary_color": "Royal",
    "secondary_color": "White",
    "state": "PA",
    "timezone": "America/New_York",
    "updated_at": "2012-07-08T00:56:20Z",
    "zip": "16036"
  },
  {
    "address": "4934 Green Acre Rd",
    "city": "Houtzdale",
    "county": "Clearfield County",
    "created_at": "2012-01-04T20:17:01Z",
    "id": 20299,
    "latitude": "40.830897",
    "longitude": "-78.402757",
    "mascot": "Black Knights",
    "name": "Moshannon Valley Junior Senior High",
    "primary_color": "Black",
    "secondary_color": "White",
    "state": "PA",
    "timezone": "America/New_York",
    "updated_at": "2012-07-08T00:56:20Z",
    "zip": "16651"
  },
  {
    "address": "4777 Old Berwick Rd",
    "city": "Bloomsburg",
    "county": "Columbia County",
    "created_at": "2012-01-04T20:17:01Z",
    "id": 20300,
    "latitude": "41.019704",
    "longitude": "-76.365105",
    "mascot": "Fighting Blue Jays",
    "name": "Central Columbia High School",
    "primary_color": "Navy",
    "secondary_color": "Gray",
    "state": "PA",
    "timezone": "America/New_York",
    "updated_at": "2012-07-08T00:56:20Z",
    "zip": "17815"
  },
  {
    "address": "930 North St",
    "city": "Meadville",
    "county": "Crawford County",
    "created_at": "2012-01-04T20:17:02Z",
    "id": 20301,
    "latitude": "41.635659",
    "longitude": "-80.128320",
    "mascot": "Bulldogs",
    "name": "Meadville Area Senior High School",
    "primary_color": "Red",
    "secondary_color": "Black",
    "state": "PA",
    "timezone": "America/New_York",
    "updated_at": "2012-07-08T00:56:21Z",
    "zip": "16335"
  },
  {
    "address": "2nd St & Cochranton",
    "city": "Cochranton",
    "county": "Crawford County",
    "created_at": "2012-01-04T20:17:02Z",
    "id": 20302,
    "latitude": "41.519810",
    "longitude": "-80.045330",
    "mascot": "Cardinals",
    "name": "Cochranton High School",
    "primary_color": "Red",
    "secondary_color": "White",
    "state": "PA",
    "timezone": "America/New_York",
    "updated_at": "2012-07-08T00:56:22Z",
    "zip": "16314"
  },
  {
    "address": "30383 Guys Mill Rd",
    "city": "Guys Mills",
    "county": "Crawford County",
    "created_at": "2012-01-04T20:17:02Z",
    "id": 20303,
    "latitude": "41.654537",
    "longitude": "-79.942978",
    "mascot": "Tigers",
    "name": "Maplewood High School",
    "primary_color": "Gold",
    "secondary_color": "Black",
    "state": "PA",
    "timezone": "America/New_York",
    "updated_at": "2012-07-08T00:56:22Z",
    "zip": "16327"
  },
  {
    "address": "425 Shady Ln",
    "city": "Enola",
    "county": "Cumberland County",
    "created_at": "2012-01-04T20:17:02Z",
    "id": 20304,
    "latitude": "40.295327",
    "longitude": "-76.940242",
    "mascot": "Panthers",
    "name": "East Pennsboro Area High School",
    "primary_color": "Orange",
    "secondary_color": "Black",
    "state": "PA",
    "timezone": "America/New_York",
    "updated_at": "2012-07-08T00:56:22Z",
    "zip": "17025"
  },
  {
    "address": "Carlisle & Warwick Roads",
    "city": "Camp Hill",
    "county": "Cumberland County",
    "created_at": "2012-01-04T20:17:02Z",
    "id": 20305,
    "latitude": "40.230830",
    "longitude": "-76.895519",
    "mascot": "Colts",
    "name": "Cedar Cliff High School",
    "primary_color": "Navy",
    "secondary_color": "White",
    "state": "PA",
    "timezone": "America/New_York",
    "updated_at": "2012-07-08T00:56:23Z",
    "zip": "17011"
  },
  {
    "address": "2451 Market St",
    "city": "Harrisburg",
    "county": "Dauphin County",
    "created_at": "2012-01-04T20:17:02Z",
    "id": 20306,
    "latitude": "40.308127",
    "longitude": "-76.843180",
    "mascot": "Cougars",
    "name": "Harrisburg High School",
    "primary_color": "Gray",
    "secondary_color": "Black",
    "state": "PA",
    "timezone": "America/New_York",
    "updated_at": "2012-07-08T00:56:23Z",
    "zip": "17110"
  },
  {
    "address": "201 S Hanover St",
    "city": "Hummelstown",
    "county": "Dauphin County",
    "created_at": "2012-01-04T20:17:02Z",
    "id": 20307,
    "latitude": "40.260900",
    "longitude": "-76.707716",
    "mascot": "Falcons",
    "name": "Lower Dauphin High School",
    "primary_color": "Royal",
    "secondary_color": "White",
    "state": "PA",
    "timezone": "America/New_York",
    "updated_at": "2012-07-08T00:56:23Z",
    "zip": "17036"
  },
  {
    "address": "232 W 9th St",
    "city": "Chester",
    "county": "Delaware County",
    "created_at": "2012-01-04T20:17:02Z",
    "id": 20308,
    "latitude": "39.850240",
    "longitude": "-75.366728",
    "mascot": "Clippers",
    "name": "Chester High School",
    "primary_color": "Orange",
    "secondary_color": "Black",
    "state": "PA",
    "timezone": "America/New_York",
    "updated_at": "2012-07-08T00:56:24Z",
    "zip": "19013"
  },
  {
    "address": "601 N Lansdowne Ave",
    "city": "Upper Darby",
    "county": "Delaware County",
    "created_at": "2012-01-04T20:17:02Z",
    "id": 20309,
    "latitude": "39.961898",
    "longitude": "-75.289351",
    "mascot": "Royals",
    "name": "Upper Darby High School",
    "primary_color": "Gold",
    "secondary_color": "Purple",
    "state": "PA",
    "timezone": "America/New_York",
    "updated_at": "2012-07-08T00:56:24Z",
    "zip": "19082"
  },
  {
    "address": "100 Green Ave",
    "city": "Lansdowne",
    "county": "Delaware County",
    "created_at": "2012-01-04T20:17:02Z",
    "id": 20310,
    "latitude": "39.945422",
    "longitude": "-75.271040",
    "mascot": "Patriots",
    "name": "Penn Wood High School",
    "primary_color": "Red",
    "secondary_color": "White",
    "state": "PA",
    "timezone": "America/New_York",
    "updated_at": "2012-07-08T00:56:24Z",
    "zip": "19050"
  },
  {
    "address": "977 S Saint Marys Rd",
    "city": "Saint Marys",
    "county": "Elk County",
    "created_at": "2012-01-04T20:17:02Z",
    "id": 20311,
    "latitude": "41.402850",
    "longitude": "-78.560451",
    "mascot": "Dutchman Ships",
    "name": "Saint Marys Area High School",
    "primary_color": "Red",
    "secondary_color": "Royal",
    "state": "PA",
    "timezone": "America/New_York",
    "updated_at": "2012-07-08T00:56:24Z",
    "zip": "15857"
  },
  {
    "address": "1135 Lake St",
    "city": "Girard",
    "county": "Erie County",
    "created_at": "2012-01-04T20:17:02Z",
    "id": 20312,
    "latitude": "42.006810",
    "longitude": "-80.335244",
    "mascot": "Yellowjackets",
    "name": "Girard High School",
    "primary_color": "Gold",
    "secondary_color": "Red",
    "state": "PA",
    "timezone": "America/New_York",
    "updated_at": "2012-07-08T00:56:25Z",
    "zip": "16417"
  },
  {
    "address": "3580 W 38th St",
    "city": "Erie",
    "county": "Erie County",
    "created_at": "2012-01-04T20:17:02Z",
    "id": 20313,
    "latitude": "42.072517",
    "longitude": "-80.147164",
    "mascot": "Trojans",
    "name": "McDowell Senior High School",
    "primary_color": "Navy",
    "secondary_color": "White",
    "state": "PA",
    "timezone": "America/New_York",
    "updated_at": "2012-07-08T00:56:25Z",
    "zip": "16506"
  },
  {
    "address": "11761 Edinboro Rd",
    "city": "Edinboro",
    "county": "Erie County",
    "created_at": "2012-01-04T20:17:02Z",
    "id": 20314,
    "latitude": "41.916115",
    "longitude": "-80.124944",
    "mascot": "Lancers",
    "name": "General McLane High School",
    "primary_color": "Red",
    "secondary_color": "White",
    "state": "PA",
    "timezone": "America/New_York",
    "updated_at": "2012-07-08T00:56:25Z",
    "zip": "16412"
  },
  {
    "address": "300 Bailey Ave",
    "city": "Uniontown",
    "county": "Fayette County",
    "created_at": "2012-01-04T20:17:02Z",
    "id": 20315,
    "latitude": "39.910032",
    "longitude": "-79.713576",
    "mascot": "Mustangs",
    "name": "Laurel Highlands High School",
    "primary_color": "Red",
    "secondary_color": "Royal",
    "state": "PA",
    "timezone": "America/New_York",
    "updated_at": "2012-07-08T00:56:26Z",
    "zip": "15401"
  },
  {
    "address": "300 S Ridge Ave",
    "city": "Greencastle",
    "county": "Franklin County",
    "created_at": "2012-01-04T20:17:02Z",
    "id": 20316,
    "latitude": "39.785291",
    "longitude": "-77.723953",
    "mascot": "Blue Devils",
    "name": "Greencastle-Antrim High School",
    "primary_color": "Gold",
    "secondary_color": "Navy",
    "state": "PA",
    "timezone": "America/New_York",
    "updated_at": "2012-07-08T00:56:26Z",
    "zip": "17225"
  },
  {
    "address": "4773 Fort Loudon Rd",
    "city": "Mercersburg",
    "county": "Franklin County",
    "created_at": "2012-01-04T20:17:02Z",
    "id": 20317,
    "latitude": "39.853708",
    "longitude": "-77.897479",
    "mascot": "Rockets",
    "name": "James Buchanan High School",
    "primary_color": "Hunter Green",
    "secondary_color": "White",
    "state": "PA",
    "timezone": "America/New_York",
    "updated_at": "2012-07-08T00:56:26Z",
    "zip": "17236"
  },
  {
    "address": "550 E 2nd St",
    "city": "Waynesboro",
    "county": "Franklin County",
    "created_at": "2012-01-04T20:17:02Z",
    "id": 20318,
    "latitude": "39.748600",
    "longitude": "-77.567897",
    "mascot": "Indians",
    "name": "Waynesboro Area Senior High School",
    "primary_color": "Gold",
    "secondary_color": "Royal",
    "state": "PA",
    "timezone": "America/New_York",
    "updated_at": "2012-07-08T00:56:27Z",
    "zip": "17268"
  },
  {
    "address": "RR 1 Box 1124",
    "city": "Three Springs",
    "county": "Huntingdon County",
    "created_at": "2012-01-04T20:17:02Z",
    "id": 20319,
    "latitude": "40.182316",
    "longitude": "-77.988482",
    "mascot": "Rockets",
    "name": "South Huntingdon County Junior Senior",
    "primary_color": "Royal",
    "secondary_color": "Gold",
    "state": "PA",
    "timezone": "America/New_York",
    "updated_at": "2012-07-08T00:56:27Z",
    "zip": "17264"
  },
  {
    "address": "84 Trojan Ln",
    "city": "Saltsburg",
    "county": "Indiana County",
    "created_at": "2012-01-04T20:17:02Z",
    "id": 20320,
    "latitude": "40.490791",
    "longitude": "-79.449036",
    "mascot": null,
    "name": "Saltsburg Junior Senior High School",
    "primary_color": "Red",
    "secondary_color": "White",
    "state": "PA",
    "timezone": "America/New_York",
    "updated_at": "2012-07-08T00:56:27Z",
    "zip": "15681"
  },
  {
    "address": "Rt 56",
    "city": "Armagh",
    "county": "Indiana County",
    "created_at": "2012-01-04T20:17:02Z",
    "id": 20321,
    "latitude": "40.452625",
    "longitude": "-79.031871",
    "mascot": "Lions",
    "name": "United Junior Senior High School",
    "primary_color": "Royal",
    "secondary_color": "White",
    "state": "PA",
    "timezone": "America/New_York",
    "updated_at": "2012-07-08T00:56:27Z",
    "zip": "15920"
  },
  {
    "address": "RR 2 Box 2411",
    "city": "McAlisterville",
    "county": "Juniata County",
    "created_at": "2012-01-04T20:17:02Z",
    "id": 20322,
    "latitude": "40.645246",
    "longitude": "-77.259294",
    "mascot": "Tigers",
    "name": "East Juniata Junior Senior High School",
    "primary_color": "Maroon",
    "secondary_color": "Gray",
    "state": "PA",
    "timezone": "America/New_York",
    "updated_at": "2012-07-08T00:56:28Z",
    "zip": "17049"
  },
  {
    "address": "1593 Lakeland Dr",
    "city": "Jermyn",
    "county": "Lackawanna County",
    "created_at": "2012-01-04T20:17:02Z",
    "id": 20323,
    "latitude": "41.559169",
    "longitude": "-75.602341",
    "mascot": "Chiefs",
    "name": "Lakeland Junior Senior High School",
    "primary_color": "Red",
    "secondary_color": "White",
    "state": "PA",
    "timezone": "America/New_York",
    "updated_at": "2012-07-08T00:56:28Z",
    "zip": "18433"
  },
  {
    "address": "101 Brooklyn St Business Rt 6",
    "city": "Carbondale",
    "county": "Lackawanna County",
    "created_at": "2012-01-04T20:17:02Z",
    "id": 20324,
    "latitude": "41.551383",
    "longitude": "-75.530034",
    "mascot": "Cubby Chargers",
    "name": "Carbondale Area Junior Senior High",
    "primary_color": "Royal",
    "secondary_color": "Red",
    "state": "PA",
    "timezone": "America/New_York",
    "updated_at": "2012-07-08T00:56:30Z",
    "zip": "18407"
  },
  {
    "address": "300 W Warren St",
    "city": "Dunmore",
    "county": "Lackawanna County",
    "created_at": "2012-01-04T20:17:02Z",
    "id": 20325,
    "latitude": "41.426945",
    "longitude": "-75.632014",
    "mascot": "Bucks",
    "name": "Dunmore High School",
    "primary_color": "Red",
    "secondary_color": "Royal",
    "state": "PA",
    "timezone": "America/New_York",
    "updated_at": "2012-07-08T00:56:30Z",
    "zip": "18512"
  },
  {
    "address": "601 7th Ave",
    "city": "Scranton",
    "county": "Lackawanna County",
    "created_at": "2012-01-04T20:17:02Z",
    "id": 20326,
    "latitude": "41.414518",
    "longitude": "-75.670385",
    "mascot": "Knights",
    "name": "Scranton Central High School",
    "primary_color": "Red",
    "secondary_color": "Gold",
    "state": "PA",
    "timezone": "America/New_York",
    "updated_at": "2012-07-08T00:56:30Z",
    "zip": "18510"
  },
  {
    "address": "1 Columbus Dr",
    "city": "Archbald",
    "county": "Lackawanna County",
    "created_at": "2012-01-04T20:17:02Z",
    "id": 20327,
    "latitude": "41.499854",
    "longitude": "-75.556664",
    "mascot": null,
    "name": "Valley View High School",
    "primary_color": "Royal",
    "secondary_color": "Gold",
    "state": "PA",
    "timezone": "America/New_York",
    "updated_at": "2012-07-08T00:56:30Z",
    "zip": "18403"
  },
  {
    "address": "701 Church St",
    "city": "Moscow",
    "county": "Lackawanna County",
    "created_at": "2012-01-04T20:17:02Z",
    "id": 20328,
    "latitude": "41.337648",
    "longitude": "-75.528881",
    "mascot": "Trojans",
    "name": "North Pocono High School",
    "primary_color": "Red",
    "secondary_color": "White",
    "state": "PA",
    "timezone": "America/New_York",
    "updated_at": "2012-07-08T00:56:31Z",
    "zip": "18444"
  },
  {
    "address": "350 Wood St",
    "city": "New Wilmington",
    "county": "Lawrence County",
    "created_at": "2012-01-04T20:17:02Z",
    "id": 20329,
    "latitude": "41.123648",
    "longitude": "-80.336276",
    "mascot": "Greyhounds",
    "name": "Wilmington Area High School",
    "primary_color": "Royal",
    "secondary_color": "Gold",
    "state": "PA",
    "timezone": "America/New_York",
    "updated_at": "2012-07-08T00:56:31Z",
    "zip": "16142"
  },
  {
    "address": "815 N Irvin St",
    "city": "Allentown",
    "county": "Lehigh County",
    "created_at": "2012-01-04T20:17:02Z",
    "id": 20330,
    "latitude": "40.621550",
    "longitude": "-75.442886",
    "mascot": "Huskies",
    "name": "Louis E Dieruff High School",
    "primary_color": "Gray",
    "secondary_color": "Navy",
    "state": "PA",
    "timezone": "America/New_York",
    "updated_at": "2012-07-08T00:56:31Z",
    "zip": "18109"
  },
  {
    "address": "3800 Mechanicsville Rd",
    "city": "Whitehall",
    "county": "Lehigh County",
    "created_at": "2012-01-04T20:17:02Z",
    "id": 20331,
    "latitude": "40.649626",
    "longitude": "-75.505305",
    "mascot": "Zephyrs",
    "name": "Whitehall High School",
    "primary_color": "Gold",
    "secondary_color": "Maroon",
    "state": "PA",
    "timezone": "America/New_York",
    "updated_at": "2012-07-08T00:56:31Z",
    "zip": "18052"
  },
  {
    "address": "5800 Main St",
    "city": "Center Valley",
    "county": "Lehigh County",
    "created_at": "2012-01-04T20:17:02Z",
    "id": 20332,
    "latitude": "40.531807",
    "longitude": "-75.401187",
    "mascot": "Spartans",
    "name": "Southern Lehigh High School",
    "primary_color": "Royal",
    "secondary_color": "White",
    "state": "PA",
    "timezone": "America/New_York",
    "updated_at": "2012-07-08T00:56:32Z",
    "zip": "18034"
  },
  {
    "address": "20 Memorial St",
    "city": "Exeter",
    "county": "Luzerne County",
    "created_at": "2012-01-04T20:17:02Z",
    "id": 20333,
    "latitude": "41.323250",
    "longitude": "-75.810453",
    "mascot": "Warriors",
    "name": "Wyoming Area High School",
    "primary_color": "Kelly Green",
    "secondary_color": "White",
    "state": "PA",
    "timezone": "America/New_York",
    "updated_at": "2012-07-08T00:56:32Z",
    "zip": "18643"
  },
  {
    "address": "80 N Washington St",
    "city": "Wilkes-Barre",
    "county": "Luzerne County",
    "created_at": "2012-01-04T20:17:02Z",
    "id": 20334,
    "latitude": "41.246103",
    "longitude": "-75.878211",
    "mascot": null,
    "name": "James M Coughlin High School",
    "primary_color": "Red",
    "secondary_color": "Royal",
    "state": "PA",
    "timezone": "America/New_York",
    "updated_at": "2012-07-08T00:56:32Z",
    "zip": "18701"
  },
  {
    "address": "349 Cemetery St",
    "city": "Hughesville",
    "county": "Lycoming County",
    "created_at": "2012-01-04T20:17:02Z",
    "id": 20335,
    "latitude": "41.241336",
    "longitude": "-76.732833",
    "mascot": "Spartans",
    "name": "Hughesville Junior Senior High School",
    "primary_color": "Kelly Green",
    "secondary_color": "White",
    "state": "PA",
    "timezone": "America/New_York",
    "updated_at": "2012-07-08T00:56:32Z",
    "zip": "17737"
  },
  {
    "address": "143 Sweitzer Dr",
    "city": "Duke Center",
    "county": "McKean County",
    "created_at": "2012-01-04T20:17:02Z",
    "id": 20336,
    "latitude": "41.937503",
    "longitude": "-78.475324",
    "mascot": "Terrors",
    "name": "Otto-Eldred Junior Senior High School",
    "primary_color": "Royal",
    "secondary_color": "Gold",
    "state": "PA",
    "timezone": "America/New_York",
    "updated_at": "2012-07-08T00:56:33Z",
    "zip": "16729"
  },
  {
    "address": "412 S Mechanic St",
    "city": "Smethport",
    "county": "McKean County",
    "created_at": "2012-01-04T20:17:02Z",
    "id": 20337,
    "latitude": "41.804841",
    "longitude": "-78.441551",
    "mascot": "Hubbers",
    "name": "Smethport Area Junior Senior High School",
    "primary_color": "Orange",
    "secondary_color": "Black",
    "state": "PA",
    "timezone": "America/New_York",
    "updated_at": "2012-07-08T00:56:33Z",
    "zip": "16749"
  },
  {
    "address": "9 Donation Rd",
    "city": "Greenville",
    "county": "Mercer County",
    "created_at": "2012-01-04T20:17:02Z",
    "id": 20338,
    "latitude": "41.404285",
    "longitude": "-80.372159",
    "mascot": "Trojans",
    "name": "Greenville High School",
    "primary_color": "Navy",
    "secondary_color": "Gold",
    "state": "PA",
    "timezone": "America/New_York",
    "updated_at": "2012-07-08T00:56:33Z",
    "zip": "16125"
  },
  {
    "address": "2 Manor Dr",
    "city": "Lewistown",
    "county": "Mifflin County",
    "created_at": "2012-01-04T20:17:02Z",
    "id": 20339,
    "latitude": "40.593806",
    "longitude": "-77.564262",
    "mascot": "Panthers",
    "name": "Lewistown Area High School",
    "primary_color": "Royal",
    "secondary_color": "White",
    "state": "PA",
    "timezone": "America/New_York",
    "updated_at": "2012-07-08T00:56:33Z",
    "zip": "17044"
  },
  {
    "address": "555 Red Lion Rd",
    "city": "Huntingdon Valley",
    "county": "Montgomery County",
    "created_at": "2012-01-04T20:17:02Z",
    "id": 20340,
    "latitude": "40.123493",
    "longitude": "-75.059796",
    "mascot": "Lions",
    "name": "Lower Moreland High School",
    "primary_color": "Gold",
    "secondary_color": "Royal",
    "state": "PA",
    "timezone": "America/New_York",
    "updated_at": "2012-07-08T00:56:34Z",
    "zip": "19006"
  },
  {
    "address": "350 S Lewis Rd",
    "city": "Royersford",
    "county": "Montgomery County",
    "created_at": "2012-01-04T20:17:02Z",
    "id": 20341,
    "latitude": "40.187614",
    "longitude": "-75.527981",
    "mascot": "Rams",
    "name": "Spring Ford High School",
    "primary_color": "Gold",
    "secondary_color": "Navy",
    "state": "PA",
    "timezone": "America/New_York",
    "updated_at": "2012-07-08T00:56:34Z",
    "zip": "19468"
  },
  {
    "address": "424 Warrior Ln",
    "city": "Easton",
    "county": "Northampton County",
    "created_at": "2012-01-04T20:17:02Z",
    "id": 20342,
    "latitude": "40.684943",
    "longitude": "-75.244612",
    "mascot": "Warriors",
    "name": "Wilson Area High School",
    "primary_color": "Gold",
    "secondary_color": "Royal",
    "state": "PA",
    "timezone": "America/New_York",
    "updated_at": "2012-07-08T00:56:34Z",
    "zip": "18042"
  },
  {
    "address": "700 Mahoning St",
    "city": "Milton",
    "county": "Northumberland County",
    "created_at": "2012-01-04T20:17:02Z",
    "id": 20343,
    "latitude": "41.010754",
    "longitude": "-76.841263",
    "mascot": "Panthers",
    "name": "Milton Area Senior High School",
    "primary_color": "Orange",
    "secondary_color": "Black",
    "state": "PA",
    "timezone": "America/New_York",
    "updated_at": "2012-07-08T00:56:35Z",
    "zip": "17847"
  },
  {
    "address": "2000 W State St",
    "city": "Coal Township",
    "county": "Northumberland County",
    "created_at": "2012-01-04T20:17:02Z",
    "id": 20344,
    "latitude": "40.782697",
    "longitude": "-76.578746",
    "mascot": "Indians",
    "name": "Shamokin Area Senior High School",
    "primary_color": "Purple",
    "secondary_color": "White",
    "state": "PA",
    "timezone": "America/New_York",
    "updated_at": "2012-07-08T00:56:35Z",
    "zip": "17866"
  },
  {
    "address": "RR 1 Box 1660",
    "city": "Herndon",
    "county": "Northumberland County",
    "created_at": "2012-01-04T20:17:02Z",
    "id": 20345,
    "latitude": "40.711080",
    "longitude": "-76.841833",
    "mascot": "Eagles",
    "name": "Line Mountain High School",
    "primary_color": "Royal",
    "secondary_color": "Gold",
    "state": "PA",
    "timezone": "America/New_York",
    "updated_at": "2012-07-08T00:56:35Z",
    "zip": "17830"
  },
  {
    "address": "1725 Schoolhouse Rd",
    "city": "Duncannon",
    "county": "Perry County",
    "created_at": "2012-01-04T20:17:02Z",
    "id": 20346,
    "latitude": "40.353754",
    "longitude": "-77.002284",
    "mascot": "Blackhawks",
    "name": "Susquenita High School",
    "primary_color": "Orange",
    "secondary_color": "Black",
    "state": "PA",
    "timezone": "America/New_York",
    "updated_at": "2012-07-08T00:56:35Z",
    "zip": "17020"
  },
  {
    "address": "67th & Elmwood Ave",
    "city": "Philadelphia",
    "county": "Philadelphia County",
    "created_at": "2012-01-04T20:17:02Z",
    "id": 20347,
    "latitude": "39.920410",
    "longitude": "-75.232879",
    "mascot": "Bartram Braves",
    "name": "John Bartram High School",
    "primary_color": "Gray",
    "secondary_color": "Maroon",
    "state": "PA",
    "timezone": "America/New_York",
    "updated_at": "2012-07-08T00:56:35Z",
    "zip": "19142"
  },
  {
    "address": "1333 N Broad St",
    "city": "Philadelphia",
    "county": "Philadelphia County",
    "created_at": "2012-01-04T20:17:02Z",
    "id": 20348,
    "latitude": "39.973654",
    "longitude": "-75.158930",
    "mascot": "Lions",
    "name": "William Penn Senior High School",
    "primary_color": "Black",
    "secondary_color": "Gray",
    "state": "PA",
    "timezone": "America/New_York",
    "updated_at": "2012-07-08T00:56:36Z",
    "zip": "19122"
  },
  {
    "address": "901 S Broad St",
    "city": "Philadelphia",
    "county": "Philadelphia County",
    "created_at": "2012-01-04T20:17:02Z",
    "id": 20349,
    "latitude": "39.939744",
    "longitude": "-75.166353",
    "mascot": "Pegasus",
    "name": "High School For Creative Perform Arts",
    "primary_color": "Columbia Blue",
    "secondary_color": "Royal",
    "state": "PA",
    "timezone": "America/New_York",
    "updated_at": "2012-07-08T00:56:36Z",
    "zip": "19147"
  },
  {
    "address": "805 W Center St",
    "city": "Shenandoah",
    "county": "Schuylkill County",
    "created_at": "2012-01-04T20:17:02Z",
    "id": 20350,
    "latitude": "40.818901",
    "longitude": "-76.210471",
    "mascot": "Blue Devils",
    "name": "Shenandoah Valley Junior Senior High",
    "primary_color": "Columbia Blue",
    "secondary_color": "White",
    "state": "PA",
    "timezone": "America/New_York",
    "updated_at": "2012-07-08T00:56:37Z",
    "zip": "17976"
  },
  {
    "address": "1076 W Market St",
    "city": "Schuylkill Haven",
    "county": "Schuylkill County",
    "created_at": "2012-01-04T20:17:02Z",
    "id": 20351,
    "latitude": "40.647424",
    "longitude": "-76.136086",
    "mascot": "Eagles",
    "name": "Blue Mountain High School",
    "primary_color": "Navy",
    "secondary_color": "White",
    "state": "PA",
    "timezone": "America/New_York",
    "updated_at": "2012-07-08T00:56:37Z",
    "zip": "17972"
  },
  {
    "address": "15 Academy Ln",
    "city": "Ashland",
    "county": "Schuylkill County",
    "created_at": "2012-01-04T20:17:02Z",
    "id": 20352,
    "latitude": "40.775554",
    "longitude": "-76.298357",
    "mascot": "Spartans",
    "name": "North Schuylkill Junior Senior High",
    "primary_color": "Red",
    "secondary_color": "Royal",
    "state": "PA",
    "timezone": "America/New_York",
    "updated_at": "2012-07-08T00:56:37Z",
    "zip": "17921"
  },
  {
    "address": "155 E Main St",
    "city": "Hegins",
    "county": "Schuylkill County",
    "created_at": "2012-01-04T20:17:02Z",
    "id": 20353,
    "latitude": "40.648402",
    "longitude": "-76.517265",
    "mascot": "Bulldogs",
    "name": "Tri Valley Junior Senior High School",
    "primary_color": "Red",
    "secondary_color": "Black",
    "state": "PA",
    "timezone": "America/New_York",
    "updated_at": "2012-07-08T00:56:37Z",
    "zip": "17938"
  },
  {
    "address": "400 Ohio St",
    "city": "Boswell",
    "county": "Somerset County",
    "created_at": "2012-01-04T20:17:02Z",
    "id": 20354,
    "latitude": "40.159272",
    "longitude": "-79.030261",
    "mascot": "Cougars",
    "name": "North Star High School",
    "primary_color": "Hunter Green",
    "secondary_color": "White",
    "state": "PA",
    "timezone": "America/New_York",
    "updated_at": "2012-07-08T00:56:38Z",
    "zip": "15531"
  },
  {
    "address": "437 Somerset Ave",
    "city": "Rockwood",
    "county": "Somerset County",
    "created_at": "2012-01-04T20:17:02Z",
    "id": 20355,
    "latitude": "39.917126",
    "longitude": "-79.160137",
    "mascot": "Rockets",
    "name": "Rockwood Junior Senior High School",
    "primary_color": "Red",
    "secondary_color": "White",
    "state": "PA",
    "timezone": "America/New_York",
    "updated_at": "2012-07-08T00:56:38Z",
    "zip": "15557"
  },
  {
    "address": "73 W Wellsboro St",
    "city": "Mansfield",
    "county": "Tioga County",
    "created_at": "2012-01-04T20:17:02Z",
    "id": 20356,
    "latitude": "41.806101",
    "longitude": "-77.082256",
    "mascot": "Tigers",
    "name": "Mansfield Junior Senior High School",
    "primary_color": "Navy",
    "secondary_color": "Gold",
    "state": "PA",
    "timezone": "America/New_York",
    "updated_at": "2012-07-08T00:56:38Z",
    "zip": "16933"
  },
  {
    "address": "RR 2 Box 205",
    "city": "Tioga",
    "county": "Tioga County",
    "created_at": "2012-01-04T20:17:02Z",
    "id": 20357,
    "latitude": "41.922444",
    "longitude": "-77.138796",
    "mascot": "Warriors",
    "name": "Williamson Junior Senior High School",
    "primary_color": "Navy",
    "secondary_color": "Gold",
    "state": "PA",
    "timezone": "America/New_York",
    "updated_at": "2012-07-08T00:56:38Z",
    "zip": "16946"
  },
  {
    "address": "246 Pone Ln",
    "city": "Franklin",
    "county": "Venango County",
    "created_at": "2012-01-04T20:17:02Z",
    "id": 20358,
    "latitude": "41.371117",
    "longitude": "-79.848125",
    "mascot": "Knights",
    "name": "Franklin Senior High School",
    "primary_color": "Red",
    "secondary_color": "Black",
    "state": "PA",
    "timezone": "America/New_York",
    "updated_at": "2012-07-08T00:56:39Z",
    "zip": "16323"
  },
  {
    "address": "10 Lynch Blvd",
    "city": "Oil City",
    "county": "Venango County",
    "created_at": "2012-01-04T20:17:02Z",
    "id": 20359,
    "latitude": "41.431108",
    "longitude": "-79.682140",
    "mascot": "Oilers",
    "name": "Oil City Senior High School",
    "primary_color": "Navy",
    "secondary_color": "White",
    "state": "PA",
    "timezone": "America/New_York",
    "updated_at": "2012-07-08T00:56:39Z",
    "zip": "16301"
  },
  {
    "address": "302 E Walnut St",
    "city": "Titusville",
    "county": "Crawford County",
    "created_at": "2012-01-04T20:17:02Z",
    "id": 20360,
    "latitude": "41.629540",
    "longitude": "-79.669329",
    "mascot": "Rockets",
    "name": "Titusville High School",
    "primary_color": "Gold",
    "secondary_color": "Brown",
    "state": "PA",
    "timezone": "America/New_York",
    "updated_at": "2012-07-08T00:56:39Z",
    "zip": "16354"
  },
  {
    "address": "227 College St",
    "city": "Youngsville",
    "county": "Warren County",
    "created_at": "2012-01-04T20:17:02Z",
    "id": 20361,
    "latitude": "41.852232",
    "longitude": "-79.314802",
    "mascot": "Eagles",
    "name": "Youngsville Middle Senior High School",
    "primary_color": "Red",
    "secondary_color": "White",
    "state": "PA",
    "timezone": "America/New_York",
    "updated_at": "2012-07-08T00:56:39Z",
    "zip": "16371"
  },
  {
    "address": "Rt 2 Box 2276",
    "city": "Russell",
    "county": "Warren County",
    "created_at": "2012-01-04T20:17:02Z",
    "id": 20362,
    "latitude": "41.949683",
    "longitude": "-79.095012",
    "mascot": "Knights",
    "name": "Eisenhower Middle Senior High School",
    "primary_color": "Gold",
    "secondary_color": "Navy",
    "state": "PA",
    "timezone": "America/New_York",
    "updated_at": "2012-07-08T00:56:40Z",
    "zip": "16345"
  },
  {
    "address": "104 Bavington Rd",
    "city": "Burgettstown",
    "county": "Washington County",
    "created_at": "2012-01-04T20:17:02Z",
    "id": 20363,
    "latitude": "40.397179",
    "longitude": "-80.389046",
    "mascot": "Blue Devils",
    "name": "Burgettstown Area Middle/High School",
    "primary_color": "Navy",
    "secondary_color": "White",
    "state": "PA",
    "timezone": "America/New_York",
    "updated_at": "2012-07-08T00:56:40Z",
    "zip": "15021"
  },
  {
    "address": "293 Malden Dr",
    "city": "Coal Center",
    "county": "Washington County",
    "created_at": "2012-01-04T20:17:02Z",
    "id": 20364,
    "latitude": "40.043380",
    "longitude": "-79.924029",
    "mascot": "Trojans",
    "name": "California Area High School",
    "primary_color": "Maroon",
    "secondary_color": "Gold",
    "state": "PA",
    "timezone": "America/New_York",
    "updated_at": "2012-07-08T00:56:40Z",
    "zip": "15423"
  },
  {
    "address": "2050 W Pike St",
    "city": "Houston",
    "county": "Washington County",
    "created_at": "2012-01-04T20:17:02Z",
    "id": 20365,
    "latitude": "40.232020",
    "longitude": "-80.215456",
    "mascot": "Buccaneers",
    "name": "Chartiers-Houston High School",
    "primary_color": "Gold",
    "secondary_color": "Maroon",
    "state": "PA",
    "timezone": "America/New_York",
    "updated_at": "2012-07-08T00:56:40Z",
    "zip": "15342"
  },
  {
    "address": "231 Park Ave",
    "city": "Washington",
    "county": "Washington County",
    "created_at": "2012-01-04T20:17:02Z",
    "id": 20366,
    "latitude": "40.163256",
    "longitude": "-80.249608",
    "mascot": "Codets",
    "name": "Trinity High School",
    "primary_color": "Royal",
    "secondary_color": "White",
    "state": "PA",
    "timezone": "America/New_York",
    "updated_at": "2012-07-08T00:56:41Z",
    "zip": "15301"
  },
  {
    "address": "459 Terrace St",
    "city": "Honesdale",
    "county": "Wayne County",
    "created_at": "2012-01-04T20:17:02Z",
    "id": 20367,
    "latitude": "41.561654",
    "longitude": "-75.259099",
    "mascot": null,
    "name": "Honesdale High School",
    "primary_color": "Red",
    "secondary_color": "Black",
    "state": "PA",
    "timezone": "America/New_York",
    "updated_at": "2012-07-08T00:56:41Z",
    "zip": "18431"
  },
  {
    "address": "HC 6 Box 6075",
    "city": "Hawley",
    "county": "Pike County",
    "created_at": "2012-01-04T20:17:02Z",
    "id": 20368,
    "latitude": "41.428414",
    "longitude": "-75.135678",
    "mascot": "Buckhorns",
    "name": "Wallenpaupack Area High School",
    "primary_color": "Purple",
    "secondary_color": "White",
    "state": "PA",
    "timezone": "America/New_York",
    "updated_at": "2012-07-08T00:56:42Z",
    "zip": "18428"
  },
  {
    "address": "RR 8 Box 8175",
    "city": "Lake Ariel",
    "county": "Wayne County",
    "created_at": "2012-01-04T20:17:02Z",
    "id": 20369,
    "latitude": "41.430023",
    "longitude": "-75.384122",
    "mascot": "Wildcats",
    "name": "Western Wayne High School",
    "primary_color": "Black",
    "secondary_color": "Gold",
    "state": "PA",
    "timezone": "America/New_York",
    "updated_at": "2012-07-08T00:56:42Z",
    "zip": "18436"
  },
  {
    "address": "Rd 1 Box 227",
    "city": "New Florence",
    "county": "Westmoreland County",
    "created_at": "2012-01-04T20:17:02Z",
    "id": 20370,
    "latitude": "40.381244",
    "longitude": "-79.085593",
    "mascot": "Rams",
    "name": "Laurel Valley Middle High School",
    "primary_color": "Red",
    "secondary_color": "Black",
    "state": "PA",
    "timezone": "America/New_York",
    "updated_at": "2012-07-08T00:56:42Z",
    "zip": "15944"
  },
  {
    "address": "703 Stevenson Blvd",
    "city": "New Kensington",
    "county": "Westmoreland County",
    "created_at": "2012-01-04T20:17:02Z",
    "id": 20371,
    "latitude": "40.565310",
    "longitude": "-79.754922",
    "mascot": "Vikings",
    "name": "Valley High School",
    "primary_color": "Gold",
    "secondary_color": "Black",
    "state": "PA",
    "timezone": "America/New_York",
    "updated_at": "2012-07-08T00:56:43Z",
    "zip": "15068"
  },
  {
    "address": "1021 Puckety Church Rd",
    "city": "Lower Burrell",
    "county": "Westmoreland County",
    "created_at": "2012-01-04T20:17:02Z",
    "id": 20372,
    "latitude": "40.582254",
    "longitude": "-79.700077",
    "mascot": "Buccaneers",
    "name": "Burrell High School",
    "primary_color": "Columbia Blue",
    "secondary_color": "White",
    "state": "PA",
    "timezone": "America/New_York",
    "updated_at": "2012-07-08T00:56:43Z",
    "zip": "15068"
  },
  {
    "address": "131 High School Drive",
    "city": "Latrobe",
    "county": "Westmoreland County",
    "created_at": "2012-01-04T20:17:02Z",
    "id": 20373,
    "latitude": "40.278212",
    "longitude": "-79.376832",
    "mascot": "Wildcats",
    "name": "Greater Latrobe Senior High School",
    "primary_color": "Orange",
    "secondary_color": "Black",
    "state": "PA",
    "timezone": "America/New_York",
    "updated_at": "2012-07-08T00:56:43Z",
    "zip": "15650"
  },
  {
    "address": "401 Moul Ave",
    "city": "Hanover",
    "county": "York County",
    "created_at": "2012-01-04T20:17:02Z",
    "id": 20374,
    "latitude": "39.817876",
    "longitude": "-76.972072",
    "mascot": "Nighthawks",
    "name": "Hanover High School",
    "primary_color": "Black",
    "secondary_color": "Orange",
    "state": "PA",
    "timezone": "America/New_York",
    "updated_at": "2012-07-08T00:56:44Z",
    "zip": "17331"
  },
  {
    "address": "200 Horace Mann Ave",
    "city": "Red Lion",
    "county": "York County",
    "created_at": "2012-01-04T20:17:02Z",
    "id": 20375,
    "latitude": "39.895038",
    "longitude": "-76.604279",
    "mascot": "Lions",
    "name": "Red Lion Area Senior High School",
    "primary_color": "Gold",
    "secondary_color": "Black",
    "state": "PA",
    "timezone": "America/New_York",
    "updated_at": "2012-07-08T00:56:44Z",
    "zip": "17356"
  },
  {
    "address": "210 N Vesper St",
    "city": "Lock Haven",
    "county": "Clinton County",
    "created_at": "2012-01-04T20:17:02Z",
    "id": 20376,
    "latitude": "41.136456",
    "longitude": "-77.446079",
    "mascot": "Eagles",
    "name": "Lock Haven Christian School",
    "primary_color": "Ash Grey",
    "secondary_color": "Royal Blue",
    "state": "PA",
    "timezone": "America/New_York",
    "updated_at": "2012-07-08T00:56:44Z",
    "zip": "17745"
  },
  {
    "address": "300 E Swissvale Ave",
    "city": "Pittsburgh",
    "county": "Allegheny County",
    "created_at": "2012-01-04T20:17:02Z",
    "id": 20377,
    "latitude": "40.434834",
    "longitude": "-79.882776",
    "mascot": "Lions",
    "name": "Western Pennsylvania School For The Deaf",
    "primary_color": "Gold",
    "secondary_color": "Royal",
    "state": "PA",
    "timezone": "America/New_York",
    "updated_at": "2012-07-08T00:56:44Z",
    "zip": "15218"
  },
  {
    "address": "6746 Carlisle Pike",
    "city": "Mechanicsburg",
    "county": "Cumberland County",
    "created_at": "2012-01-04T20:17:02Z",
    "id": 20378,
    "latitude": "40.237737",
    "longitude": "-77.061276",
    "mascot": "Eagles",
    "name": "Cumberland Valley High School",
    "primary_color": "Red",
    "secondary_color": "White",
    "state": "PA",
    "timezone": "America/New_York",
    "updated_at": "2012-07-08T00:56:45Z",
    "zip": "17050"
  },
  {
    "address": "3151 Conway Wallrose Rd",
    "city": "Baden",
    "county": "Beaver County",
    "created_at": "2012-01-04T20:17:02Z",
    "id": 20379,
    "latitude": "40.643979",
    "longitude": "-80.170209",
    "mascot": "Eagles",
    "name": "North Hills Christian School",
    "primary_color": "Royal",
    "secondary_color": "White",
    "state": "PA",
    "timezone": "America/New_York",
    "updated_at": "2012-07-08T00:56:45Z",
    "zip": "15005"
  },
  {
    "address": "385 Kings Rd",
    "city": "Apollo",
    "county": "Armstrong County",
    "created_at": "2012-01-04T20:17:03Z",
    "id": 20380,
    "latitude": "40.579925",
    "longitude": "-79.525571",
    "mascot": "Eagles",
    "name": "Orchard Hills Christian Academy",
    "primary_color": "Gray",
    "secondary_color": "Navy",
    "state": "PA",
    "timezone": "America/New_York",
    "updated_at": "2012-07-08T00:56:45Z",
    "zip": "15613"
  },
  {
    "address": "543 Randolph St",
    "city": "Meadville",
    "county": "Crawford County",
    "created_at": "2012-01-04T20:17:03Z",
    "id": 20381,
    "latitude": "41.642821",
    "longitude": "-80.141275",
    "mascot": "Crusaders",
    "name": "Calvary Baptist Christian School",
    "primary_color": "Red",
    "secondary_color": "White",
    "state": "PA",
    "timezone": "America/New_York",
    "updated_at": "2012-07-08T00:56:45Z",
    "zip": "16335"
  },
  {
    "address": "220 W Upsal St",
    "city": "Philadelphia",
    "county": "Philadelphia County",
    "created_at": "2012-01-04T20:17:03Z",
    "id": 20382,
    "latitude": "40.044578",
    "longitude": "-75.187136",
    "mascot": "Warriors",
    "name": "Blair Christian Academy",
    "primary_color": "Gray",
    "secondary_color": "Maroon",
    "state": "PA",
    "timezone": "America/New_York",
    "updated_at": "2012-07-08T00:56:45Z",
    "zip": "19119"
  },
  {
    "address": "Rt 371 River Rd",
    "city": "Damascus",
    "county": "Wayne County",
    "created_at": "2012-01-04T20:17:03Z",
    "id": 20383,
    "latitude": "41.700805",
    "longitude": "-75.073814",
    "mascot": "Knights",
    "name": "Damascus Christian Academy",
    "primary_color": "Maroon",
    "secondary_color": "Gold",
    "state": "PA",
    "timezone": "America/New_York",
    "updated_at": "2012-07-08T00:56:46Z",
    "zip": "18415"
  },
  {
    "address": "343 E Portersville Rd",
    "city": "Portersville",
    "county": "Butler County",
    "created_at": "2012-01-04T20:17:03Z",
    "id": 20384,
    "latitude": "40.923275",
    "longitude": "-80.118594",
    "mascot": "Spartans",
    "name": "Portersville Christian School",
    "primary_color": "Royal",
    "secondary_color": "White",
    "state": "PA",
    "timezone": "America/New_York",
    "updated_at": "2012-07-08T00:56:46Z",
    "zip": "16051"
  },
  {
    "address": "1618 Womrath St",
    "city": "Philadelphia",
    "county": "Philadelphia County",
    "created_at": "2012-01-04T20:17:03Z",
    "id": 20385,
    "latitude": "40.008524",
    "longitude": "-75.089511",
    "mascot": "Eagles",
    "name": "Christ Independent Baptist Academy",
    "primary_color": "Royal",
    "secondary_color": "White",
    "state": "PA",
    "timezone": "America/New_York",
    "updated_at": "2012-07-08T00:56:47Z",
    "zip": "19124"
  },
  {
    "address": "1650 Centennial Rd",
    "city": "Mifflinburg",
    "county": "Union County",
    "created_at": "2012-01-04T20:17:03Z",
    "id": 20386,
    "latitude": "40.970545",
    "longitude": "-77.071254",
    "mascot": null,
    "name": "Hillside Christian Academy",
    "primary_color": "Royal",
    "secondary_color": "White",
    "state": "PA",
    "timezone": "America/New_York",
    "updated_at": "2012-07-08T00:56:47Z",
    "zip": "17844"
  },
  {
    "address": "Route 6W",
    "city": "Youngsville",
    "county": "Warren County",
    "created_at": "2012-01-04T20:17:03Z",
    "id": 20387,
    "latitude": "41.847317",
    "longitude": "-79.299237",
    "mascot": "Lions",
    "name": "Warren County Christian School",
    "primary_color": "Navy",
    "secondary_color": "White",
    "state": "PA",
    "timezone": "America/New_York",
    "updated_at": "2012-07-08T00:56:47Z",
    "zip": "16371"
  },
  {
    "address": "4592 Jefferson Ave",
    "city": "West Middletown",
    "county": "Washington County",
    "created_at": "2012-01-04T20:17:03Z",
    "id": 20388,
    "latitude": "40.241828",
    "longitude": "-80.426937",
    "mascot": "Swordsman",
    "name": "Grace Bible Christian School",
    "primary_color": "Gold",
    "secondary_color": "Royal",
    "state": "PA",
    "timezone": "America/New_York",
    "updated_at": "2012-07-08T00:56:47Z",
    "zip": "15379"
  },
  {
    "address": "Rt 8 Box 8180 Hemlock Rd",
    "city": "Lake Ariel",
    "county": "Wayne County",
    "created_at": "2012-01-04T20:17:03Z",
    "id": 20389,
    "latitude": "41.430023",
    "longitude": "-75.384122",
    "mascot": "Eagles",
    "name": "Canaan Christian Academy",
    "primary_color": "Red",
    "secondary_color": "White",
    "state": "PA",
    "timezone": "America/New_York",
    "updated_at": "2012-07-08T00:56:48Z",
    "zip": "18436"
  },
  {
    "address": "527 Butler Rd",
    "city": "Kittanning",
    "county": "Armstrong County",
    "created_at": "2012-01-04T20:17:03Z",
    "id": 20390,
    "latitude": "40.822890",
    "longitude": "-79.538951",
    "mascot": "Crusaders",
    "name": "Grace Baptist Academy",
    "primary_color": "Gray",
    "secondary_color": "Kelly Green",
    "state": "PA",
    "timezone": "America/New_York",
    "updated_at": "2012-07-08T00:56:48Z",
    "zip": "16201"
  },
  {
    "address": "561 Pike Rd",
    "city": "Johnstown",
    "county": "Cambria County",
    "created_at": "2012-01-04T20:17:03Z",
    "id": 20391,
    "latitude": "40.444353",
    "longitude": "-78.837360",
    "mascot": "Panthers",
    "name": "Cambria County Christian School",
    "primary_color": "Kelly Green",
    "secondary_color": "White",
    "state": "PA",
    "timezone": "America/New_York",
    "updated_at": "2012-07-08T00:56:49Z",
    "zip": "15909"
  },
  {
    "address": "19 E Central Ave",
    "city": "Paoli",
    "county": "Chester County",
    "created_at": "2012-01-04T20:17:03Z",
    "id": 20392,
    "latitude": "40.044712",
    "longitude": "-75.481906",
    "mascot": null,
    "name": "Delaware Valley Friends School",
    "primary_color": "Kelly Green",
    "secondary_color": "White",
    "state": "PA",
    "timezone": "America/New_York",
    "updated_at": "2012-07-08T00:56:49Z",
    "zip": "19301"
  },
  {
    "address": "3002 Freemansburg Ave",
    "city": "Easton",
    "county": "Northampton County",
    "created_at": "2012-01-04T20:17:03Z",
    "id": 20393,
    "latitude": "40.670882",
    "longitude": "-75.254281",
    "mascot": null,
    "name": "Easton Christian School",
    "primary_color": "Navy",
    "secondary_color": "White",
    "state": "PA",
    "timezone": "America/New_York",
    "updated_at": "2012-07-08T00:56:49Z",
    "zip": "18042"
  },
  {
    "address": "7920 Washington Ln",
    "city": "Wyncote",
    "county": "Montgomery County",
    "created_at": "2012-01-04T20:17:03Z",
    "id": 20394,
    "latitude": "40.082446",
    "longitude": "-75.143456",
    "mascot": "Lions",
    "name": "Wyncote Academy",
    "primary_color": "Gold",
    "secondary_color": "Royal",
    "state": "PA",
    "timezone": "America/New_York",
    "updated_at": "2012-07-08T00:56:49Z",
    "zip": "19095"
  },
  {
    "address": "911 Sweinhart Rd",
    "city": "Boyertown",
    "county": "Montgomery County",
    "created_at": "2012-01-04T20:17:03Z",
    "id": 20395,
    "latitude": "40.308301",
    "longitude": "-75.638070",
    "mascot": "Sailors",
    "name": "Wayside Christian School",
    "primary_color": "Royal",
    "secondary_color": "White",
    "state": "PA",
    "timezone": "America/New_York",
    "updated_at": "2012-07-08T00:56:50Z",
    "zip": "19512"
  },
  {
    "address": "125 Penn View Dr.",
    "city": "Penns Creek",
    "county": "Snyder County",
    "created_at": "2012-01-04T20:17:03Z",
    "id": 20396,
    "latitude": "40.857447",
    "longitude": "-77.064533",
    "mascot": null,
    "name": "Penn View Christian Academy",
    "primary_color": "Navy",
    "secondary_color": "White",
    "state": "PA",
    "timezone": "America/New_York",
    "updated_at": "2012-07-08T00:56:50Z",
    "zip": "17862"
  },
  {
    "address": "4719 Buffalo Rd",
    "city": "Erie",
    "county": "Erie County",
    "created_at": "2012-01-04T20:17:03Z",
    "id": 20397,
    "latitude": "42.149807",
    "longitude": "-79.995701",
    "mascot": "Eagles",
    "name": "Harborcreek Christian School",
    "primary_color": "Red",
    "secondary_color": "Royal",
    "state": "PA",
    "timezone": "America/New_York",
    "updated_at": "2012-07-08T00:56:51Z",
    "zip": "16510"
  },
  {
    "address": "5800 Old Zuck Rd",
    "city": "Erie",
    "county": "Erie County",
    "created_at": "2012-01-04T20:17:03Z",
    "id": 20398,
    "latitude": "42.059985",
    "longitude": "-80.115688",
    "mascot": null,
    "name": "Community Country Day School",
    "primary_color": "Red",
    "secondary_color": "White",
    "state": "PA",
    "timezone": "America/New_York",
    "updated_at": "2012-07-08T00:56:51Z",
    "zip": "16506"
  },
  {
    "address": "5390 Main Rd",
    "city": "Sweet Valley",
    "county": "Luzerne County",
    "created_at": "2012-01-04T20:17:03Z",
    "id": 20399,
    "latitude": "41.284289",
    "longitude": "-76.141844",
    "mascot": "Eagles",
    "name": "Community Bible Church And Academy",
    "primary_color": "Royal",
    "secondary_color": "White",
    "state": "PA",
    "timezone": "America/New_York",
    "updated_at": "2012-07-08T00:56:51Z",
    "zip": "18656"
  },
  {
    "address": "309 Kenhorst Blvd",
    "city": "Reading",
    "county": "Berks County",
    "created_at": "2012-01-04T20:17:03Z",
    "id": 20400,
    "latitude": "40.316389",
    "longitude": "-75.950129",
    "mascot": null,
    "name": "Reading SDA Junior Academy",
    "primary_color": "Royal",
    "secondary_color": "White",
    "state": "PA",
    "timezone": "America/New_York",
    "updated_at": "2012-07-08T00:56:51Z",
    "zip": "19607"
  },
  {
    "address": "Pine Forge Rd",
    "city": "Pine Forge",
    "county": "Berks County",
    "created_at": "2012-01-04T20:17:03Z",
    "id": 20401,
    "latitude": "40.296715",
    "longitude": "-75.732934",
    "mascot": "Falcons",
    "name": "Pine Forge Academy",
    "primary_color": "Hunter Green",
    "secondary_color": "White",
    "state": "PA",
    "timezone": "America/New_York",
    "updated_at": "2012-07-08T00:56:52Z",
    "zip": "19548"
  },
  {
    "address": "699 N Pleasantville Rd",
    "city": "Pottstown",
    "county": "Chester County",
    "created_at": "2012-01-04T20:17:03Z",
    "id": 20402,
    "latitude": "40.164555",
    "longitude": "-75.709677",
    "mascot": "Eagles",
    "name": "Coventry Christian Schools",
    "primary_color": "White",
    "secondary_color": "Royal Blue",
    "state": "PA",
    "timezone": "America/New_York",
    "updated_at": "2012-07-08T00:56:52Z",
    "zip": "19465"
  },
  {
    "address": "2105 Main St",
    "city": "Aliquippa",
    "county": "Beaver County",
    "created_at": "2012-01-04T20:17:03Z",
    "id": 20403,
    "latitude": "40.604807",
    "longitude": "-80.277178",
    "mascot": "Knights",
    "name": "Aliquippa Baptist Temple Academy",
    "primary_color": "Navy",
    "secondary_color": "White",
    "state": "PA",
    "timezone": "America/New_York",
    "updated_at": "2012-07-08T00:56:53Z",
    "zip": "15001"
  },