[
  {
    "address": "1 Lumberjack Ln",
    "city": "Pine Grove",
    "county": "Wetzel County",
    "created_at": "2012-01-04T20:18:23Z",
    "id": 26738,
    "latitude": "39.565524",
    "longitude": "-80.679513",
    "mascot": "Lumberjacks",
    "name": "Valley High School",
    "primary_color": "Gold",
    "secondary_color": "Black",
    "state": "WV",
    "timezone": "America/New_York",
    "updated_at": "2012-07-08T01:56:04Z",
    "zip": "26419"
  },
  {
    "address": "201 Stuart St",
    "city": "West Union",
    "county": "Doddridge County",
    "created_at": "2012-01-04T20:18:23Z",
    "id": 26739,
    "latitude": "39.291741",
    "longitude": "-80.774184",
    "mascot": "Bulldogs",
    "name": "Doddridge County High School",
    "primary_color": "Gold",
    "secondary_color": "Kelly Green",
    "state": "WV",
    "timezone": "America/New_York",
    "updated_at": "2012-07-08T01:56:04Z",
    "zip": "26456"
  },
  {
    "address": "40 Grizzly Rd",
    "city": "Summersville",
    "county": "Nicholas County",
    "created_at": "2012-01-04T20:18:23Z",
    "id": 26740,
    "latitude": "38.321810",
    "longitude": "-80.832917",
    "mascot": "Bears",
    "name": "Summersville Junior High School",
    "primary_color": "Gold",
    "secondary_color": "Royal",
    "state": "WV",
    "timezone": "America/New_York",
    "updated_at": "2012-07-08T01:56:04Z",
    "zip": "26651"
  },
  {
    "address": "2 Valley Ave",
    "city": "Richwood",
    "county": "Nicholas County",
    "created_at": "2012-01-04T20:18:23Z",
    "id": 26741,
    "latitude": "38.222973",
    "longitude": "-80.531429",
    "mascot": "Patriots",
    "name": "Richwood Junior High School",
    "primary_color": "Royal",
    "secondary_color": "White",
    "state": "WV",
    "timezone": "America/New_York",
    "updated_at": "2012-07-08T01:56:05Z",
    "zip": "26261"
  },
  {
    "address": "4373 Teays Valley Rd",
    "city": "Scott Depot",
    "county": "Putnam County",
    "created_at": "2012-01-04T20:18:23Z",
    "id": 26742,
    "latitude": "38.449366",
    "longitude": "-81.904142",
    "mascot": "Lions",
    "name": "Teays Valley Christian School",
    "primary_color": "Royal",
    "secondary_color": "White",
    "state": "WV",
    "timezone": "America/New_York",
    "updated_at": "2012-07-08T01:56:05Z",
    "zip": "25560"
  },
  {
    "address": "817 High St",
    "city": "Charles Town",
    "county": "Jefferson County",
    "created_at": "2012-01-04T20:18:23Z",
    "id": 26743,
    "latitude": "39.277730",
    "longitude": "-77.849379",
    "mascot": "Panthers",
    "name": "Charles Town Junior High School",
    "primary_color": "Purple",
    "secondary_color": "White",
    "state": "WV",
    "timezone": "America/New_York",
    "updated_at": "2012-07-08T01:56:06Z",
    "zip": "25414"
  },
  {
    "address": "850 Independence Rd",
    "city": "Coal City",
    "county": "Raleigh County",
    "created_at": "2012-01-04T20:18:23Z",
    "id": 26744,
    "latitude": "37.670287",
    "longitude": "-81.206233",
    "mascot": "Patriots",
    "name": "Independence Drive High School",
    "primary_color": "Red",
    "secondary_color": "White",
    "state": "WV",
    "timezone": "America/New_York",
    "updated_at": "2012-07-08T01:56:07Z",
    "zip": "25823"
  },
  {
    "address": "HCR 65 Box 275",
    "city": "Oceana",
    "county": "Wyoming County",
    "created_at": "2012-01-04T20:18:23Z",
    "id": 26745,
    "latitude": "37.704833",
    "longitude": "-81.618324",
    "mascot": "Indians",
    "name": "Oceana High School",
    "primary_color": "Gray",
    "secondary_color": "Red",
    "state": "WV",
    "timezone": "America/New_York",
    "updated_at": "2012-07-08T01:56:07Z",
    "zip": "24870"
  },
  {
    "address": "1318 N 16th St",
    "city": "Clarksburg",
    "county": "Harrison County",
    "created_at": "2012-01-04T20:18:23Z",
    "id": 26746,
    "latitude": "39.292563",
    "longitude": "-80.346076",
    "mascot": "Eagles",
    "name": "Emmanuel Christian School",
    "primary_color": "Kelly Green",
    "secondary_color": "White",
    "state": "WV",
    "timezone": "America/New_York",
    "updated_at": "2012-07-08T01:56:08Z",
    "zip": "26301"
  },
  {
    "address": "127 E Pike St",
    "city": "Clarksburg",
    "county": "Harrison County",
    "created_at": "2012-01-04T20:18:23Z",
    "id": 26747,
    "latitude": "39.279663",
    "longitude": "-80.333518",
    "mascot": "Leprechauns",
    "name": "Notre Dame High School",
    "primary_color": "Gold",
    "secondary_color": "Kelly Green",
    "state": "WV",
    "timezone": "America/New_York",
    "updated_at": "2012-07-08T01:56:08Z",
    "zip": "26301"
  },
  {
    "address": "1820 Washington St",
    "city": "Harpers Ferry",
    "county": "Jefferson County",
    "created_at": "2012-01-04T20:18:23Z",
    "id": 26748,
    "latitude": "39.321560",
    "longitude": "-77.757039",
    "mascot": "Tigers",
    "name": "Harpers Ferry Middle School",
    "primary_color": "Royal",
    "secondary_color": "White",
    "state": "WV",
    "timezone": "America/New_York",
    "updated_at": "2012-07-08T01:56:08Z",
    "zip": "25425"
  },
  {
    "address": "Rt 219 N",
    "city": "Renick",
    "county": "Greenbrier County",
    "created_at": "2012-01-04T20:18:23Z",
    "id": 26749,
    "latitude": "37.994696",
    "longitude": "-80.362198",
    "mascot": "Tigers",
    "name": "Renick Junior High School",
    "primary_color": "Gold",
    "secondary_color": "Royal",
    "state": "WV",
    "timezone": "America/New_York",
    "updated_at": "2012-07-08T01:56:09Z",
    "zip": "24966"
  },
  {
    "address": "Rt 2 Box 52-1A",
    "city": "Delbarton",
    "county": "Mingo County",
    "created_at": "2012-01-04T20:18:23Z",
    "id": 26750,
    "latitude": "37.673254",
    "longitude": "-82.113074",
    "mascot": "Bulldogs",
    "name": "Burch High School",
    "primary_color": "Royal",
    "secondary_color": "White",
    "state": "WV",
    "timezone": "America/New_York",
    "updated_at": "2012-07-08T01:56:15Z",
    "zip": "25670"
  },
  {
    "address": "HC 74 Box 11A Bobcat Dr",
    "city": "Hinton",
    "county": "Summers County",
    "created_at": "2012-01-04T20:18:23Z",
    "id": 26751,
    "latitude": "37.670862",
    "longitude": "-80.759143",
    "mascot": "Bobcats",
    "name": "Summers County High School",
    "primary_color": "Orange",
    "secondary_color": "Black",
    "state": "WV",
    "timezone": "America/New_York",
    "updated_at": "2012-07-08T01:56:15Z",
    "zip": "25951"
  },
  {
    "address": "300 Pine St",
    "city": "Glenville",
    "county": "Gilmer County",
    "created_at": "2012-01-04T20:18:23Z",
    "id": 26752,
    "latitude": "38.938886",
    "longitude": "-80.831764",
    "mascot": "Titans",
    "name": "Gilmer County High School",
    "primary_color": "Royal",
    "secondary_color": "White",
    "state": "WV",
    "timezone": "America/New_York",
    "updated_at": "2012-07-08T01:56:16Z",
    "zip": "26351"
  },
  {
    "address": "314 A Oakvale Rd",
    "city": "Princeton",
    "county": "Mercer County",
    "created_at": "2012-01-04T20:18:23Z",
    "id": 26753,
    "latitude": "37.364829",
    "longitude": "-81.067671",
    "mascot": "Cavaliers",
    "name": "Mercer Christian Academy",
    "primary_color": "Royal",
    "secondary_color": "White",
    "state": "WV",
    "timezone": "America/New_York",
    "updated_at": "2012-07-08T01:56:16Z",
    "zip": "24740"
  },
  {
    "address": "HC 89 Box 118",
    "city": "Mount Zion",
    "county": "Calhoun County",
    "created_at": "2012-01-04T20:18:23Z",
    "id": 26754,
    "latitude": "38.859010",
    "longitude": "-81.124229",
    "mascot": "Devils",
    "name": "Calhoun Middle High School",
    "primary_color": "Red",
    "secondary_color": "White",
    "state": "WV",
    "timezone": "America/New_York",
    "updated_at": "2012-07-08T01:56:16Z",
    "zip": "26151"
  },
  {
    "address": "1993 Silver Knight Dr",
    "city": "Sistersville",
    "county": "Tyler County",
    "created_at": "2012-01-04T20:18:23Z",
    "id": 26755,
    "latitude": "39.554458",
    "longitude": "-80.986371",
    "mascot": "Knights",
    "name": "Tyler Consolidated High & Middle School",
    "primary_color": "Black",
    "secondary_color": "Gray",
    "state": "WV",
    "timezone": "America/New_York",
    "updated_at": "2012-07-08T01:56:17Z",
    "zip": "26175"
  },
  {
    "address": "2247 Williamsport Pike",
    "city": "Martinsburg",
    "county": "Berkeley County",
    "created_at": "2012-01-04T20:18:23Z",
    "id": 26756,
    "latitude": "39.502964",
    "longitude": "-77.937532",
    "mascot": "Warriors",
    "name": "Martinsburg Christian Academy",
    "primary_color": "Kelly Green",
    "secondary_color": "White",
    "state": "WV",
    "timezone": "America/New_York",
    "updated_at": "2012-07-08T01:56:17Z",
    "zip": "25401"
  },
  {
    "address": "1 Bulldog Blvd",
    "city": "Van",
    "county": "Boone County",
    "created_at": "2012-01-04T20:18:23Z",
    "id": 26757,
    "latitude": "37.970966",
    "longitude": "-81.711697",
    "mascot": "Bulldogs",
    "name": "Van High School",
    "primary_color": "Gold",
    "secondary_color": "Royal",
    "state": "WV",
    "timezone": "America/New_York",
    "updated_at": "2012-07-08T01:56:17Z",
    "zip": "25206"
  },
  {
    "address": "950 Mountview Rd",
    "city": "Welch",
    "county": "McDowell County",
    "created_at": "2012-01-04T20:18:23Z",
    "id": 26758,
    "latitude": "37.409432",
    "longitude": "-81.531021",
    "mascot": null,
    "name": "Mountview Middle High School",
    "primary_color": "Maroon",
    "secondary_color": "White",
    "state": "WV",
    "timezone": "America/New_York",
    "updated_at": "2012-07-08T01:56:18Z",
    "zip": "24801"
  },
  {
    "address": "Rt 4 Box 268A",
    "city": "Philippi",
    "county": "Barbour County",
    "created_at": "2012-01-04T20:18:23Z",
    "id": 26759,
    "latitude": "39.161400",
    "longitude": "-80.043209",
    "mascot": "Colts",
    "name": "Philip Barbour High School",
    "primary_color": "Columbia Blue",
    "secondary_color": "White",
    "state": "WV",
    "timezone": "America/New_York",
    "updated_at": "2012-07-08T01:56:19Z",
    "zip": "26416"
  },
  {
    "address": "701 S Queens St",
    "city": "Martinsburg",
    "county": "Berkeley County",
    "created_at": "2012-01-04T20:18:23Z",
    "id": 26760,
    "latitude": "39.448849",
    "longitude": "-77.966288",
    "mascot": "Bulldogs",
    "name": "Martinsburg High School",
    "primary_color": "Orange",
    "secondary_color": "Black",
    "state": "WV",
    "timezone": "America/New_York",
    "updated_at": "2012-07-08T01:56:19Z",
    "zip": "25401"
  },
  {
    "address": "126 Excellence Way",
    "city": "Inwood",
    "county": "Berkeley County",
    "created_at": "2012-01-04T20:18:23Z",
    "id": 26761,
    "latitude": "39.352480",
    "longitude": "-78.042902",
    "mascot": "Applemen",
    "name": "Musselman High School",
    "primary_color": "Kelly Green",
    "secondary_color": "White",
    "state": "WV",
    "timezone": "America/New_York",
    "updated_at": "2012-07-08T01:56:20Z",
    "zip": "25428"
  },
  {
    "address": "1 Skyhawk Pl",
    "city": "Madison",
    "county": "Boone County",
    "created_at": "2012-01-04T20:18:23Z",
    "id": 26762,
    "latitude": "38.073148",
    "longitude": "-81.829226",
    "mascot": "Skyhawks",
    "name": "Scott High School",
    "primary_color": "Gold",
    "secondary_color": "Black",
    "state": "WV",
    "timezone": "America/New_York",
    "updated_at": "2012-07-08T01:56:20Z",
    "zip": "25130"
  },
  {
    "address": "207 Jefferson Ave",
    "city": "Petersburg",
    "county": "Grant County",
    "created_at": "2012-01-04T20:18:23Z",
    "id": 26763,
    "latitude": "38.998325",
    "longitude": "-79.122681",
    "mascot": "Vikings",
    "name": "Petersburg High School",
    "primary_color": "Red",
    "secondary_color": "Black",
    "state": "WV",
    "timezone": "America/New_York",
    "updated_at": "2012-07-08T01:56:21Z",
    "zip": "26847"
  },
  {
    "address": "Rt 1 Box 58",
    "city": "Lost Creek",
    "county": "Harrison County",
    "created_at": "2012-01-04T20:18:23Z",
    "id": 26764,
    "latitude": "39.160335",
    "longitude": "-80.350754",
    "mascot": "Hawks",
    "name": "South Harrison High School",
    "primary_color": "Orange",
    "secondary_color": "Black",
    "state": "WV",
    "timezone": "America/New_York",
    "updated_at": "2012-07-08T01:56:21Z",
    "zip": "26385"
  },
  {
    "address": "1 Mountaineer Rd",
    "city": "Clarksburg",
    "county": "Harrison County",
    "created_at": "2012-01-04T20:18:23Z",
    "id": 26765,
    "latitude": "39.276565",
    "longitude": "-80.399395",
    "mascot": "Mountaineers",
    "name": "Liberty High School",
    "primary_color": "Royal",
    "secondary_color": "White",
    "state": "WV",
    "timezone": "America/New_York",
    "updated_at": "2012-07-08T01:56:22Z",
    "zip": "26301"
  },
  {
    "address": "100 Plaza Dr",
    "city": "Ravenswood",
    "county": "Jackson County",
    "created_at": "2012-01-04T20:18:23Z",
    "id": 26766,
    "latitude": "38.951400",
    "longitude": "-81.762272",
    "mascot": "Red Devils",
    "name": "Ravenswood High School",
    "primary_color": "Red",
    "secondary_color": "Black",
    "state": "WV",
    "timezone": "America/New_York",
    "updated_at": "2012-07-08T01:56:22Z",
    "zip": "26164"
  },
  {
    "address": "6100 Sissonville Dr",
    "city": "Charleston",
    "county": "Kanawha County",
    "created_at": "2012-01-04T20:18:23Z",
    "id": 26767,
    "latitude": "38.473339",
    "longitude": "-81.671140",
    "mascot": "Indians",
    "name": "Sissonville High School",
    "primary_color": "Red",
    "secondary_color": "Black",
    "state": "WV",
    "timezone": "America/New_York",
    "updated_at": "2012-07-08T01:56:23Z",
    "zip": "25312"
  },
  {
    "address": "1 Wildcat Way",
    "city": "Logan",
    "county": "Logan County",
    "created_at": "2012-01-04T20:18:23Z",
    "id": 26768,
    "latitude": "37.838726",
    "longitude": "-82.004093",
    "mascot": "Wildcats",
    "name": "Logan Senior High School",
    "primary_color": "Gold",
    "secondary_color": "Navy",
    "state": "WV",
    "timezone": "America/New_York",
    "updated_at": "2012-07-08T01:56:24Z",
    "zip": "25601"
  },
  {
    "address": "800 E McDonald Ave",
    "city": "Man",
    "county": "Logan County",
    "created_at": "2012-01-04T20:18:23Z",
    "id": 26769,
    "latitude": "37.734020",
    "longitude": "-81.875040",
    "mascot": "Billy Goats",
    "name": "Man Senior High School",
    "primary_color": "Navy",
    "secondary_color": "White",
    "state": "WV",
    "timezone": "America/New_York",
    "updated_at": "2012-07-08T01:56:24Z",
    "zip": "25635"
  },
  {
    "address": "Loop Park Dr",
    "city": "Fairmont",
    "county": "Marion County",
    "created_at": "2012-01-04T20:18:23Z",
    "id": 26770,
    "latitude": "39.481610",
    "longitude": "-80.147154",
    "mascot": "Polar Bears",
    "name": "Fairmont Senior High School",
    "primary_color": "Royal",
    "secondary_color": "White",
    "state": "WV",
    "timezone": "America/New_York",
    "updated_at": "2012-07-08T01:56:25Z",
    "zip": "26554"
  },
  {
    "address": "1 N Marion Dr",
    "city": "Farmington",
    "county": "Marion County",
    "created_at": "2012-01-04T20:18:23Z",
    "id": 26771,
    "latitude": "39.511383",
    "longitude": "-80.257626",
    "mascot": "Huskies",
    "name": "North Marion High School",
    "primary_color": "Black",
    "secondary_color": "Gray",
    "state": "WV",
    "timezone": "America/New_York",
    "updated_at": "2012-07-08T01:56:25Z",
    "zip": "26571"
  },
  {
    "address": "RR 1 Box 4",
    "city": "Point Pleasant",
    "county": "Mason County",
    "created_at": "2012-01-04T20:18:23Z",
    "id": 26772,
    "latitude": "38.863346",
    "longitude": "-82.113013",
    "mascot": "Black Knights",
    "name": "Point Pleasant Senior High School",
    "primary_color": "Red",
    "secondary_color": "Black",
    "state": "WV",
    "timezone": "America/New_York",
    "updated_at": "2012-07-08T01:56:26Z",
    "zip": "25550"
  },
  {
    "address": "535 W Cumberland Rd",
    "city": "Bluefield",
    "county": "Mercer County",
    "created_at": "2012-01-04T20:18:23Z",
    "id": 26773,
    "latitude": "37.249625",
    "longitude": "-81.217555",
    "mascot": "Beavers",
    "name": "Bluefield Senior High School",
    "primary_color": "Maroon",
    "secondary_color": "White",
    "state": "WV",
    "timezone": "America/New_York",
    "updated_at": "2012-07-08T01:56:27Z",
    "zip": "24701"
  },
  {
    "address": "1321 Stafford Dr",
    "city": "Princeton",
    "county": "Mercer County",
    "created_at": "2012-01-04T20:18:23Z",
    "id": 26774,
    "latitude": "37.360667",
    "longitude": "-81.099866",
    "mascot": "Tigers",
    "name": "Princeton Senior High School",
    "primary_color": "White",
    "secondary_color": "Royal",
    "state": "WV",
    "timezone": "America/New_York",
    "updated_at": "2012-07-08T01:56:27Z",
    "zip": "24740"
  },
  {
    "address": "109 Wilson Ave",
    "city": "Morgantown",
    "county": "Monongalia County",
    "created_at": "2012-01-04T20:18:23Z",
    "id": 26775,
    "latitude": "39.623762",
    "longitude": "-79.956749",
    "mascot": "Mohegans",
    "name": "Morgantown High School",
    "primary_color": "Red",
    "secondary_color": "Royal",
    "state": "WV",
    "timezone": "America/New_York",
    "updated_at": "2012-07-08T01:56:27Z",
    "zip": "26505"
  },
  {
    "address": "149 Concord Ave",
    "city": "Berkeley Springs",
    "county": "Morgan County",
    "created_at": "2012-01-04T20:18:23Z",
    "id": 26776,
    "latitude": "39.618320",
    "longitude": "-78.232874",
    "mascot": "Indians",
    "name": "Berkeley Springs High School",
    "primary_color": "Royal",
    "secondary_color": "Gold",
    "state": "WV",
    "timezone": "America/New_York",
    "updated_at": "2012-07-08T01:56:28Z",
    "zip": "25411"
  },
  {
    "address": "1 Valley Ave",
    "city": "Richwood",
    "county": "Nicholas County",
    "created_at": "2012-01-04T20:18:23Z",
    "id": 26777,
    "latitude": "38.222957",
    "longitude": "-80.531429",
    "mascot": "Lumberjacks",
    "name": "Richwood High School",
    "primary_color": "Orange",
    "secondary_color": "Black",
    "state": "WV",
    "timezone": "America/New_York",
    "updated_at": "2012-07-08T01:56:28Z",
    "zip": "26261"
  },
  {
    "address": "Rt 1 Box 133A",
    "city": "Dunmore",
    "county": "Pocahontas County",
    "created_at": "2012-01-04T20:18:23Z",
    "id": 26778,
    "latitude": "38.330501",
    "longitude": "-79.909605",
    "mascot": "Warriors",
    "name": "Pocahontas County High School",
    "primary_color": "Maroon",
    "secondary_color": "Gold",
    "state": "WV",
    "timezone": "America/New_York",
    "updated_at": "2012-07-08T01:56:28Z",
    "zip": "24934"
  },
  {
    "address": "1700 Coal River Rd",
    "city": "Glen Daniel",
    "county": "Raleigh County",
    "created_at": "2012-01-04T20:18:23Z",
    "id": 26779,
    "latitude": "37.815022",
    "longitude": "-81.356359",
    "mascot": "Raiders",
    "name": "Liberty High School",
    "primary_color": "Black",
    "secondary_color": "Red",
    "state": "WV",
    "timezone": "America/New_York",
    "updated_at": "2012-07-08T01:56:28Z",
    "zip": "25844"
  },
  {
    "address": "200 Kennedy Dr",
    "city": "Elkins",
    "county": "Randolph County",
    "created_at": "2012-01-04T20:18:23Z",
    "id": 26780,
    "latitude": "38.943119",
    "longitude": "-79.851802",
    "mascot": null,
    "name": "Randolph County Vocational Technical",
    "primary_color": "Orange",
    "secondary_color": "Black",
    "state": "WV",
    "timezone": "America/New_York",
    "updated_at": "2012-07-08T01:56:29Z",
    "zip": "26241"
  },
  {
    "address": "100 Pioneer Rd",
    "city": "Wayne",
    "county": "Wayne County",
    "created_at": "2012-01-04T20:18:23Z",
    "id": 26781,
    "latitude": "38.247511",
    "longitude": "-82.433505",
    "mascot": "Pioneers",
    "name": "Wayne High School",
    "primary_color": "Red",
    "secondary_color": "Black",
    "state": "WV",
    "timezone": "America/New_York",
    "updated_at": "2012-07-08T01:56:29Z",
    "zip": "25570"
  },
  {
    "address": "601 Maple Ave",
    "city": "New Martinsville",
    "county": "Wetzel County",
    "created_at": "2012-01-04T20:18:23Z",
    "id": 26782,
    "latitude": "39.646379",
    "longitude": "-80.861408",
    "mascot": "Blue Eagles",
    "name": "Magnolia High School",
    "primary_color": "Gold",
    "secondary_color": "Navy",
    "state": "WV",
    "timezone": "America/New_York",
    "updated_at": "2012-07-08T01:56:30Z",
    "zip": "26155"
  },
  {
    "address": "2101 Dudley Ave",
    "city": "Parkersburg",
    "county": "Wood County",
    "created_at": "2012-01-04T20:18:23Z",
    "id": 26783,
    "latitude": "39.277113",
    "longitude": "-81.542937",
    "mascot": "Big Reds",
    "name": "Parkersburg Senior High School",
    "primary_color": "Red",
    "secondary_color": "White",
    "state": "WV",
    "timezone": "America/New_York",
    "updated_at": "2012-07-08T01:56:30Z",
    "zip": "26101"
  },
  {
    "address": "1511 Blizzard Dr",
    "city": "Parkersburg",
    "county": "Wood County",
    "created_at": "2012-01-04T20:18:23Z",
    "id": 26784,
    "latitude": "39.243400",
    "longitude": "-81.551122",
    "mascot": "Patriots",
    "name": "Parkersburg South High School",
    "primary_color": "Navy",
    "secondary_color": "White",
    "state": "WV",
    "timezone": "America/New_York",
    "updated_at": "2012-07-08T01:56:30Z",
    "zip": "26101"
  },
  {
    "address": "219 W 5th St",
    "city": "Williamstown",
    "county": "Wood County",
    "created_at": "2012-01-04T20:18:23Z",
    "id": 26785,
    "latitude": "39.400710",
    "longitude": "-81.451884",
    "mascot": "Yellow Jackets",
    "name": "Williamstown High School",
    "primary_color": "Gold",
    "secondary_color": "Maroon",
    "state": "WV",
    "timezone": "America/New_York",
    "updated_at": "2012-07-08T01:56:31Z",
    "zip": "26187"
  },
  {
    "address": "555 Panther Dr",
    "city": "Williamson",
    "county": "Mingo County",
    "created_at": "2012-01-04T20:18:23Z",
    "id": 26786,
    "latitude": "37.695134",
    "longitude": "-82.267434",
    "mascot": "Panthers",
    "name": "Tug Valley High School",
    "primary_color": "Gray",
    "secondary_color": "Black",
    "state": "WV",
    "timezone": "America/New_York",
    "updated_at": "2012-07-08T01:56:31Z",
    "zip": "25661"
  },
  {
    "address": "1093 Core Rd",
    "city": "Parkersburg",
    "county": "Wood County",
    "created_at": "2012-01-04T20:18:23Z",
    "id": 26787,
    "latitude": "39.274670",
    "longitude": "-81.497822",
    "mascot": "Knights",
    "name": "Parkersburg Christian School",
    "primary_color": "Red",
    "secondary_color": "Black",
    "state": "WV",
    "timezone": "America/New_York",
    "updated_at": "2012-07-08T01:56:32Z",
    "zip": "26104"
  },
  {
    "address": "Rt 1 Box 209",
    "city": "Aurora",
    "county": "Preston County",
    "created_at": "2012-01-04T20:18:23Z",
    "id": 26788,
    "latitude": "39.321622",
    "longitude": "-79.559211",
    "mascot": "Bears",
    "name": "Aurora School",
    "primary_color": "Red",
    "secondary_color": "White",
    "state": "WV",
    "timezone": "America/New_York",
    "updated_at": "2012-07-08T01:56:33Z",
    "zip": "26705"
  },
  {
    "address": "259 Cougar Dr",
    "city": "Baker",
    "county": "Hardy County",
    "created_at": "2012-01-04T20:18:23Z",
    "id": 26789,
    "latitude": "39.047698",
    "longitude": "-78.759822",
    "mascot": "Cougars",
    "name": "East Hardy High School",
    "primary_color": "Yellow",
    "secondary_color": "Kelly Green",
    "state": "WV",
    "timezone": "America/New_York",
    "updated_at": "2012-07-08T01:56:33Z",
    "zip": "26801"
  },
  {
    "address": "300 Elwood St",
    "city": "Ravenswood",
    "county": "Jackson County",
    "created_at": "2012-01-04T20:18:23Z",
    "id": 26790,
    "latitude": "38.957803",
    "longitude": "-81.769813",
    "mascot": "Saints",
    "name": "Heritage Christian Academy",
    "primary_color": "Red",
    "secondary_color": "White",
    "state": "WV",
    "timezone": "America/New_York",
    "updated_at": "2012-07-08T01:56:33Z",
    "zip": "26164"
  },
  {
    "address": "Rt 20 & Broadway",
    "city": "Pipestem",
    "county": "Summers County",
    "created_at": "2012-01-04T20:18:23Z",
    "id": 26791,
    "latitude": "37.514105",
    "longitude": "-80.967844",
    "mascot": "Panthers",
    "name": "Pipestem Christian Academy",
    "primary_color": "Red",
    "secondary_color": "Navy",
    "state": "WV",
    "timezone": "America/New_York",
    "updated_at": "2012-07-08T01:56:34Z",
    "zip": "25979"
  },
  {
    "address": "Beth Haven Ln",
    "city": "Chauncey",
    "county": "Logan County",
    "created_at": "2012-01-04T20:18:23Z",
    "id": 26792,
    "latitude": "37.767465",
    "longitude": "-81.988836",
    "mascot": "Hornets",
    "name": "Beth Haven Christian School",
    "primary_color": "Red",
    "secondary_color": "White",
    "state": "WV",
    "timezone": "America/New_York",
    "updated_at": "2012-07-08T01:56:34Z",
    "zip": "25612"
  },
  {
    "address": "140 Crusader Dr",
    "city": "Prosperity",
    "county": "Raleigh County",
    "created_at": "2012-01-04T20:18:23Z",
    "id": 26793,
    "latitude": "37.838350",
    "longitude": "-81.192609",
    "mascot": "Crusaders",
    "name": "Greater Beckley Christian School",
    "primary_color": "Red",
    "secondary_color": "White",
    "state": "WV",
    "timezone": "America/New_York",
    "updated_at": "2012-07-08T01:56:34Z",
    "zip": "25909"
  },
  {
    "address": "1948 Martin Ln",
    "city": "Culloden",
    "county": "Cabell County",
    "created_at": "2012-01-04T20:18:23Z",
    "id": 26794,
    "latitude": "38.414891",
    "longitude": "-82.072387",
    "mascot": "Panthers",
    "name": "Mountain State Christian School",
    "primary_color": "Kelly Green",
    "secondary_color": "White",
    "state": "WV",
    "timezone": "America/New_York",
    "updated_at": "2012-07-08T01:56:34Z",
    "zip": "25510"
  },
  {
    "address": "689 Fair Haven Dr",
    "city": "Charleston",
    "county": "Kanawha County",
    "created_at": "2012-01-04T20:18:23Z",
    "id": 26795,
    "latitude": "38.323184",
    "longitude": "-81.507721",
    "mascot": "Comets",
    "name": "Fair Haven Christian School",
    "primary_color": "Red",
    "secondary_color": "White",
    "state": "WV",
    "timezone": "America/New_York",
    "updated_at": "2012-07-08T01:56:35Z",
    "zip": "25306"
  },
  {
    "address": "Craig Rd",
    "city": "Rainelle",
    "county": "Greenbrier County",
    "created_at": "2012-01-04T20:18:23Z",
    "id": 26796,
    "latitude": "37.937415",
    "longitude": "-80.733415",
    "mascot": "Eagles",
    "name": "Rainelle Christian Academy",
    "primary_color": "Gold",
    "secondary_color": "Hunter Green",
    "state": "WV",
    "timezone": "America/New_York",
    "updated_at": "2012-07-08T01:56:35Z",
    "zip": "25962"
  },
  {
    "address": "Rt 2 Box 269",
    "city": "Ronceverte",
    "county": "Greenbrier County",
    "created_at": "2012-01-04T20:18:23Z",
    "id": 26797,
    "latitude": "37.754335",
    "longitude": "-80.451594",
    "mascot": "Trailblazers",
    "name": "Seneca Trail Christian Academy",
    "primary_color": "Gold",
    "secondary_color": "Royal",
    "state": "WV",
    "timezone": "America/New_York",
    "updated_at": "2012-07-08T01:56:35Z",
    "zip": "24970"
  },
  {
    "address": "100 Naomi St",
    "city": "Fairmont",
    "county": "Marion County",
    "created_at": "2012-01-04T20:18:24Z",
    "id": 26798,
    "latitude": "39.500731",
    "longitude": "-80.135935",
    "mascot": "Tigers",
    "name": "Barnes Alternative Learning Center",
    "primary_color": "Orange",
    "secondary_color": "Black",
    "state": "WV",
    "timezone": "America/New_York",
    "updated_at": "2012-07-08T01:56:36Z",
    "zip": "26554"
  },
  {
    "address": "Rt 1 Box 155-1",
    "city": "Elkins",
    "county": "Randolph County",
    "created_at": "2012-01-04T20:18:24Z",
    "id": 26799,
    "latitude": "38.969092",
    "longitude": "-79.864145",
    "mascot": "Eagles",
    "name": "Hart Chapel Christian Academy",
    "primary_color": "Gold",
    "secondary_color": "Navy",
    "state": "WV",
    "timezone": "America/New_York",
    "updated_at": "2012-07-08T01:56:36Z",
    "zip": "26241"
  },
  {
    "address": "6770 Ashton Upland Rd",
    "city": "Ashton",
    "county": "Mason County",
    "created_at": "2012-01-04T20:18:24Z",
    "id": 26800,
    "latitude": "38.568239",
    "longitude": "-82.072430",
    "mascot": "Wildcats",
    "name": "Hannan High School",
    "primary_color": "Royal",
    "secondary_color": "White",
    "state": "WV",
    "timezone": "America/New_York",
    "updated_at": "2012-07-08T01:56:36Z",
    "zip": "25503"
  },
  {
    "address": "Old Rt 460",
    "city": "Oakvale",
    "county": "Mercer County",
    "created_at": "2012-01-04T20:18:24Z",
    "id": 26801,
    "latitude": "37.336675",
    "longitude": "-80.954439",
    "mascot": "Owls",
    "name": "Oakvale School",
    "primary_color": "Kelly Green",
    "secondary_color": "White",
    "state": "WV",
    "timezone": "America/New_York",
    "updated_at": "2012-07-08T01:56:36Z",
    "zip": "24739"
  },
  {
    "address": "2100 Kanawha Terr",
    "city": "Saint Albans",
    "county": "Kanawha County",
    "created_at": "2012-01-04T20:18:24Z",
    "id": 26802,
    "latitude": "38.377969",
    "longitude": "-81.812069",
    "mascot": "Dragons",
    "name": "Saint Albans High School",
    "primary_color": "Red",
    "secondary_color": "Black",
    "state": "WV",
    "timezone": "America/New_York",
    "updated_at": "2012-07-08T01:56:37Z",
    "zip": "25177"
  },
  {
    "address": "1 Eagle Way",
    "city": "South Charleston",
    "county": "Kanawha County",
    "created_at": "2012-01-04T20:18:24Z",
    "id": 26803,
    "latitude": "38.349658",
    "longitude": "-81.730723",
    "mascot": "Black Eagles",
    "name": "South Charleston High School",
    "primary_color": "Orange",
    "secondary_color": "Black",
    "state": "WV",
    "timezone": "America/New_York",
    "updated_at": "2012-07-08T01:56:37Z",
    "zip": "25309"
  },
  {
    "address": "61 Maple Ave",
    "city": "Cameron",
    "county": "Marshall County",
    "created_at": "2012-01-04T20:18:24Z",
    "id": 26804,
    "latitude": "39.822586",
    "longitude": "-80.559422",
    "mascot": "Dragons",
    "name": "Cameron High School",
    "primary_color": "Gold",
    "secondary_color": "Navy",
    "state": "WV",
    "timezone": "America/New_York",
    "updated_at": "2012-07-08T01:56:37Z",
    "zip": "26033"
  },
  {
    "address": "Stadium Dr",
    "city": "Welch",
    "county": "McDowell County",
    "created_at": "2012-01-04T20:18:24Z",
    "id": 26805,
    "latitude": "37.415110",
    "longitude": "-81.593799",
    "mascot": null,
    "name": "McDowell County Vocational Center",
    "primary_color": "Royal",
    "secondary_color": "White",
    "state": "WV",
    "timezone": "America/New_York",
    "updated_at": "2012-07-08T01:56:37Z",
    "zip": "24801"
  },
  {
    "address": "899 Broad St",
    "city": "Summersville",
    "county": "Nicholas County",
    "created_at": "2012-01-04T20:18:24Z",
    "id": 26806,
    "latitude": "38.274467",
    "longitude": "-80.847827",
    "mascot": "Lions",
    "name": "New Life Christian Academy",
    "primary_color": "Maroon",
    "secondary_color": "White",
    "state": "WV",
    "timezone": "America/New_York",
    "updated_at": "2012-07-08T01:56:38Z",
    "zip": "26651"
  },
  {
    "address": "600 13th St",
    "city": "Huntington",
    "county": "Cabell County",
    "created_at": "2012-01-04T20:18:24Z",
    "id": 26807,
    "latitude": "38.419104",
    "longitude": "-82.436064",
    "mascot": "Fighting Irish",
    "name": "Saint Joseph Catholic School",
    "primary_color": "Gold",
    "secondary_color": "Royal",
    "state": "WV",
    "timezone": "America/New_York",
    "updated_at": "2012-07-08T01:56:38Z",
    "zip": "25701"
  },
  {
    "address": "150 Michael Way",
    "city": "Weirton",
    "county": "Hancock County",
    "created_at": "2012-01-04T20:18:24Z",
    "id": 26808,
    "latitude": "40.409956",
    "longitude": "-80.551350",
    "mascot": "Blue Dons",
    "name": "Weirton Madonna High School",
    "primary_color": "Gray",
    "secondary_color": "Navy",
    "state": "WV",
    "timezone": "America/New_York",
    "updated_at": "2012-07-08T01:56:38Z",
    "zip": "26062"
  },
  {
    "address": "1033 Virginia St E",
    "city": "Charleston",
    "county": "Kanawha County",
    "created_at": "2012-01-04T20:18:24Z",
    "id": 26809,
    "latitude": "38.347284",
    "longitude": "-81.633475",
    "mascot": "Fighting Irish",
    "name": "Charleston Catholic High School",
    "primary_color": "Kelly Green",
    "secondary_color": "White",
    "state": "WV",
    "timezone": "America/New_York",
    "updated_at": "2012-07-08T01:56:38Z",
    "zip": "25301"
  },
  {
    "address": "325 Logan St",
    "city": "McMechen",
    "county": "Marshall County",
    "created_at": "2012-01-04T20:18:24Z",
    "id": 26810,
    "latitude": "39.992969",
    "longitude": "-80.730463",
    "mascot": "Bishops",
    "name": "Bishop Donahue High School",
    "primary_color": "Gold",
    "secondary_color": "Kelly Green",
    "state": "WV",
    "timezone": "America/New_York",
    "updated_at": "2012-07-08T01:56:39Z",
    "zip": "26040"
  },
  {
    "address": "410 Washington Ave",
    "city": "Wheeling",
    "county": "Ohio County",
    "created_at": "2012-01-04T20:18:24Z",
    "id": 26811,
    "latitude": "40.067690",
    "longitude": "-80.690640",
    "mascot": "Lions",
    "name": "Mount De Chantal Visitation Academy",
    "primary_color": "Hunter Green",
    "secondary_color": "White",
    "state": "WV",
    "timezone": "America/New_York",
    "updated_at": "2012-07-08T01:56:39Z",
    "zip": "26003"
  },
  {
    "address": "75 14th St",
    "city": "Wheeling",
    "county": "Ohio County",
    "created_at": "2012-01-04T20:18:24Z",
    "id": 26812,
    "latitude": "40.065963",
    "longitude": "-80.719313",
    "mascot": "Maroon Knights",
    "name": "Central Catholic High School",
    "primary_color": "Maroon",
    "secondary_color": "White",
    "state": "WV",
    "timezone": "America/New_York",
    "updated_at": "2012-07-08T01:56:39Z",
    "zip": "26003"
  },
  {
    "address": "3201 Fairview Ave",
    "city": "Parkersburg",
    "county": "Wood County",
    "created_at": "2012-01-04T20:18:24Z",
    "id": 26813,
    "latitude": "39.282483",
    "longitude": "-81.522280",
    "mascot": "Crusaders",
    "name": "Parkersburg Catholic High School",
    "primary_color": "Columbia Blue",
    "secondary_color": "White",
    "state": "WV",
    "timezone": "America/New_York",
    "updated_at": "2012-07-08T01:56:40Z",
    "zip": "26104"
  },
  {
    "address": "301 E Main St",
    "city": "Romney",
    "county": "Hampshire County",
    "created_at": "2012-01-04T20:18:24Z",
    "id": 26814,
    "latitude": "39.340478",
    "longitude": "-78.752766",
    "mascot": "Lions And Raiders",
    "name": "West Virginia Schools For Deaf And Blind",
    "primary_color": "Royal",
    "secondary_color": "Gold",
    "state": "WV",
    "timezone": "America/New_York",
    "updated_at": "2012-07-08T01:56:40Z",
    "zip": "26757"
  },
  {
    "address": "804 Main St",
    "city": "Point Pleasant",
    "county": "Mason County",
    "created_at": "2012-01-04T20:18:24Z",
    "id": 26815,
    "latitude": "38.846768",
    "longitude": "-82.137717",
    "mascot": "Eagles",
    "name": "Christ Academy",
    "primary_color": "Red",
    "secondary_color": "White",
    "state": "WV",
    "timezone": "America/New_York",
    "updated_at": "2012-07-08T01:56:40Z",
    "zip": "25550"
  },
  {
    "address": "138 Greensburg Rd",
    "city": "Martinsburg",
    "county": "Berkeley County",
    "created_at": "2012-01-04T20:18:24Z",
    "id": 26816,
    "latitude": "39.459060",
    "longitude": "-77.902392",
    "mascot": "Falcons",
    "name": "Faith Christian Academy",
    "primary_color": "Gold",
    "secondary_color": "Royal",
    "state": "WV",
    "timezone": "America/New_York",
    "updated_at": "2012-07-08T01:56:41Z",
    "zip": "25401"
  },
  {
    "address": "1111 Adams Ave",
    "city": "Huntington",
    "county": "Cabell County",
    "created_at": "2012-01-04T20:18:24Z",
    "id": 26817,
    "latitude": "38.413004",
    "longitude": "-82.475574",
    "mascot": "Soldiers",
    "name": "Grace Christian School",
    "primary_color": "Gold",
    "secondary_color": "Royal",
    "state": "WV",
    "timezone": "America/New_York",
    "updated_at": "2012-07-08T01:56:41Z",
    "zip": "25704"
  },
  {
    "address": "106 Mendenhall St",
    "city": "Weirton",
    "county": "Brooke County",
    "created_at": "2012-01-04T20:18:24Z",
    "id": 26818,
    "latitude": "40.398033",
    "longitude": "-80.568540",
    "mascot": null,
    "name": "Weirton Christian Academy",
    "primary_color": "Royal",
    "secondary_color": "White",
    "state": "WV",
    "timezone": "America/New_York",
    "updated_at": "2012-07-08T01:56:42Z",
    "zip": "26062"
  },
  {
    "address": "Rt 1 Box 289B",
    "city": "Salem",
    "county": "Harrison County",
    "created_at": "2012-01-04T20:18:24Z",
    "id": 26819,
    "latitude": "39.280165",
    "longitude": "-80.554684",
    "mascot": null,
    "name": "Miracle Meadows School",
    "primary_color": "Black",
    "secondary_color": "Gold",
    "state": "WV",
    "timezone": "America/New_York",
    "updated_at": "2012-07-08T01:56:42Z",
    "zip": "26426"
  },
  {
    "address": "622 Kanawha Blvd W",
    "city": "Charleston",
    "county": "Kanawha County",
    "created_at": "2012-01-04T20:18:24Z",
    "id": 26820,
    "latitude": "38.359482",
    "longitude": "-81.653299",
    "mascot": null,
    "name": "Charleston SDA School",
    "primary_color": null,
    "secondary_color": null,
    "state": "WV",
    "timezone": "America/New_York",
    "updated_at": "2012-07-08T01:56:43Z",
    "zip": "25302"
  },
  {
    "address": "5110 Elk River Rd N",
    "city": "Elkview",
    "county": "Kanawha County",
    "created_at": "2012-01-04T20:18:24Z",
    "id": 26821,
    "latitude": "38.444152",
    "longitude": "-81.473961",
    "mascot": "Eagles",
    "name": "Elk Valley Christian School",
    "primary_color": "Kelly Green",
    "secondary_color": "White",
    "state": "WV",
    "timezone": "America/New_York",
    "updated_at": "2012-07-08T01:56:43Z",
    "zip": "25071"
  },
  {
    "address": "Rt 1",
    "city": "Weston",
    "county": "Lewis County",
    "created_at": "2012-01-04T20:18:24Z",
    "id": 26822,
    "latitude": "39.056304",
    "longitude": "-80.468981",
    "mascot": null,
    "name": "Lewis County Christian School",
    "primary_color": null,
    "secondary_color": null,
    "state": "WV",
    "timezone": "America/New_York",
    "updated_at": "2012-07-08T01:56:44Z",
    "zip": "26452"
  },
  {
    "address": "Rt 2 Box 358",
    "city": "Chapmanville",
    "county": "Logan County",
    "created_at": "2012-01-04T20:18:24Z",
    "id": 26823,
    "latitude": "38.006584",
    "longitude": "-82.014307",
    "mascot": "Crosses",
    "name": "Truthway Christian Academy",
    "primary_color": "Maroon",
    "secondary_color": "Gray",
    "state": "WV",
    "timezone": "America/New_York",
    "updated_at": "2012-07-08T01:56:44Z",
    "zip": "25508"
  },
  {
    "address": "28 Fellowship Dr",
    "city": "Fairmont",
    "county": "Marion County",
    "created_at": "2012-01-04T20:18:24Z",
    "id": 26824,
    "latitude": "39.498036",
    "longitude": "-80.096366",
    "mascot": null,
    "name": "Calvary Christian School",
    "primary_color": null,
    "secondary_color": null,
    "state": "WV",
    "timezone": "America/New_York",
    "updated_at": "2012-07-08T01:56:45Z",
    "zip": "26554"
  },
  {
    "address": "111 Elkins St",
    "city": "Fairmont",
    "county": "Marion County",
    "created_at": "2012-01-04T20:18:24Z",
    "id": 26825,
    "latitude": "39.480995",
    "longitude": "-80.133548",
    "mascot": "Flames",
    "name": "Light Of Life Christian School",
    "primary_color": "White",
    "secondary_color": "Red",
    "state": "WV",
    "timezone": "America/New_York",
    "updated_at": "2012-07-08T01:56:45Z",
    "zip": "26554"
  },
  {
    "address": "HC 77 Box 106",
    "city": "Ballard",
    "county": "Monroe County",
    "created_at": "2012-01-04T20:18:24Z",
    "id": 26826,
    "latitude": "37.512542",
    "longitude": "-80.764766",
    "mascot": "Eagles",
    "name": "Ballard Christian School",
    "primary_color": "Royal",
    "secondary_color": "White",
    "state": "WV",
    "timezone": "America/New_York",
    "updated_at": "2012-07-08T01:56:45Z",
    "zip": "24918"
  },
  {
    "address": "60 Knox Ln",
    "city": "Wheeling",
    "county": "Ohio County",
    "created_at": "2012-01-04T20:18:24Z",
    "id": 26827,
    "latitude": "40.075273",
    "longitude": "-80.694211",
    "mascot": "Cadets",
    "name": "The Linsly School",
    "primary_color": "Orange",
    "secondary_color": "Black",
    "state": "WV",
    "timezone": "America/New_York",
    "updated_at": "2012-07-08T01:56:46Z",
    "zip": "26003"
  },
  {
    "address": "2765 2nd St",
    "city": "Hurricane",
    "county": "Putnam County",
    "created_at": "2012-01-04T20:18:24Z",
    "id": 26828,
    "latitude": "38.430922",
    "longitude": "-82.024237",
    "mascot": "Eagles",
    "name": "Truth & Liberty Christian School",
    "primary_color": "White",
    "secondary_color": "Red",
    "state": "WV",
    "timezone": "America/New_York",
    "updated_at": "2012-07-08T01:56:46Z",
    "zip": "25526"
  },
  {
    "address": "Main St Rte 16",
    "city": "Clay",
    "county": "Clay County",
    "created_at": "2012-01-04T20:18:24Z",
    "id": 26829,
    "latitude": "38.431739",
    "longitude": "-81.110653",
    "mascot": null,
    "name": "Clay Christian Academy",
    "primary_color": "Red",
    "secondary_color": "Navy",
    "state": "WV",
    "timezone": "America/New_York",
    "updated_at": "2012-07-08T01:56:46Z",
    "zip": "25043"
  },
  {
    "address": "5330 Floradale Dr",
    "city": "Cross Lanes",
    "county": "Kanawha County",
    "created_at": "2012-01-04T20:18:24Z",
    "id": 26830,
    "latitude": "38.437041",
    "longitude": "-81.781048",
    "mascot": "Warriors",
    "name": "Cross Lanes Christian School",
    "primary_color": "Gold",
    "secondary_color": "Royal",
    "state": "WV",
    "timezone": "America/New_York",
    "updated_at": "2012-07-08T01:56:47Z",
    "zip": "25313"
  },
  {
    "address": "2400 6th Ave",
    "city": "Charleston",
    "county": "Kanawha County",
    "created_at": "2012-01-04T20:18:24Z",
    "id": 26831,
    "latitude": "38.375478",
    "longitude": "-81.675312",
    "mascot": "Spartans",
    "name": "Conquerors Christian School",
    "primary_color": "Royal",
    "secondary_color": "White",
    "state": "WV",
    "timezone": "America/New_York",
    "updated_at": "2012-07-08T01:56:47Z",
    "zip": "25312"
  },
  {
    "address": "415 Potomac Ave",
    "city": "Fairmont",
    "county": "Marion County",
    "created_at": "2012-01-04T20:18:24Z",
    "id": 26832,
    "latitude": "39.478328",
    "longitude": "-80.131317",
    "mascot": null,
    "name": "ACT Academy",
    "primary_color": null,
    "secondary_color": null,
    "state": "WV",
    "timezone": "America/New_York",
    "updated_at": "2012-07-08T01:56:47Z",
    "zip": "26554"
  },
  {
    "address": "Red Jacket Rd",
    "city": "North Matewan",
    "county": "Mingo County",
    "created_at": "2012-01-04T20:18:24Z",
    "id": 26833,
    "latitude": "37.625020",
    "longitude": "-82.148899",
    "mascot": "Eagles",
    "name": "Omega Christian Academy",
    "primary_color": "Ash Grey",
    "secondary_color": "Burgandy",
    "state": "WV",
    "timezone": "America/New_York",
    "updated_at": "2012-07-08T01:56:48Z",
    "zip": "25688"
  },
  {
    "address": "3655 Teays Valley Rd",
    "city": "Hurricane",
    "county": "Putnam County",
    "created_at": "2012-01-04T20:18:24Z",
    "id": 26834,
    "latitude": "38.444698",
    "longitude": "-81.976243",
    "mascot": "Patriots",
    "name": "Calvary Baptist Academy",
    "primary_color": "Gold",
    "secondary_color": "Red",
    "state": "WV",
    "timezone": "America/New_York",
    "updated_at": "2012-07-08T01:56:48Z",
    "zip": "25526"
  },
  {
    "address": "400 Stanford Rd",
    "city": "Beckley",
    "county": "Raleigh County",
    "created_at": "2012-01-04T20:18:24Z",
    "id": 26835,
    "latitude": "37.800526",
    "longitude": "-81.168013",
    "mascot": "Flying Eagles",
    "name": "Woodrow Wilson Senior High School",
    "primary_color": "Maroon",
    "secondary_color": "White",
    "state": "WV",
    "timezone": "America/New_York",
    "updated_at": "2012-07-08T01:56:48Z",
    "zip": "25801"
  },
  {
    "address": "110 High School Dr",
    "city": "Mount Hope",
    "county": "Fayette County",
    "created_at": "2012-01-04T20:18:24Z",
    "id": 26836,
    "latitude": "37.896353",
    "longitude": "-81.160024",
    "mascot": "Mustangs",
    "name": "Mount Hope High School",
    "primary_color": "Gold",
    "secondary_color": "Royal",
    "state": "WV",
    "timezone": "America/New_York",
    "updated_at": "2012-07-08T01:56:49Z",
    "zip": "25880"
  },
  {
    "address": "Rt 4 Box 268",
    "city": "Philippi",
    "county": "Barbour County",
    "created_at": "2012-01-04T20:18:24Z",
    "id": 26837,
    "latitude": "39.161436",
    "longitude": "-80.043339",
    "mascot": "Colts",
    "name": "Barbour County Vocational Center",
    "primary_color": "Columbia Blue",
    "secondary_color": "White",
    "state": "WV",
    "timezone": "America/New_York",
    "updated_at": "2012-07-08T01:56:49Z",
    "zip": "26416"
  },
  {
    "address": "109 Ridge Rd N",
    "city": "Hedgesville",
    "county": "Berkeley County",
    "created_at": "2012-01-04T20:18:24Z",
    "id": 26838,
    "latitude": "39.536686",
    "longitude": "-77.980644",
    "mascot": "Eagles",
    "name": "Hedgesville High School",
    "primary_color": "Gold",
    "secondary_color": "Royal",
    "state": "WV",
    "timezone": "America/New_York",
    "updated_at": "2012-07-08T01:56:50Z",
    "zip": "25427"
  },
  {
    "address": "10008 Coal River Rd",
    "city": "Seth",
    "county": "Boone County",
    "created_at": "2012-01-04T20:18:24Z",
    "id": 26839,
    "latitude": "38.102190",
    "longitude": "-81.619759",
    "mascot": "Tides",
    "name": "Sherman High School",
    "primary_color": "Gold",
    "secondary_color": "Maroon",
    "state": "WV",
    "timezone": "America/New_York",
    "updated_at": "2012-07-08T01:56:50Z",
    "zip": "25181"
  },
  {
    "address": "200 Jerry Burton Dr",
    "city": "Sutton",
    "county": "Braxton County",
    "created_at": "2012-01-04T20:18:24Z",
    "id": 26840,
    "latitude": "38.695239",
    "longitude": "-80.665699",
    "mascot": "Eagles",
    "name": "Braxton County High School",
    "primary_color": "Kelly Green",
    "secondary_color": "Gold",
    "state": "WV",
    "timezone": "America/New_York",
    "updated_at": "2012-07-08T01:56:51Z",
    "zip": "26601"
  },
  {
    "address": "610 Bruin Dr",
    "city": "Wellsburg",
    "county": "Brooke County",
    "created_at": "2012-01-04T20:18:24Z",
    "id": 26841,
    "latitude": "40.303050",
    "longitude": "-80.582759",
    "mascot": "Bruins",
    "name": "Brooke High School",
    "primary_color": "Kelly Green",
    "secondary_color": "Gold",
    "state": "WV",
    "timezone": "America/New_York",
    "updated_at": "2012-07-08T01:56:51Z",
    "zip": "26070"
  },
  {
    "address": "1 Highlander Way",
    "city": "Huntington",
    "county": "Cabell County",
    "created_at": "2012-01-04T20:18:24Z",
    "id": 26842,
    "latitude": "38.393604",
    "longitude": "-82.395603",
    "mascot": "Highlanders",
    "name": "Huntington High School",
    "primary_color": "Gold",
    "secondary_color": "Hunter Green",
    "state": "WV",
    "timezone": "America/New_York",
    "updated_at": "2012-07-08T01:56:51Z",
    "zip": "25701"
  },
  {
    "address": "5236 East Little Kanawha ",
    "city": "Grantsville",
    "county": "Calhoun County",
    "created_at": "2012-01-04T20:18:24Z",
    "id": 26843,
    "latitude": "38.929757",
    "longitude": "-81.083775",
    "mascot": null,
    "name": "Calhoun-Gilmer Career Center",
    "primary_color": "Red",
    "secondary_color": "Columbia Blue",
    "state": "WV",
    "timezone": "America/New_York",
    "updated_at": "2012-07-08T01:56:51Z",
    "zip": "26147"
  },
  {
    "address": "1 Panther Dr",
    "city": "Clay",
    "county": "Clay County",
    "created_at": "2012-01-04T20:18:24Z",
    "id": 26844,
    "latitude": "38.445734",
    "longitude": "-81.093923",
    "mascot": "Panthers",
    "name": "Clay County High School",
    "primary_color": "Royal",
    "secondary_color": "Gold",
    "state": "WV",
    "timezone": "America/New_York",
    "updated_at": "2012-07-08T01:56:52Z",
    "zip": "25043"
  },
  {
    "address": "350 W Oyler Ave",
    "city": "Oak Hill",
    "county": "Fayette County",
    "created_at": "2012-01-04T20:18:24Z",
    "id": 26845,
    "latitude": "37.989996",
    "longitude": "-81.147276",
    "mascot": "Red Devils",
    "name": "Oak Hill High School",
    "primary_color": "Red",
    "secondary_color": "Black",
    "state": "WV",
    "timezone": "America/New_York",
    "updated_at": "2012-07-08T01:56:52Z",
    "zip": "25901"
  },
  {
    "address": "515 W Maple Ave",
    "city": "Fayetteville",
    "county": "Fayette County",
    "created_at": "2012-01-04T20:18:24Z",
    "id": 26846,
    "latitude": "38.047009",
    "longitude": "-81.112642",
    "mascot": "Pirates",
    "name": "Fayetteville High School",
    "primary_color": "Kelly Green",
    "secondary_color": "Gold",
    "state": "WV",
    "timezone": "America/New_York",
    "updated_at": "2012-07-08T01:56:52Z",
    "zip": "25840"
  },
  {
    "address": "2775 Main St",
    "city": "Meadow Bridge",
    "county": "Fayette County",
    "created_at": "2012-01-04T20:18:24Z",
    "id": 26847,
    "latitude": "37.865768",
    "longitude": "-80.858626",
    "mascot": "Wildcats",
    "name": "Meadow Bridge Junior Senior High School",
    "primary_color": "Columbia Blue",
    "secondary_color": "Navy",
    "state": "WV",
    "timezone": "America/New_York",
    "updated_at": "2012-07-08T01:56:52Z",
    "zip": "25976"
  },
  {
    "address": "Rt 60 East",
    "city": "Hico",
    "county": "Fayette County",
    "created_at": "2012-01-04T20:18:24Z",
    "id": 26848,
    "latitude": "38.112923",
    "longitude": "-81.002042",
    "mascot": "Patriots",
    "name": "Midland Trail High School",
    "primary_color": "Red",
    "secondary_color": "White",
    "state": "WV",
    "timezone": "America/New_York",
    "updated_at": "2012-07-08T01:56:53Z",
    "zip": "25854"
  },
  {
    "address": "Rt 60 Grayhound Ln",
    "city": "Smithers",
    "county": "Fayette County",
    "created_at": "2012-01-04T20:18:24Z",
    "id": 26849,
    "latitude": "38.168827",
    "longitude": "-81.302899",
    "mascot": "Greyhounds",
    "name": "Valley High School",
    "primary_color": "Gray",
    "secondary_color": "Royal",
    "state": "WV",
    "timezone": "America/New_York",
    "updated_at": "2012-07-08T01:56:53Z",
    "zip": "25186"
  },
  {
    "address": "1 Spartan Ln",
    "city": "Lewisburg",
    "county": "Greenbrier County",
    "created_at": "2012-01-04T20:18:24Z",
    "id": 26850,
    "latitude": "37.776625",
    "longitude": "-80.469364",
    "mascot": "Spartans",
    "name": "Greenbrier East High School",
    "primary_color": "Gold",
    "secondary_color": "Kelly Green",
    "state": "WV",
    "timezone": "America/New_York",
    "updated_at": "2012-07-08T01:56:54Z",
    "zip": "24901"
  },
  {
    "address": "One Cavalier Dr",
    "city": "Charmco",
    "county": "Greenbrier County",
    "created_at": "2012-01-04T20:18:24Z",
    "id": 26851,
    "latitude": "38.004064",
    "longitude": "-80.739511",
    "mascot": "Cavaliers",
    "name": "Greenbrier West Senior High School",
    "primary_color": "Gold",
    "secondary_color": "Royal",
    "state": "WV",
    "timezone": "America/New_York",
    "updated_at": "2012-07-08T01:56:54Z",
    "zip": "25958"
  },
  {
    "address": "206 N Lee St",
    "city": "Lewisburg",
    "county": "Greenbrier County",
    "created_at": "2012-01-04T20:18:24Z",
    "id": 26852,
    "latitude": "37.801165",
    "longitude": "-80.441694",
    "mascot": null,
    "name": "Lewisburg Junior High School",
    "primary_color": null,
    "secondary_color": null,
    "state": "WV",
    "timezone": "America/New_York",
    "updated_at": "2012-07-08T01:56:54Z",
    "zip": "24901"
  },
  {
    "address": "HC 63 Box 1970",
    "city": "Romney",
    "county": "Hampshire County",
    "created_at": "2012-01-04T20:18:24Z",
    "id": 26853,
    "latitude": "39.347186",
    "longitude": "-78.738466",
    "mascot": "Trojans",
    "name": "Hampshire High School",
    "primary_color": "Hunter Green",
    "secondary_color": "White",
    "state": "WV",
    "timezone": "America/New_York",
    "updated_at": "2012-07-08T01:56:55Z",
    "zip": "26757"
  },
  {
    "address": "195 Golden Bear Dr",
    "city": "New Cumberland",
    "county": "Hancock County",
    "created_at": "2012-01-04T20:18:24Z",
    "id": 26854,
    "latitude": "40.543006",
    "longitude": "-80.560629",
    "mascot": "Golden Bears",
    "name": "Oak Glen Senior High School",
    "primary_color": "Columbia Blue",
    "secondary_color": "Gold",
    "state": "WV",
    "timezone": "America/New_York",
    "updated_at": "2012-07-08T01:56:55Z",
    "zip": "26047"
  },
  {
    "address": "100 Red Rider Rd",
    "city": "Weirton",
    "county": "Hancock County",
    "created_at": "2012-01-04T20:18:24Z",
    "id": 26855,
    "latitude": "40.405943",
    "longitude": "-80.577434",
    "mascot": "Red Riders",
    "name": "Weir Senior High School",
    "primary_color": "Red",
    "secondary_color": "Black",
    "state": "WV",
    "timezone": "America/New_York",
    "updated_at": "2012-07-08T01:56:55Z",
    "zip": "26062"
  },
  {
    "address": "401 N Main St",
    "city": "Moorefield",
    "county": "Hardy County",
    "created_at": "2012-01-04T20:18:24Z",
    "id": 26856,
    "latitude": "39.068148",
    "longitude": "-78.968684",
    "mascot": "Yellow Jackets",
    "name": "Moorefield High School",
    "primary_color": "Gold",
    "secondary_color": "Royal",
    "state": "WV",
    "timezone": "America/New_York",
    "updated_at": "2012-07-08T01:56:56Z",
    "zip": "26836"
  },
  {
    "address": "515 Johnson Ave",
    "city": "Bridgeport",
    "county": "Harrison County",
    "created_at": "2012-01-04T20:18:24Z",
    "id": 26857,
    "latitude": "39.290695",
    "longitude": "-80.262581",
    "mascot": "Indians",
    "name": "Bridgeport High School",
    "primary_color": "Red",
    "secondary_color": "White",
    "state": "WV",
    "timezone": "America/New_York",
    "updated_at": "2012-07-08T01:56:56Z",
    "zip": "26330"
  },
  {
    "address": "Rt 1 Box 300",
    "city": "Shinnston",
    "county": "Harrison County",
    "created_at": "2012-01-04T20:18:24Z",
    "id": 26858,
    "latitude": "39.385399",
    "longitude": "-80.301570",
    "mascot": null,
    "name": "Lincoln High School",
    "primary_color": "Gold",
    "secondary_color": "Brown",
    "state": "WV",
    "timezone": "America/New_York",
    "updated_at": "2012-07-08T01:56:57Z",
    "zip": "26431"
  },
  {
    "address": "Rt 3 Box 43c",
    "city": "Clarksburg",
    "county": "Harrison County",
    "created_at": "2012-01-04T20:18:24Z",
    "id": 26859,
    "latitude": "39.266177",
    "longitude": "-80.496586",
    "mascot": null,
    "name": "Tri County High School",
    "primary_color": null,
    "secondary_color": null,
    "state": "WV",
    "timezone": "America/New_York",
    "updated_at": "2012-07-08T01:56:58Z",
    "zip": "26301"
  },
  {
    "address": "2 School St",
    "city": "Ripley",
    "county": "Jackson County",
    "created_at": "2012-01-04T20:18:24Z",
    "id": 26860,
    "latitude": "38.810994",
    "longitude": "-81.702759",
    "mascot": "Vikings",
    "name": "Ripley High School",
    "primary_color": "Royal",
    "secondary_color": "White",
    "state": "WV",
    "timezone": "America/New_York",
    "updated_at": "2012-07-08T01:56:58Z",
    "zip": "25271"
  },
  {
    "address": "Rt 1 Box 83 Flowing Springs Rd",
    "city": "Shenandoah Junction",
    "county": "Jefferson County",
    "created_at": "2012-01-04T20:18:24Z",
    "id": 26861,
    "latitude": "39.366732",
    "longitude": "-77.834827",
    "mascot": "Cougars",
    "name": "Jefferson High School",
    "primary_color": "Gold",
    "secondary_color": "Maroon",
    "state": "WV",
    "timezone": "America/New_York",
    "updated_at": "2012-07-08T01:56:59Z",
    "zip": "25442"
  },
  {
    "address": "275 Elk River Rd S",
    "city": "Clendenin",
    "county": "Kanawha County",
    "created_at": "2012-01-04T20:18:24Z",
    "id": 26862,
    "latitude": "38.485102",
    "longitude": "-81.359185",
    "mascot": "Huskies",
    "name": "Herbert Hoover Senior High School",
    "primary_color": "Red",
    "secondary_color": "Royal",
    "state": "WV",
    "timezone": "America/New_York",
    "updated_at": "2012-07-08T01:56:59Z",
    "zip": "25045"
  },
  {
    "address": "502 Ruffner Ave",
    "city": "Charleston",
    "county": "Kanawha County",
    "created_at": "2012-01-04T20:18:24Z",
    "id": 26863,
    "latitude": "38.344516",
    "longitude": "-81.622092",
    "mascot": null,
    "name": "Roosevelt Junior High School",
    "primary_color": "Royal",
    "secondary_color": "White",
    "state": "WV",
    "timezone": "America/New_York",
    "updated_at": "2012-07-08T01:57:00Z",
    "zip": "25311"
  },
  {
    "address": "1500 Greenbrier St",
    "city": "Charleston",
    "county": "Kanawha County",
    "created_at": "2012-01-04T20:18:24Z",
    "id": 26864,
    "latitude": "38.370695",
    "longitude": "-81.577154",
    "mascot": "Cougars",
    "name": "Capital Senior High School",
    "primary_color": "Royal",
    "secondary_color": "Gray",
    "state": "WV",
    "timezone": "America/New_York",
    "updated_at": "2012-07-08T01:57:00Z",
    "zip": "25311"
  },
  {
    "address": "1300 Park Ave",
    "city": "Nitro",
    "county": "Kanawha County",
    "created_at": "2012-01-04T20:18:24Z",
    "id": 26865,
    "latitude": "38.418641",
    "longitude": "-81.845862",
    "mascot": "Wildcats",
    "name": "Nitro High School",
    "primary_color": "Red",
    "secondary_color": "Black",
    "state": "WV",
    "timezone": "America/New_York",
    "updated_at": "2012-07-08T01:57:01Z",
    "zip": "25143"
  },
  {
    "address": "1 Warrior Way",
    "city": "Belle",
    "county": "Kanawha County",
    "created_at": "2012-01-04T20:18:24Z",
    "id": 26866,
    "latitude": "38.208453",
    "longitude": "-81.511671",
    "mascot": "Warriors",
    "name": "Riverside High School",
    "primary_color": "Purple",
    "secondary_color": "Black",
    "state": "WV",
    "timezone": "America/New_York",
    "updated_at": "2012-07-08T01:57:01Z",
    "zip": "25015"
  },
  {
    "address": "1522 Tennis Club Rd",
    "city": "Charleston",
    "county": "Kanawha County",
    "created_at": "2012-01-04T20:18:24Z",
    "id": 26867,
    "latitude": "38.333654",
    "longitude": "-81.655586",
    "mascot": "Patriots",
    "name": "George Washington High School",
    "primary_color": "Gray",
    "secondary_color": "Maroon",
    "state": "WV",
    "timezone": "America/New_York",
    "updated_at": "2012-07-08T01:57:01Z",
    "zip": "25314"
  },
  {
    "address": "205 Minutemen Dr",
    "city": "Weston",
    "county": "Lewis County",
    "created_at": "2012-01-04T20:18:24Z",
    "id": 26868,
    "latitude": "39.021401",
    "longitude": "-80.478106",
    "mascot": "Minutemen",
    "name": "Lewis County High School",
    "primary_color": "Gray",
    "secondary_color": "Royal",
    "state": "WV",
    "timezone": "America/New_York",
    "updated_at": "2012-07-08T01:57:02Z",
    "zip": "26452"
  },
  {
    "address": "700 St Rt 10 N",
    "city": "Branchland",
    "county": "Lincoln County",
    "created_at": "2012-01-04T20:18:24Z",
    "id": 26869,
    "latitude": "38.247816",
    "longitude": "-82.191589",
    "mascot": "Wildcats",
    "name": "Guyan Valley High School",
    "primary_color": "Gold",
    "secondary_color": "Royal",
    "state": "WV",
    "timezone": "America/New_York",
    "updated_at": "2012-07-08T01:57:03Z",
    "zip": "25506"
  },
  {
    "address": "8130 Court Ave",
    "city": "Hamlin",
    "county": "Lincoln County",
    "created_at": "2012-01-04T20:18:24Z",
    "id": 26870,
    "latitude": "38.278589",
    "longitude": "-82.102378",
    "mascot": "Bobcats",
    "name": "Hamlin Junior Senior High School",
    "primary_color": "Gold",
    "secondary_color": "Royal",
    "state": "WV",
    "timezone": "America/New_York",
    "updated_at": "2012-07-08T01:57:03Z",
    "zip": "25523"
  },
  {
    "address": "200 Vance St",
    "city": "Chapmanville",
    "county": "Logan County",
    "created_at": "2012-01-04T20:18:24Z",
    "id": 26871,
    "latitude": "37.977587",
    "longitude": "-82.024125",
    "mascot": "Tigers",
    "name": "Chapmanville Senior High School",
    "primary_color": "Orange",
    "secondary_color": "Black",
    "state": "WV",
    "timezone": "America/New_York",
    "updated_at": "2012-07-08T01:57:03Z",
    "zip": "25508"
  },
  {
    "address": "Rt 44",
    "city": "Omar",
    "county": "Logan County",
    "created_at": "2012-01-04T20:18:24Z",
    "id": 26872,
    "latitude": "37.709513",
    "longitude": "-81.988331",
    "mascot": null,
    "name": "Omar Junior High School",
    "primary_color": "Gold",
    "secondary_color": "Maroon",
    "state": "WV",
    "timezone": "America/New_York",
    "updated_at": "2012-07-08T01:57:04Z",
    "zip": "25638"
  },
  {
    "address": "Rt 16",
    "city": "War",
    "county": "McDowell County",
    "created_at": "2012-01-04T20:18:24Z",
    "id": 26873,
    "latitude": "37.302805",
    "longitude": "-81.689344",
    "mascot": "Owls",
    "name": "Big Creek High School",
    "primary_color": "Kelly Green",
    "secondary_color": "White",
    "state": "WV",
    "timezone": "America/New_York",
    "updated_at": "2012-07-08T01:57:04Z",
    "zip": "24892"
  },
  {
    "address": "Water St",
    "city": "Iaeger",
    "county": "McDowell County",
    "created_at": "2012-01-04T20:18:24Z",
    "id": 26874,
    "latitude": "37.468563",
    "longitude": "-81.819461",
    "mascot": "Cubs",
    "name": "Iaeger High School",
    "primary_color": "Gold",
    "secondary_color": "Royal",
    "state": "WV",
    "timezone": "America/New_York",
    "updated_at": "2012-07-08T01:57:04Z",
    "zip": "24844"
  },
  {
    "address": "950 Mountview Rd",
    "city": "Welch",
    "county": "McDowell County",
    "created_at": "2012-01-04T20:18:24Z",
    "id": 26875,
    "latitude": "37.409432",
    "longitude": "-81.531021",
    "mascot": "Golden Knights",
    "name": "Mountview High School",
    "primary_color": "Gold",
    "secondary_color": "Brown",
    "state": "WV",
    "timezone": "America/New_York",
    "updated_at": "2012-07-08T01:57:05Z",
    "zip": "24801"
  },
  {
    "address": "1993 Airport Rd",
    "city": "Fairmont",
    "county": "Marion County",
    "created_at": "2012-01-04T20:18:24Z",
    "id": 26876,
    "latitude": "39.444756",
    "longitude": "-80.168478",
    "mascot": "Bees",
    "name": "East Fairmont High School",
    "primary_color": "Gold",
    "secondary_color": "Navy",
    "state": "WV",
    "timezone": "America/New_York",
    "updated_at": "2012-07-08T01:57:05Z",
    "zip": "26554"
  },
  {
    "address": "601 Locust Ave",
    "city": "Fairmont",
    "county": "Marion County",
    "created_at": "2012-01-04T20:18:24Z",
    "id": 26877,
    "latitude": "39.483550",
    "longitude": "-80.153703",
    "mascot": null,
    "name": "White ALC",
    "primary_color": null,
    "secondary_color": null,
    "state": "WV",
    "timezone": "America/New_York",
    "updated_at": "2012-07-08T01:57:06Z",
    "zip": "26554"
  },
  {
    "address": "1300 Wheeling Ave",
    "city": "Glen Dale",
    "county": "Marshall County",
    "created_at": "2012-01-04T20:18:24Z",
    "id": 26878,
    "latitude": "39.941657",
    "longitude": "-80.754371",
    "mascot": "Monarchs",
    "name": "John Marshall High School",
    "primary_color": "Brown",
    "secondary_color": "Gold",
    "state": "WV",
    "timezone": "America/New_York",
    "updated_at": "2012-07-08T01:57:06Z",
    "zip": "26038"
  },
  {
    "address": "1000 Fairmont Pike",
    "city": "Wheeling",
    "county": "Marshall County",
    "created_at": "2012-01-04T20:18:24Z",
    "id": 26879,
    "latitude": "40.029144",
    "longitude": "-80.692029",
    "mascot": "Rams",
    "name": "Sherrard Junior High School",
    "primary_color": "Red",
    "secondary_color": "White",
    "state": "WV",
    "timezone": "America/New_York",
    "updated_at": "2012-07-08T01:57:06Z",
    "zip": "26003"
  },
  {
    "address": "1690 Marshall St",
    "city": "Benwood",
    "county": "Marshall County",
    "created_at": "2012-01-04T20:18:24Z",
    "id": 26880,
    "latitude": "40.008363",
    "longitude": "-80.734244",
    "mascot": "Iron Men",
    "name": "Union Junior High School",
    "primary_color": "Royal",
    "secondary_color": "Orange",
    "state": "WV",
    "timezone": "America/New_York",
    "updated_at": "2012-07-08T01:57:07Z",
    "zip": "26031"
  },
  {
    "address": "Rt 62 N",
    "city": "Mason",
    "county": "Mason County",
    "created_at": "2012-01-04T20:18:24Z",
    "id": 26881,
    "latitude": "39.025160",
    "longitude": "-82.023369",
    "mascot": "Falcons",
    "name": "Wahama Junior Senior High School",
    "primary_color": "Red",
    "secondary_color": "White",
    "state": "WV",
    "timezone": "America/New_York",
    "updated_at": "2012-07-08T01:57:07Z",
    "zip": "25260"
  },
  {
    "address": "710 Simmons River Rd",
    "city": "Montcalm",
    "county": "Mercer County",
    "created_at": "2012-01-04T20:18:24Z",
    "id": 26882,
    "latitude": "37.352030",
    "longitude": "-81.247229",
    "mascot": "Generals",
    "name": "Montcalm Middle & High School",
    "primary_color": "Royal Blue",
    "secondary_color": "White",
    "state": "WV",
    "timezone": "America/New_York",
    "updated_at": "2012-07-08T01:57:08Z",
    "zip": "24737"
  },
  {
    "address": "Rt 4 Box 110",
    "city": "Keyser",
    "county": "Mineral County",
    "created_at": "2012-01-04T20:18:24Z",
    "id": 26883,
    "latitude": "39.400445",
    "longitude": "-79.072912",
    "mascot": "Golden Tornadoes",
    "name": "Keyser High School",
    "primary_color": "Gold",
    "secondary_color": "Black",
    "state": "WV",
    "timezone": "America/New_York",
    "updated_at": "2012-07-08T01:57:08Z",
    "zip": "26726"
  },
  {
    "address": "Rt 3 Box 169",
    "city": "Ridgeley",
    "county": "Mineral County",
    "created_at": "2012-01-04T20:18:24Z",
    "id": 26884,
    "latitude": "39.560616",
    "longitude": "-78.797164",
    "mascot": "Falcons",
    "name": "Frankfort High School",
    "primary_color": "Royal",
    "secondary_color": "Gray",
    "state": "WV",
    "timezone": "America/New_York",
    "updated_at": "2012-07-08T01:57:09Z",
    "zip": "26753"
  },
  {
    "address": "801 Alderson St",
    "city": "Williamson",
    "county": "Mingo County",
    "created_at": "2012-01-04T20:18:24Z",
    "id": 26885,
    "latitude": "37.677747",
    "longitude": "-82.272131",
    "mascot": null,
    "name": "Williamson Senior High School",
    "primary_color": "Maroon",
    "secondary_color": "White",
    "state": "WV",
    "timezone": "America/New_York",
    "updated_at": "2012-07-08T01:57:09Z",
    "zip": "25661"
  },
  {
    "address": "1 Lion Country Way",
    "city": "Gilbert",
    "county": "Mingo County",
    "created_at": "2012-01-04T20:18:24Z",
    "id": 26886,
    "latitude": "37.612806",
    "longitude": "-81.880593",
    "mascot": "Lions",
    "name": "Gilbert Senior High School",
    "primary_color": "Purple",
    "secondary_color": "Gold",
    "state": "WV",
    "timezone": "America/New_York",
    "updated_at": "2012-07-08T01:57:09Z",
    "zip": "25621"
  },
  {
    "address": "100 Tiger Lane",
    "city": "Matewan",
    "county": "Mingo County",
    "created_at": "2012-01-04T20:18:24Z",
    "id": 26887,
    "latitude": "37.628920",
    "longitude": "-82.113222",
    "mascot": "Tigers",
    "name": "Matewah High School",
    "primary_color": "Kelly Green",
    "secondary_color": "White",
    "state": "WV",
    "timezone": "America/New_York",
    "updated_at": "2012-07-08T01:57:10Z",
    "zip": "25678"
  },
  {
    "address": "Rt 7 W",
    "city": "Blacksville",
    "county": "Monongalia County",
    "created_at": "2012-01-04T20:18:24Z",
    "id": 26888,
    "latitude": "39.720035",
    "longitude": "-80.208214",
    "mascot": "Bees",
    "name": "Clay Battelle High School",
    "primary_color": "Gray",
    "secondary_color": "Royal",
    "state": "WV",
    "timezone": "America/New_York",
    "updated_at": "2012-07-08T01:57:10Z",
    "zip": "26521"
  },
  {
    "address": "991 N Price St",
    "city": "Morgantown",
    "county": "Monongalia County",
    "created_at": "2012-01-04T20:18:24Z",
    "id": 26889,
    "latitude": "39.637043",
    "longitude": "-79.947031",
    "mascot": "Hawks",
    "name": "University Senior High School",
    "primary_color": "Gold",
    "secondary_color": "Red",
    "state": "WV",
    "timezone": "America/New_York",
    "updated_at": "2012-07-08T01:57:10Z",
    "zip": "26505"
  },
  {
    "address": "1000 Mississippi St",
    "city": "Morgantown",
    "county": "Monongalia County",
    "created_at": "2012-01-04T20:18:24Z",
    "id": 26890,
    "latitude": "39.610614",
    "longitude": "-79.957966",
    "mascot": null,
    "name": "Monongalia County Technical Center",
    "primary_color": null,
    "secondary_color": null,
    "state": "WV",
    "timezone": "America/New_York",
    "updated_at": "2012-07-08T01:57:11Z",
    "zip": "26505"
  },
  {
    "address": "60 Pirate Cir",
    "city": "Paw Paw",
    "county": "Hampshire County",
    "created_at": "2012-01-04T20:18:24Z",
    "id": 26891,
    "latitude": "39.413318",
    "longitude": "-78.472467",
    "mascot": "Pirates",
    "name": "Paw Paw School",
    "primary_color": "Red",
    "secondary_color": "White",
    "state": "WV",
    "timezone": "America/New_York",
    "updated_at": "2012-07-08T01:57:11Z",
    "zip": "25434"
  },
  {
    "address": "30 Grizzly Rd",
    "city": "Summersville",
    "county": "Nicholas County",
    "created_at": "2012-01-04T20:18:24Z",
    "id": 26892,
    "latitude": "38.321650",
    "longitude": "-80.832927",
    "mascot": "Grizzly Bears",
    "name": "Nicholas County High School",
    "primary_color": "Gold",
    "secondary_color": "Royal",
    "state": "WV",
    "timezone": "America/New_York",
    "updated_at": "2012-07-08T01:57:11Z",
    "zip": "26651"
  },
  {
    "address": "1976 Park View Rd",
    "city": "Wheeling",
    "county": "Ohio County",
    "created_at": "2012-01-04T20:18:24Z",
    "id": 26893,
    "latitude": "40.061898",
    "longitude": "-80.654957",
    "mascot": "Patriots",
    "name": "Wheeling Park High School",
    "primary_color": "Red",
    "secondary_color": "White",
    "state": "WV",
    "timezone": "America/New_York",
    "updated_at": "2012-07-08T01:57:12Z",
    "zip": "26003"
  },
  {
    "address": "1002 2nd St",
    "city": "Saint Marys",
    "county": "Pleasants County",
    "created_at": "2012-01-04T20:18:24Z",
    "id": 26894,
    "latitude": "39.394238",
    "longitude": "-81.203483",
    "mascot": "Blue Devils",
    "name": "Saint Marys High School",
    "primary_color": "Purple",
    "secondary_color": "Gold",
    "state": "WV",
    "timezone": "America/New_York",
    "updated_at": "2012-07-08T01:57:12Z",
    "zip": "26170"
  },
  {
    "address": "3317 Buffalo Rd",
    "city": "Buffalo",
    "county": "Putnam County",
    "created_at": "2012-01-04T20:18:24Z",
    "id": 26895,
    "latitude": "38.624241",
    "longitude": "-81.972496",
    "mascot": "Bison",
    "name": "Buffalo High School",
    "primary_color": "Gold",
    "secondary_color": "Navy",
    "state": "WV",
    "timezone": "America/New_York",
    "updated_at": "2012-07-08T01:57:12Z",
    "zip": "25033"
  },
  {
    "address": "3350 Teays Valley Rd",
    "city": "Hurricane",
    "county": "Putnam County",
    "created_at": "2012-01-04T20:18:25Z",
    "id": 26896,
    "latitude": "38.436567",
    "longitude": "-82.002402",
    "mascot": "Redskins",
    "name": "Hurricane High School",
    "primary_color": "Red",
    "secondary_color": "White",
    "state": "WV",
    "timezone": "America/New_York",
    "updated_at": "2012-07-08T01:57:13Z",
    "zip": "25526"
  },
  {
    "address": "Rt 1 Box 5 B",
    "city": "Poca",
    "county": "Putnam County",
    "created_at": "2012-01-04T20:18:25Z",
    "id": 26897,
    "latitude": "38.566206",
    "longitude": "-81.777113",
    "mascot": "Poca Dots",
    "name": "Poca High School",
    "primary_color": "Gray",
    "secondary_color": "Red",
    "state": "WV",
    "timezone": "America/New_York",
    "updated_at": "2012-07-08T01:57:13Z",
    "zip": "25159"
  },
  {
    "address": "3022 Winfield Rd",
    "city": "Winfield",
    "county": "Putnam County",
    "created_at": "2012-01-04T20:18:25Z",
    "id": 26898,
    "latitude": "38.473974",
    "longitude": "-81.832766",
    "mascot": "Generals",
    "name": "Winfield High School",
    "primary_color": "Kelly Green",
    "secondary_color": "White",
    "state": "WV",
    "timezone": "America/New_York",
    "updated_at": "2012-07-08T01:57:14Z",
    "zip": "25213"
  },
  {
    "address": "300 Hinton Rd",
    "city": "Shady Spring",
    "county": "Raleigh County",
    "created_at": "2012-01-04T20:18:25Z",
    "id": 26899,
    "latitude": "37.703378",
    "longitude": "-81.091533",
    "mascot": "Tigers",
    "name": "Shady Spring High School",
    "primary_color": "Gold",
    "secondary_color": "Navy",
    "state": "WV",
    "timezone": "America/New_York",
    "updated_at": "2012-07-08T01:57:14Z",
    "zip": "25918"
  },
  {
    "address": "Rt 33 E",
    "city": "Harman",
    "county": "Randolph County",
    "created_at": "2012-01-04T20:18:25Z",
    "id": 26900,
    "latitude": "38.921002",
    "longitude": "-79.522112",
    "mascot": "Panthers",
    "name": "Harman School",
    "primary_color": "Red",
    "secondary_color": "Black",
    "state": "WV",
    "timezone": "America/New_York",
    "updated_at": "2012-07-08T01:57:15Z",
    "zip": "26270"
  },
  {
    "address": "1 Panther Place",
    "city": "Pickens",
    "county": "Randolph County",
    "created_at": "2012-01-04T20:18:25Z",
    "id": 26901,
    "latitude": "38.686452",
    "longitude": "-80.212657",
    "mascot": "Panthers",
    "name": "Pickens School",
    "primary_color": "Royal",
    "secondary_color": "White",
    "state": "WV",
    "timezone": "America/New_York",
    "updated_at": "2012-07-08T01:57:15Z",
    "zip": "26230"
  },
  {
    "address": "Rt 219 250 S",
    "city": "Mill Creek",
    "county": "Randolph County",
    "created_at": "2012-01-04T20:18:25Z",
    "id": 26902,
    "latitude": "38.738282",
    "longitude": "-79.988727",
    "mascot": "Bulldogs",
    "name": "Tygarts Valley Middle High School",
    "primary_color": "Red",
    "secondary_color": "White",
    "state": "WV",
    "timezone": "America/New_York",
    "updated_at": "2012-07-08T01:57:16Z",
    "zip": "26280"
  },
  {
    "address": "107 School Rd",
    "city": "Ellenboro",
    "county": "Ritchie County",
    "created_at": "2012-01-04T20:18:25Z",
    "id": 26903,
    "latitude": "39.267865",
    "longitude": "-81.054525",
    "mascot": "Rebels",
    "name": "Ritchie County High School",
    "primary_color": "Navy",
    "secondary_color": "Gray",
    "state": "WV",
    "timezone": "America/New_York",
    "updated_at": "2012-07-08T01:57:16Z",
    "zip": "26346"
  },
  {
    "address": "1 Raider Way",
    "city": "Spencer",
    "county": "Roane County",
    "created_at": "2012-01-04T20:18:25Z",
    "id": 26904,
    "latitude": "38.796833",
    "longitude": "-81.340044",
    "mascot": "Raiders",
    "name": "Roane County High School",
    "primary_color": "Gray",
    "secondary_color": "Maroon",
    "state": "WV",
    "timezone": "America/New_York",
    "updated_at": "2012-07-08T01:57:16Z",
    "zip": "25276"
  },
  {
    "address": "400 Riverside Dr",
    "city": "Grafton",
    "county": "Taylor County",
    "created_at": "2012-01-04T20:18:25Z",
    "id": 26905,
    "latitude": "39.339062",
    "longitude": "-80.026208",
    "mascot": "Bear Cats",
    "name": "Grafton High School",
    "primary_color": "Gold",
    "secondary_color": "Royal",
    "state": "WV",
    "timezone": "America/New_York",
    "updated_at": "2012-07-08T01:57:17Z",
    "zip": "26354"
  },
  {
    "address": "Rt 1 Box 153",
    "city": "Hambleton",
    "county": "Tucker County",
    "created_at": "2012-01-04T20:18:25Z",
    "id": 26906,
    "latitude": "39.097724",
    "longitude": "-79.637581",
    "mascot": "Mountain Lions",
    "name": "Tucker County High School",
    "primary_color": "Gold",
    "secondary_color": "Black",
    "state": "WV",
    "timezone": "America/New_York",
    "updated_at": "2012-07-08T01:57:17Z",
    "zip": "26269"
  },
  {
    "address": "50 B-U Dr",
    "city": "Buckhannon",
    "county": "Upshur County",
    "created_at": "2012-01-04T20:18:25Z",
    "id": 26907,
    "latitude": "38.951974",
    "longitude": "-80.243538",
    "mascot": "Buccaneers",
    "name": "Buckhannon Upshur High School",
    "primary_color": "Royal",
    "secondary_color": "White",
    "state": "WV",
    "timezone": "America/New_York",
    "updated_at": "2012-07-08T01:57:18Z",
    "zip": "26201"
  },
  {
    "address": "1 Rebel Dr",
    "city": "Fort Gay",
    "county": "Wayne County",
    "created_at": "2012-01-04T20:18:25Z",
    "id": 26908,
    "latitude": "38.127720",
    "longitude": "-82.562846",
    "mascot": "Rebels",
    "name": "Tolsia High School",
    "primary_color": "Orange",
    "secondary_color": "Royal",
    "state": "WV",
    "timezone": "America/New_York",
    "updated_at": "2012-07-08T01:57:19Z",
    "zip": "25514"
  },
  {
    "address": "1 Highlander Dr",
    "city": "Upperglade",
    "county": "Webster County",
    "created_at": "2012-01-04T20:18:25Z",
    "id": 26909,
    "latitude": "38.406663",
    "longitude": "-80.507176",
    "mascot": "Highlanders",
    "name": "Webster County High School",
    "primary_color": "Red",
    "secondary_color": "Black",
    "state": "WV",
    "timezone": "America/New_York",
    "updated_at": "2012-07-08T01:57:19Z",
    "zip": "26266"
  },
  {
    "address": "Rt 250",
    "city": "Hundred",
    "county": "Wetzel County",
    "created_at": "2012-01-04T20:18:25Z",
    "id": 26910,
    "latitude": "39.688498",
    "longitude": "-80.462484",
    "mascot": "Hornets",
    "name": "Hundred High School",
    "primary_color": "Royal",
    "secondary_color": "White",
    "state": "WV",
    "timezone": "America/New_York",
    "updated_at": "2012-07-08T01:57:19Z",
    "zip": "26575"
  },
  {
    "address": "201 N 4th Ave",
    "city": "Paden City",
    "county": "Wetzel County",
    "created_at": "2012-01-04T20:18:25Z",
    "id": 26911,
    "latitude": "39.605172",
    "longitude": "-80.931667",
    "mascot": "Wildcats",
    "name": "Paden City Junior Senior High School",
    "primary_color": "Hunter Green",
    "secondary_color": "White",
    "state": "WV",
    "timezone": "America/New_York",
    "updated_at": "2012-07-08T01:57:21Z",
    "zip": "26159"
  },
  {
    "address": "791 Mulberry St",
    "city": "Elizabeth",
    "county": "Wirt County",
    "created_at": "2012-01-04T20:18:25Z",
    "id": 26912,
    "latitude": "39.063874",
    "longitude": "-81.393661",
    "mascot": "Tigers",
    "name": "Wirt County High School",
    "primary_color": "Orange",
    "secondary_color": "Black",
    "state": "WV",
    "timezone": "America/New_York",
    "updated_at": "2012-07-08T01:57:21Z",
    "zip": "26143"
  },
  {
    "address": "1201 Hillcrest St",
    "city": "Parkersburg",
    "county": "Wood County",
    "created_at": "2012-01-04T20:18:25Z",
    "id": 26913,
    "latitude": "39.232944",
    "longitude": "-81.532192",
    "mascot": "Eagles",
    "name": "Edison Junior High School",
    "primary_color": "Gold",
    "secondary_color": "Red",
    "state": "WV",
    "timezone": "America/New_York",
    "updated_at": "2012-07-08T01:57:22Z",
    "zip": "26101"
  },
  {
    "address": "918 31st St",
    "city": "Parkersburg",
    "county": "Wood County",
    "created_at": "2012-01-04T20:18:25Z",
    "id": 26914,
    "latitude": "39.287830",
    "longitude": "-81.543762",
    "mascot": "Blue Devils",
    "name": "Van Devender Junior High School",
    "primary_color": "Royal",
    "secondary_color": "White",
    "state": "WV",
    "timezone": "America/New_York",
    "updated_at": "2012-07-08T01:57:22Z",
    "zip": "26101"
  },
  {
    "address": "444 Jewell Rd",
    "city": "Parkersburg",
    "county": "Wood County",
    "created_at": "2012-01-04T20:18:25Z",
    "id": 26915,
    "latitude": "39.261563",
    "longitude": "-81.616819",
    "mascot": null,
    "name": "Blennerhassett Junior High School",
    "primary_color": "Columbia Blue",
    "secondary_color": "Red",
    "state": "WV",
    "timezone": "America/New_York",
    "updated_at": "2012-07-08T01:57:22Z",
    "zip": "26101"
  },
  {
    "address": "Scott Ridge Rd",
    "city": "Beaver",
    "county": "Raleigh County",
    "created_at": "2012-01-04T20:18:25Z",
    "id": 26916,
    "latitude": "37.763925",
    "longitude": "-81.110519",
    "mascot": "Saints",
    "name": "Victory Baptist Academy",
    "primary_color": "Maroon",
    "secondary_color": "White",
    "state": "WV",
    "timezone": "America/New_York",
    "updated_at": "2012-07-08T01:57:23Z",
    "zip": "25813"
  },
  {
    "address": "PO Box 1246 Drawer B",
    "city": "Oak Hill",
    "county": "Fayette County",
    "created_at": "2012-01-04T20:18:25Z",
    "id": 26917,
    "latitude": "37.979081",
    "longitude": "-81.142696",
    "mascot": null,
    "name": "Mountain View Christian School",
    "primary_color": null,
    "secondary_color": null,
    "state": "WV",
    "timezone": "America/New_York",
    "updated_at": "2012-07-08T01:57:23Z",
    "zip": "25901"
  },
  {
    "address": "400 Preston Dr",
    "city": "Kingwood",
    "county": "Preston County",
    "created_at": "2012-01-04T20:18:25Z",
    "id": 26918,
    "latitude": "39.461520",
    "longitude": "-79.680207",
    "mascot": "Knights",
    "name": "Preston High School",
    "primary_color": "Gray",
    "secondary_color": "Black",
    "state": "WV",
    "timezone": "America/New_York",
    "updated_at": "2012-07-08T01:57:24Z",
    "zip": "26537"
  },
  {
    "address": "18972 Pond Fork Rd",
    "city": "Van",
    "county": "Boone County",
    "created_at": "2012-01-04T20:18:25Z",
    "id": 26919,
    "latitude": "37.970833",
    "longitude": "-81.710782",
    "mascot": "Warriors",
    "name": "Christian Faith Academy",
    "primary_color": "Gold",
    "secondary_color": "Purple",
    "state": "WV",
    "timezone": "America/New_York",
    "updated_at": "2012-07-08T01:57:24Z",
    "zip": "25206"
  },
  {
    "address": "12721 McCorkle Ave",
    "city": "Chesapeake",
    "county": "Kanawha County",
    "created_at": "2012-01-04T20:18:25Z",
    "id": 26920,
    "latitude": "38.222170",
    "longitude": "-81.534569",
    "mascot": "Eagles",
    "name": "Upper Kanawhia Valley Christian School",
    "primary_color": "Red",
    "secondary_color": "Black",
    "state": "WV",
    "timezone": "America/New_York",
    "updated_at": "2012-07-08T01:57:24Z",
    "zip": "25315"
  },
  {
    "address": "Rt 7",
    "city": "Davy",
    "county": "McDowell County",
    "created_at": "2012-01-04T20:18:25Z",
    "id": 26921,
    "latitude": "37.475719",
    "longitude": "-81.652166",
    "mascot": null,
    "name": "Twin Branch Pentecostal Christian",
    "primary_color": "Columbia Blue",
    "secondary_color": "Navy",
    "state": "WV",
    "timezone": "America/New_York",
    "updated_at": "2012-07-08T01:57:25Z",
    "zip": "24828"
  },
  {
    "address": "2300 Rt 60 E",
    "city": "Ona",
    "county": "Cabell County",
    "created_at": "2012-01-04T20:18:25Z",
    "id": 26922,
    "latitude": "38.427056",
    "longitude": "-82.205987",
    "mascot": "Knights",
    "name": "Cabell Midland High School",
    "primary_color": "Red",
    "secondary_color": "Gray",
    "state": "WV",
    "timezone": "America/New_York",
    "updated_at": "2012-07-08T01:57:25Z",
    "zip": "25545"
  },
  {
    "address": "Rt 1 Box 150",
    "city": "Ronceverte",
    "county": "Greenbrier County",
    "created_at": "2012-01-04T20:18:25Z",
    "id": 26923,
    "latitude": "37.744674",
    "longitude": "-80.487515",
    "mascot": "Knights",
    "name": "Eastern Greenbrier Junior High School",
    "primary_color": "Teal",
    "secondary_color": "Purple",
    "state": "WV",
    "timezone": "America/New_York",
    "updated_at": "2012-07-08T01:57:25Z",
    "zip": "24970"
  },
  {
    "address": "Rt 5 Box 697",
    "city": "Clarksburg",
    "county": "Harrison County",
    "created_at": "2012-01-04T20:18:25Z",
    "id": 26924,
    "latitude": "39.333880",
    "longitude": "-80.444417",
    "mascot": null,
    "name": "Pressley Ridge School",
    "primary_color": null,
    "secondary_color": null,
    "state": "WV",
    "timezone": "America/New_York",
    "updated_at": "2012-07-08T01:57:26Z",
    "zip": "26301"
  },
  {
    "address": "3566 Eads Mill Rd",
    "city": "Princeton",
    "county": "Mercer County",
    "created_at": "2012-01-04T20:18:25Z",
    "id": 26925,
    "latitude": "37.428148",
    "longitude": "-81.063575",
    "mascot": "Panthers",
    "name": "Pikeview High School",
    "primary_color": "Red",
    "secondary_color": "Black",
    "state": "WV",
    "timezone": "America/New_York",
    "updated_at": "2012-07-08T01:57:27Z",
    "zip": "24740"
  },
  {
    "address": "801 Alderson St",
    "city": "Williamson",
    "county": "Mingo County",
    "created_at": "2012-01-04T20:18:25Z",
    "id": 26926,
    "latitude": "37.677747",
    "longitude": "-82.272131",
    "mascot": "Wolfpack",
    "name": "Williamson High School",
    "primary_color": "Maroon",
    "secondary_color": "White",
    "state": "WV",
    "timezone": "America/New_York",
    "updated_at": "2012-07-08T01:57:27Z",
    "zip": "25661"
  },
  {
    "address": "Rt 1 Box 97 1A",
    "city": "Lindside",
    "county": "Monroe County",
    "created_at": "2012-01-04T20:18:25Z",
    "id": 26927,
    "latitude": "37.478625",
    "longitude": "-80.629136",
    "mascot": "Mavericks",
    "name": "James Monroe High School",
    "primary_color": "Purple",
    "secondary_color": "Black",
    "state": "WV",
    "timezone": "America/New_York",
    "updated_at": "2012-07-08T01:57:28Z",
    "zip": "24951"
  },
  {
    "address": "113 W 9th St",
    "city": "Williamstown",
    "county": "Wood County",
    "created_at": "2012-01-04T20:18:25Z",
    "id": 26928,
    "latitude": "39.396078",
    "longitude": "-81.448879",
    "mascot": "Wildcats",
    "name": "Wood County Christian School",
    "primary_color": "Gold",
    "secondary_color": "Purple",
    "state": "WV",
    "timezone": "America/New_York",
    "updated_at": "2012-07-08T01:57:28Z",
    "zip": "26187"
  },
  {
    "address": "One Eagle Way",
    "city": "Clarksburg",
    "county": "Harrison County",
    "created_at": "2012-01-04T20:18:25Z",
    "id": 26929,
    "latitude": "39.265826",
    "longitude": "-80.351587",
    "mascot": "Eagles",
    "name": "Robert C Byrd High School",
    "primary_color": "Royal",
    "secondary_color": "Kelly Green",
    "state": "WV",
    "timezone": "America/New_York",
    "updated_at": "2012-07-08T01:57:29Z",
    "zip": "26301"
  },
  {
    "address": "Rt 1 Box 97",
    "city": "Lindside",
    "county": "Monroe County",
    "created_at": "2012-01-04T20:18:25Z",
    "id": 26930,
    "latitude": "37.478625",
    "longitude": "-80.629136",
    "mascot": null,
    "name": "Monroe County Technical Center",
    "primary_color": null,
    "secondary_color": null,
    "state": "WV",
    "timezone": "America/New_York",
    "updated_at": "2012-07-08T01:57:29Z",
    "zip": "24951"
  },
  {
    "address": "401 Pierpont St",
    "city": "Petersburg",
    "county": "Grant County",
    "created_at": "2012-01-04T20:18:25Z",
    "id": 26931,
    "latitude": "39.000637",
    "longitude": "-79.120516",
    "mascot": null,
    "name": "South Branch Vocational Technical Center",
    "primary_color": null,
    "secondary_color": null,
    "state": "WV",
    "timezone": "America/New_York",
    "updated_at": "2012-07-08T01:57:30Z",
    "zip": "26847"
  },
  {
    "address": "1035 Norway Ave",
    "city": "Huntington",
    "county": "Cabell County",
    "created_at": "2012-01-04T20:18:25Z",
    "id": 26932,
    "latitude": "38.406057",
    "longitude": "-82.375142",
    "mascot": null,
    "name": "Cabell County Vocational Technical",
    "primary_color": null,
    "secondary_color": null,
    "state": "WV",
    "timezone": "America/New_York",
    "updated_at": "2012-07-08T01:57:30Z",
    "zip": "25705"
  },
  {
    "address": "HCR 72 Box 200",
    "city": "Pineville",
    "county": "Wyoming County",
    "created_at": "2012-01-04T20:18:25Z",
    "id": 26933,
    "latitude": "37.578652",
    "longitude": "-81.534255",
    "mascot": null,
    "name": "Wyoming Career And Technical Center",
    "primary_color": "Purple",
    "secondary_color": "White",
    "state": "WV",
    "timezone": "America/New_York",
    "updated_at": "2012-07-08T01:57:31Z",
    "zip": "24874"
  },
  {
    "address": "4800 Spencer Rd",
    "city": "Leroy",
    "county": "Jackson County",
    "created_at": "2012-01-04T20:18:25Z",
    "id": 26934,
    "latitude": "38.964988",
    "longitude": "-81.581142",
    "mascot": null,
    "name": "Roane Jackson Technical Center",
    "primary_color": null,
    "secondary_color": null,
    "state": "WV",
    "timezone": "America/New_York",
    "updated_at": "2012-07-08T01:57:31Z",
    "zip": "25252"
  },
  {
    "address": "Rt 2 Box 52A",
    "city": "Delbarton",
    "county": "Mingo County",
    "created_at": "2012-01-04T20:18:25Z",
    "id": 26935,
    "latitude": "37.673817",
    "longitude": "-82.171837",
    "mascot": null,
    "name": "Mingo County Vocational Technical Center",
    "primary_color": null,
    "secondary_color": null,
    "state": "WV",
    "timezone": "America/New_York",
    "updated_at": "2012-07-08T01:57:32Z",
    "zip": "25670"
  },
  {
    "address": "2 North Marion Dr",
    "city": "Farmington",
    "county": "Marion County",
    "created_at": "2012-01-04T20:18:25Z",
    "id": 26936,
    "latitude": "39.511383",
    "longitude": "-80.257626",
    "mascot": null,
    "name": "Marion County Technical Center",
    "primary_color": "Gold",
    "secondary_color": "Red",
    "state": "WV",
    "timezone": "America/New_York",
    "updated_at": "2012-07-08T01:57:32Z",
    "zip": "26571"
  },
  {
    "address": "Three Mile Curve",
    "city": "Logan",
    "county": "Logan County",
    "created_at": "2012-01-04T20:18:25Z",
    "id": 26937,
    "latitude": "37.838726",
    "longitude": "-82.004093",
    "mascot": null,
    "name": "Ralph R Willis Vocational School",
    "primary_color": null,
    "secondary_color": null,
    "state": "WV",
    "timezone": "America/New_York",
    "updated_at": "2012-07-08T01:57:33Z",
    "zip": "25601"
  },
  {
    "address": "Rd 4 Box 500",
    "city": "New Cumberland",
    "county": "Hancock County",
    "created_at": "2012-01-04T20:18:25Z",
    "id": 26938,
    "latitude": "40.525613",
    "longitude": "-80.592393",
    "mascot": null,
    "name": "John D Rockefeller IV Career Center",
    "primary_color": "Teal",
    "secondary_color": "Fuchsia",
    "state": "WV",
    "timezone": "America/New_York",
    "updated_at": "2012-07-08T01:57:34Z",
    "zip": "26047"
  },
  {
    "address": "215 Milam Addition Rd",
    "city": "Craigsville",
    "county": "Nicholas County",
    "created_at": "2012-01-04T20:18:25Z",
    "id": 26939,
    "latitude": "38.326474",
    "longitude": "-80.649984",
    "mascot": null,
    "name": "Nicholas County Career & Tech Center",
    "primary_color": null,
    "secondary_color": null,
    "state": "WV",
    "timezone": "America/New_York",
    "updated_at": "2012-07-08T01:57:34Z",
    "zip": "26205"
  },
  {
    "address": "1515 Blizzard Dr",
    "city": "Parkersburg",
    "county": "Wood County",
    "created_at": "2012-01-04T20:18:25Z",
    "id": 26940,
    "latitude": "39.243363",
    "longitude": "-81.551066",
    "mascot": null,
    "name": "Wood County Technical Center",
    "primary_color": "Gold",
    "secondary_color": "Hunter Green",
    "state": "WV",
    "timezone": "America/New_York",
    "updated_at": "2012-07-08T01:57:34Z",
    "zip": "26101"
  },
  {
    "address": "300 W Oiler Ave",
    "city": "Oak Hill",
    "county": "Fayette County",
    "created_at": "2012-01-04T20:18:25Z",
    "id": 26941,
    "latitude": "37.989377",
    "longitude": "-81.147409",
    "mascot": null,
    "name": "Fayettville Institute of Technology",
    "primary_color": "Purple",
    "secondary_color": "White",
    "state": "WV",
    "timezone": "America/New_York",
    "updated_at": "2012-07-08T01:57:35Z",
    "zip": "25901"
  },
  {
    "address": "115 Luby St",
    "city": "Grafton",
    "county": "Taylor County",
    "created_at": "2012-01-04T20:18:25Z",
    "id": 26942,
    "latitude": "39.336936",
    "longitude": "-80.033197",
    "mascot": null,
    "name": "Taylor County Technical Center",
    "primary_color": "Royal",
    "secondary_color": "White",
    "state": "WV",
    "timezone": "America/New_York",
    "updated_at": "2012-07-08T01:57:36Z",
    "zip": "26354"
  },
  {
    "address": "PO Box 457",
    "city": "Smithers",
    "county": "Fayette County",
    "created_at": "2012-01-04T20:18:25Z",
    "id": 26943,
    "latitude": "38.175650",
    "longitude": "-81.305479",
    "mascot": null,
    "name": "Valley Vocational Technical Center",
    "primary_color": "Royal",
    "secondary_color": "Gray",
    "state": "WV",
    "timezone": "America/New_York",
    "updated_at": "2012-07-08T01:57:37Z",
    "zip": "25186"
  },
  {
    "address": "600 Harley O Staggers Sr Dr",
    "city": "Keyser",
    "county": "Mineral County",
    "created_at": "2012-01-04T20:18:25Z",
    "id": 26944,
    "latitude": "39.429360",
    "longitude": "-78.985383",
    "mascot": null,
    "name": "Mineral County Technical Center",
    "primary_color": "Royal",
    "secondary_color": "Gold",
    "state": "WV",
    "timezone": "America/New_York",
    "updated_at": "2012-07-08T01:57:37Z",
    "zip": "26726"
  },
  {
    "address": "1 Rebel Dr",
    "city": "Fort Gay",
    "county": "Wayne County",
    "created_at": "2012-01-04T20:18:25Z",
    "id": 26945,
    "latitude": "38.127720",
    "longitude": "-82.562846",
    "mascot": "Rebels",
    "name": "Wayne County South Vocational Technical",
    "primary_color": "Royal",
    "secondary_color": "Orange",
    "state": "WV",
    "timezone": "America/New_York",
    "updated_at": "2012-07-08T01:57:38Z",
    "zip": "25514"
  },
  {
    "address": "Ohio River Rd",
    "city": "Point Pleasant",
    "county": "Mason County",
    "created_at": "2012-01-04T20:18:25Z",
    "id": 26946,
    "latitude": "38.902060",
    "longitude": "-82.122117",
    "mascot": null,
    "name": "Mason County Vocational Technical Center",
    "primary_color": "Royal",
    "secondary_color": "Gold",
    "state": "WV",
    "timezone": "America/New_York",
    "updated_at": "2012-07-08T01:57:38Z",
    "zip": "25550"
  },
  {
    "address": "PO Box 640",
    "city": "Eleanor",
    "county": "Putnam County",
    "created_at": "2012-01-04T20:18:25Z",
    "id": 26947,
    "latitude": "38.538209",
    "longitude": "-81.928439",
    "mascot": null,
    "name": "Putnam Vocational Technical School",
    "primary_color": null,
    "secondary_color": null,
    "state": "WV",
    "timezone": "America/New_York",
    "updated_at": "2012-07-08T01:57:39Z",
    "zip": "25070"
  },
  {
    "address": "390 Stanaford Rd",
    "city": "Beckley",
    "county": "Raleigh County",
    "created_at": "2012-01-04T20:18:25Z",
    "id": 26948,
    "latitude": "37.799980",
    "longitude": "-81.168451",
    "mascot": "Electric Cars",
    "name": "Academy Of Careers & Technology",
    "primary_color": "Black",
    "secondary_color": "Gold",
    "state": "WV",
    "timezone": "America/New_York",
    "updated_at": "2012-07-08T01:57:39Z",
    "zip": "25801"
  },
  {
    "address": "1397 Stafford Dr",
    "city": "Princeton",
    "county": "Mercer County",
    "created_at": "2012-01-04T20:18:25Z",
    "id": 26949,
    "latitude": "37.360548",
    "longitude": "-81.104768",
    "mascot": null,
    "name": "Mercer County Technical Education Center",
    "primary_color": null,
    "secondary_color": null,
    "state": "WV",
    "timezone": "America/New_York",
    "updated_at": "2012-07-08T01:57:40Z",
    "zip": "24740"
  },
  {
    "address": "100 Kennedy Dr",
    "city": "Elkins",
    "county": "Randolph County",
    "created_at": "2012-01-04T20:18:25Z",
    "id": 26950,
    "latitude": "38.943179",
    "longitude": "-79.853260",
    "mascot": "Tigers",
    "name": "Elkins High School",
    "primary_color": "Orange",
    "secondary_color": "Black",
    "state": "WV",
    "timezone": "America/New_York",
    "updated_at": "2012-07-08T01:57:40Z",
    "zip": "26241"
  },
  {
    "address": "1 Timberwolf Dr",
    "city": "Huntington",
    "county": "Wayne County",
    "created_at": "2012-01-04T20:18:25Z",
    "id": 26951,
    "latitude": "38.377935",
    "longitude": "-82.529055",
    "mascot": "Timberwolves",
    "name": "Spring Valley High School",
    "primary_color": "Columbia Blue",
    "secondary_color": "White",
    "state": "WV",
    "timezone": "America/New_York",
    "updated_at": "2012-07-08T01:57:41Z",
    "zip": "25704"
  },
  {
    "address": "Hwy 52S",
    "city": "Delbarton",
    "county": "Mingo County",
    "created_at": "2012-01-04T20:18:25Z",
    "id": 26952,
    "latitude": "37.673817",
    "longitude": "-82.171837",
    "mascot": null,
    "name": "Regional Christian School",
    "primary_color": null,
    "secondary_color": null,
    "state": "WV",
    "timezone": "America/New_York",
    "updated_at": "2012-07-08T01:57:41Z",
    "zip": "25670"
  },
  {
    "address": "HC 81 Box 50B",
    "city": "Danville",
    "county": "Boone County",
    "created_at": "2012-01-04T20:18:25Z",
    "id": 26953,
    "latitude": "38.044597",
    "longitude": "-81.849034",
    "mascot": null,
    "name": "Boone Career Technology Center",
    "primary_color": null,
    "secondary_color": null,
    "state": "WV",
    "timezone": "America/New_York",
    "updated_at": "2012-07-08T01:57:42Z",
    "zip": "25053"
  },
  {
    "address": "147 Maple Ave",
    "city": "Franklin",
    "county": "Pendleton County",
    "created_at": "2012-01-04T20:18:25Z",
    "id": 26954,
    "latitude": "38.649387",
    "longitude": "-79.327258",
    "mascot": "Wildcats",
    "name": "Pendleton County Middle High School",
    "primary_color": "Royal",
    "secondary_color": "White",
    "state": "WV",
    "timezone": "America/New_York",
    "updated_at": "2012-07-08T01:57:43Z",
    "zip": "26807"
  },
  {
    "address": "2300 Lincoln Ave",
    "city": "Point Pleasant",
    "county": "Mason County",
    "created_at": "2012-01-04T20:18:25Z",
    "id": 26955,
    "latitude": "38.865503",
    "longitude": "-82.130065",
    "mascot": null,
    "name": "Wesleyan Holiness Academy",
    "primary_color": null,
    "secondary_color": null,
    "state": "WV",
    "timezone": "America/New_York",
    "updated_at": "2012-07-08T01:57:43Z",
    "zip": "25550"
  },
  {
    "address": "Rt 26 Box 457",
    "city": "Kingwood",
    "county": "Preston County",
    "created_at": "2012-01-04T20:18:25Z",
    "id": 26956,
    "latitude": "39.470593",
    "longitude": "-79.673777",
    "mascot": null,
    "name": "Integrity Christian School",
    "primary_color": null,
    "secondary_color": null,
    "state": "WV",
    "timezone": "America/New_York",
    "updated_at": "2012-07-08T01:57:44Z",
    "zip": "26537"
  },
  {
    "address": "200 Trinity Way",
    "city": "Morgantown",
    "county": "Monongalia County",
    "created_at": "2012-01-04T20:18:25Z",
    "id": 26957,
    "latitude": "39.620079",
    "longitude": "-79.916092",
    "mascot": "Warriors",
    "name": "Trinity Christian School",
    "primary_color": "Red",
    "secondary_color": "Gold",
    "state": "WV",
    "timezone": "America/New_York",
    "updated_at": "2012-07-08T01:57:44Z",
    "zip": "26505"
  }
]