[
  {
    "address": "1476 Broadway",
    "city": "Bangor",
    "county": "Penobscot County",
    "created_at": "2012-01-04T20:15:08Z",
    "id": 11181,
    "latitude": "44.845300",
    "longitude": "-68.800266",
    "mascot": "Patriots",
    "name": "Bangor Christian School",
    "primary_color": "Royal",
    "secondary_color": "White",
    "state": "ME",
    "timezone": "America/New_York",
    "updated_at": "2012-07-08T00:06:21Z",
    "zip": "04401"
  },
  {
    "address": "476 Summit St",
    "city": "Portland",
    "county": "Cumberland County",
    "created_at": "2012-01-04T20:15:08Z",
    "id": 11182,
    "latitude": "43.718440",
    "longitude": "-70.296242",
    "mascot": "Lions",
    "name": "Grace Baptist Church School",
    "primary_color": "Red",
    "secondary_color": "White",
    "state": "ME",
    "timezone": "America/New_York",
    "updated_at": "2012-07-08T00:06:21Z",
    "zip": "04103"
  },
  {
    "address": "142 Main St",
    "city": "Hope",
    "county": "Knox County",
    "created_at": "2012-01-04T20:15:08Z",
    "id": 11183,
    "latitude": "44.214869",
    "longitude": "-69.189961",
    "mascot": "Lions",
    "name": "South Hope Christian School",
    "primary_color": "Gold",
    "secondary_color": "Royal",
    "state": "ME",
    "timezone": "America/New_York",
    "updated_at": "2012-07-08T00:06:21Z",
    "zip": "04847"
  },
  {
    "address": "922 Dyerbrook Rd",
    "city": "Dyerbrook",
    "county": "Aroostook County",
    "created_at": "2012-01-04T20:15:08Z",
    "id": 11184,
    "latitude": "46.085260",
    "longitude": "-68.181637",
    "mascot": "Warriors",
    "name": "Southern Aroostook School",
    "primary_color": "Purple",
    "secondary_color": "White",
    "state": "ME",
    "timezone": "America/New_York",
    "updated_at": "2012-07-08T00:06:22Z",
    "zip": "04747"
  },
  {
    "address": "26 Winn Rd",
    "city": "Lee",
    "county": "Penobscot County",
    "created_at": "2012-01-04T20:15:08Z",
    "id": 11185,
    "latitude": "45.361664",
    "longitude": "-68.285775",
    "mascot": "Pandas",
    "name": "Lee Academy",
    "primary_color": "Royal",
    "secondary_color": "Gray",
    "state": "ME",
    "timezone": "America/New_York",
    "updated_at": "2012-07-08T00:06:22Z",
    "zip": "04455"
  },
  {
    "address": "606 Main St",
    "city": "Jackman",
    "county": "Somerset County",
    "created_at": "2012-01-04T20:15:08Z",
    "id": 11186,
    "latitude": "45.638332",
    "longitude": "-70.262081",
    "mascot": "Tigers",
    "name": "Forest Hills Consolidated School",
    "primary_color": "Orange",
    "secondary_color": "Black",
    "state": "ME",
    "timezone": "America/New_York",
    "updated_at": "2012-07-08T00:06:22Z",
    "zip": "04945"
  },
  {
    "address": "Rt 2 & 4",
    "city": "Wilton",
    "county": "Franklin County",
    "created_at": "2012-01-04T20:15:08Z",
    "id": 11187,
    "latitude": "44.583420",
    "longitude": "-70.369229",
    "mascot": null,
    "name": "Calvary Hill Christian School",
    "primary_color": "Maroon",
    "secondary_color": "White",
    "state": "ME",
    "timezone": "America/New_York",
    "updated_at": "2012-07-08T00:06:22Z",
    "zip": "04294"
  },
  {
    "address": "975 W Main St",
    "city": "Dover Foxcroft",
    "county": "Piscataquis County",
    "created_at": "2012-01-04T20:15:08Z",
    "id": 11188,
    "latitude": "45.185053",
    "longitude": "-69.245488",
    "mascot": "Ponies",
    "name": "Foxcroft Academy",
    "primary_color": "Maroon",
    "secondary_color": "White",
    "state": "ME",
    "timezone": "America/New_York",
    "updated_at": "2012-07-08T00:06:23Z",
    "zip": "04426"
  },
  {
    "address": "20 Church St",
    "city": "Searsport",
    "county": "Waldo County",
    "created_at": "2012-01-04T20:15:08Z",
    "id": 11189,
    "latitude": "44.461101",
    "longitude": "-68.925621",
    "mascot": "Vikings",
    "name": "Searsport High School",
    "primary_color": "Royal",
    "secondary_color": "White",
    "state": "ME",
    "timezone": "America/New_York",
    "updated_at": "2012-07-08T00:06:23Z",
    "zip": "04974"
  },
  {
    "address": "Rt 1",
    "city": "Harrington",
    "county": "Washington County",
    "created_at": "2012-01-04T20:15:08Z",
    "id": 11190,
    "latitude": "44.625983",
    "longitude": "-67.788977",
    "mascot": "Knights",
    "name": "Narraguagus High School",
    "primary_color": "White",
    "secondary_color": "Maroon",
    "state": "ME",
    "timezone": "America/New_York",
    "updated_at": "2012-07-08T00:06:23Z",
    "zip": "04643"
  },
  {
    "address": "49 Fairview Ave",
    "city": "Skowhegan",
    "county": "Somerset County",
    "created_at": "2012-01-04T20:15:08Z",
    "id": 11191,
    "latitude": "44.758456",
    "longitude": "-69.713635",
    "mascot": "Flames",
    "name": "Faith Baptist Christian School",
    "primary_color": "Maroon",
    "secondary_color": "Gold",
    "state": "ME",
    "timezone": "America/New_York",
    "updated_at": "2012-07-08T00:06:24Z",
    "zip": "04976"
  },
  {
    "address": "1359 Main St",
    "city": "Washburn",
    "county": "Aroostook County",
    "created_at": "2012-01-04T20:15:08Z",
    "id": 11192,
    "latitude": "46.792274",
    "longitude": "-68.151381",
    "mascot": "Beavers",
    "name": "Washburn District High School",
    "primary_color": "Royal",
    "secondary_color": "Gold",
    "state": "ME",
    "timezone": "America/New_York",
    "updated_at": "2012-07-08T00:06:24Z",
    "zip": "04786"
  },
  {
    "address": "555 Lisbon Street",
    "city": "Lisbon Falls",
    "county": "Androscoggin County",
    "created_at": "2012-01-04T20:15:08Z",
    "id": 11193,
    "latitude": "44.005881",
    "longitude": "-70.077285",
    "mascot": "Vikings",
    "name": "Lisbon Falls Christian Academy",
    "primary_color": "Gold",
    "secondary_color": "Royal",
    "state": "ME",
    "timezone": "America/New_York",
    "updated_at": "2012-07-08T00:06:24Z",
    "zip": "04252"
  },
  {
    "address": "High St",
    "city": "East Machias",
    "county": "Washington County",
    "created_at": "2012-01-04T20:15:08Z",
    "id": 11194,
    "latitude": "44.763805",
    "longitude": "-67.372080",
    "mascot": "Raiders",
    "name": "Washington Academy",
    "primary_color": "Maroon",
    "secondary_color": "White",
    "state": "ME",
    "timezone": "America/New_York",
    "updated_at": "2012-07-08T00:06:24Z",
    "zip": "04630"
  },
  {
    "address": "20 N Main St",
    "city": "Turner",
    "county": "Androscoggin County",
    "created_at": "2012-01-04T20:15:09Z",
    "id": 11195,
    "latitude": "44.257792",
    "longitude": "-70.256743",
    "mascot": "Swordsmen",
    "name": "Calvary Christian Academy",
    "primary_color": "Red",
    "secondary_color": "Black",
    "state": "ME",
    "timezone": "America/New_York",
    "updated_at": "2012-07-08T00:06:24Z",
    "zip": "04282"
  },
  {
    "address": "Rt 119",
    "city": "Hebron",
    "county": "Oxford County",
    "created_at": "2012-01-04T20:15:09Z",
    "id": 11196,
    "latitude": "44.196960",
    "longitude": "-70.405824",
    "mascot": "Lumber Jacks",
    "name": "Hebron Academy",
    "primary_color": "Kelly Green",
    "secondary_color": "White",
    "state": "ME",
    "timezone": "America/New_York",
    "updated_at": "2012-07-08T00:06:25Z",
    "zip": "04238"
  },
  {
    "address": "121 Gracelawn Rd",
    "city": "Auburn",
    "county": "Androscoggin County",
    "created_at": "2012-01-04T20:15:09Z",
    "id": 11197,
    "latitude": "44.126493",
    "longitude": "-70.233274",
    "mascot": "Saints",
    "name": "Saint Dominic Regional High School",
    "primary_color": "Black",
    "secondary_color": "White",
    "state": "ME",
    "timezone": "America/New_York",
    "updated_at": "2012-07-08T00:06:25Z",
    "zip": "04210"
  },
  {
    "address": "284 Walkers Mills Rd",
    "city": "Bethel",
    "county": "Oxford County",
    "created_at": "2012-01-04T20:15:09Z",
    "id": 11198,
    "latitude": "44.417772",
    "longitude": "-70.768170",
    "mascot": "Yosemite Sams",
    "name": "Telstar Regional Middle/High School",
    "primary_color": "Navy",
    "secondary_color": "White",
    "state": "ME",
    "timezone": "America/New_York",
    "updated_at": "2012-07-08T00:06:25Z",
    "zip": "04217"
  },
  {
    "address": "591 Lisbon Rd",
    "city": "Lisbon Falls",
    "county": "Androscoggin County",
    "created_at": "2012-01-04T20:15:09Z",
    "id": 11199,
    "latitude": "44.003418",
    "longitude": "-70.069913",
    "mascot": "Greyhounds",
    "name": "Lisbon High School",
    "primary_color": "Red",
    "secondary_color": "Black",
    "state": "ME",
    "timezone": "America/New_York",
    "updated_at": "2012-07-08T00:06:26Z",
    "zip": "04252"
  },
  {
    "address": "16 Fort St",
    "city": "Presque Isle",
    "county": "Aroostook County",
    "created_at": "2012-01-04T20:15:09Z",
    "id": 11200,
    "latitude": "46.693339",
    "longitude": "-67.995989",
    "mascot": "Wildcats",
    "name": "Presque Isle High School",
    "primary_color": "Navy",
    "secondary_color": "White",
    "state": "ME",
    "timezone": "America/New_York",
    "updated_at": "2012-07-08T00:06:26Z",
    "zip": "04769"
  },
  {
    "address": "84 Pleasant St",
    "city": "Fort Kent",
    "county": "Aroostook County",
    "created_at": "2012-01-04T20:15:09Z",
    "id": 11201,
    "latitude": "47.248396",
    "longitude": "-68.585680",
    "mascot": "Warriors",
    "name": "Fort Kent Community High School",
    "primary_color": "White",
    "secondary_color": "Hunter Green",
    "state": "ME",
    "timezone": "America/New_York",
    "updated_at": "2012-07-08T00:06:26Z",
    "zip": "04743"
  },
  {
    "address": "7 Bird St",
    "city": "Houlton",
    "county": "Aroostook County",
    "created_at": "2012-01-04T20:15:09Z",
    "id": 11202,
    "latitude": "46.127085",
    "longitude": "-67.826820",
    "mascot": "Penguins",
    "name": "Houlton High School",
    "primary_color": "Black",
    "secondary_color": "White",
    "state": "ME",
    "timezone": "America/New_York",
    "updated_at": "2012-07-08T00:06:26Z",
    "zip": "04730"
  },
  {
    "address": "73 Eagles Way",
    "city": "Topsham",
    "county": "Sagadahoc County",
    "created_at": "2012-01-04T20:15:09Z",
    "id": 11203,
    "latitude": "43.942721",
    "longitude": "-69.962912",
    "mascot": "Eagels",
    "name": "Mount Ararat High School",
    "primary_color": "Royal",
    "secondary_color": "White",
    "state": "ME",
    "timezone": "America/New_York",
    "updated_at": "2012-07-08T00:06:26Z",
    "zip": "04086"
  },
  {
    "address": "406 Gray Rd",
    "city": "Windham",
    "county": "Cumberland County",
    "created_at": "2012-01-04T20:15:09Z",
    "id": 11204,
    "latitude": "43.784747",
    "longitude": "-70.412854",
    "mascot": "Eagles",
    "name": "Windham High School",
    "primary_color": "Maroon",
    "secondary_color": "White",
    "state": "ME",
    "timezone": "America/New_York",
    "updated_at": "2012-07-08T00:06:27Z",
    "zip": "04062"
  },
  {
    "address": "345 Ocean House Rd",
    "city": "Cape Elizabeth",
    "county": "Cumberland County",
    "created_at": "2012-01-04T20:15:09Z",
    "id": 11205,
    "latitude": "43.591925",
    "longitude": "-70.226655",
    "mascot": null,
    "name": "Cape Elizabeth High School",
    "primary_color": "Maroon",
    "secondary_color": "White",
    "state": "ME",
    "timezone": "America/New_York",
    "updated_at": "2012-07-08T00:06:27Z",
    "zip": "04107"
  },
  {
    "address": "41 Morrill Ave",
    "city": "Gorham",
    "county": "Cumberland County",
    "created_at": "2012-01-04T20:15:09Z",
    "id": 11206,
    "latitude": "43.674133",
    "longitude": "-70.444282",
    "mascot": "Gorham Rams",
    "name": "Gorham High School",
    "primary_color": "Maroon",
    "secondary_color": "White",
    "state": "ME",
    "timezone": "America/New_York",
    "updated_at": "2012-07-08T00:06:27Z",
    "zip": "04038"
  },
  {
    "address": "129 Seamon Rd Box 2580",
    "city": "Farmington",
    "county": "Franklin County",
    "created_at": "2012-01-04T20:15:09Z",
    "id": 11207,
    "latitude": "44.638946",
    "longitude": "-70.129848",
    "mascot": "Cougars",
    "name": "Mount Blue High School",
    "primary_color": "Navy",
    "secondary_color": "Gold",
    "state": "ME",
    "timezone": "America/New_York",
    "updated_at": "2012-07-08T00:06:27Z",
    "zip": "04938"
  },
  {
    "address": "299 State St",
    "city": "Ellsworth",
    "county": "Hancock County",
    "created_at": "2012-01-04T20:15:09Z",
    "id": 11208,
    "latitude": "44.554231",
    "longitude": "-68.430871",
    "mascot": "Eagles",
    "name": "Ellsworth High School",
    "primary_color": "Gray",
    "secondary_color": "Maroon",
    "state": "ME",
    "timezone": "America/New_York",
    "updated_at": "2012-07-08T00:06:28Z",
    "zip": "04605"
  },
  {
    "address": "102 Broadway",
    "city": "Bucksport",
    "county": "Hancock County",
    "created_at": "2012-01-04T20:15:09Z",
    "id": 11209,
    "latitude": "44.575561",
    "longitude": "-68.780440",
    "mascot": "Bucks",
    "name": "Bucksport High School",
    "primary_color": "Purple",
    "secondary_color": "Gold",
    "state": "ME",
    "timezone": "America/New_York",
    "updated_at": "2012-07-08T00:06:28Z",
    "zip": "04416"
  },
  {
    "address": "2250 Millard Harrison Dr",
    "city": "Readfield",
    "county": "Kennebec County",
    "created_at": "2012-01-04T20:15:09Z",
    "id": 11210,
    "latitude": "44.396029",
    "longitude": "-69.954158",
    "mascot": "Black Bears",
    "name": "Maranacook High School",
    "primary_color": "Black",
    "secondary_color": "Gold",
    "state": "ME",
    "timezone": "America/New_York",
    "updated_at": "2012-07-08T00:06:28Z",
    "zip": "04355"
  },
  {
    "address": "320 Manktown Rd",
    "city": "Waldoboro",
    "county": "Lincoln County",
    "created_at": "2012-01-04T20:15:09Z",
    "id": 11211,
    "latitude": "44.123108",
    "longitude": "-69.306965",
    "mascot": "Panthers",
    "name": "Medomak Valley High School",
    "primary_color": "Gold",
    "secondary_color": "Royal",
    "state": "ME",
    "timezone": "America/New_York",
    "updated_at": "2012-07-08T00:06:28Z",
    "zip": "04572"
  },
  {
    "address": "799 Hancock St",
    "city": "Rumford",
    "county": "Oxford County",
    "created_at": "2012-01-04T20:15:09Z",
    "id": 11212,
    "latitude": "44.564423",
    "longitude": "-70.557851",
    "mascot": "Falcons",
    "name": "Mountain Valley High School",
    "primary_color": "Gray",
    "secondary_color": "Royal",
    "state": "ME",
    "timezone": "America/New_York",
    "updated_at": "2012-07-08T00:06:29Z",
    "zip": "04276"
  },
  {
    "address": "266 Williams Rd",
    "city": "Newport",
    "county": "Penobscot County",
    "created_at": "2012-01-04T20:15:09Z",
    "id": 11213,
    "latitude": "44.878655",
    "longitude": "-69.293352",
    "mascot": "Warriors",
    "name": "Nokomis Regional High School",
    "primary_color": "Maroon",
    "secondary_color": "White",
    "state": "ME",
    "timezone": "America/New_York",
    "updated_at": "2012-07-08T00:06:29Z",
    "zip": "04953"
  },
  {
    "address": "98 Waldo Ave",
    "city": "Belfast",
    "county": "Waldo County",
    "created_at": "2012-01-04T20:15:09Z",
    "id": 11214,
    "latitude": "44.430517",
    "longitude": "-69.016922",
    "mascot": "Lions",
    "name": "Belfast Area High School",
    "primary_color": "Gold",
    "secondary_color": "Royal",
    "state": "ME",
    "timezone": "America/New_York",
    "updated_at": "2012-07-08T00:06:29Z",
    "zip": "04915"
  },
  {
    "address": "20 Maplewood Ave",
    "city": "Biddeford",
    "county": "York County",
    "created_at": "2012-01-04T20:15:09Z",
    "id": 11215,
    "latitude": "43.496118",
    "longitude": "-70.470255",
    "mascot": "Tigers",
    "name": "Biddeford High School",
    "primary_color": "Orange",
    "secondary_color": "Black",
    "state": "ME",
    "timezone": "America/New_York",
    "updated_at": "2012-07-08T00:06:29Z",
    "zip": "04005"
  },
  {
    "address": "260 Rt 236",
    "city": "South Berwick",
    "county": "York County",
    "created_at": "2012-01-04T20:15:09Z",
    "id": 11216,
    "latitude": "43.234373",
    "longitude": "-70.809022",
    "mascot": "Hawks",
    "name": "Marshwood High School",
    "primary_color": "Purple",
    "secondary_color": "White",
    "state": "ME",
    "timezone": "America/New_York",
    "updated_at": "2012-07-08T00:06:30Z",
    "zip": "03908"
  },
  {
    "address": "14 1st Ave",
    "city": "Woodland",
    "county": "Washington County",
    "created_at": "2012-01-04T20:15:09Z",
    "id": 11217,
    "latitude": "45.152934",
    "longitude": "-67.404787",
    "mascot": "Dragons",
    "name": "Woodland High School",
    "primary_color": "Gold",
    "secondary_color": "Purple",
    "state": "ME",
    "timezone": "America/New_York",
    "updated_at": "2012-07-08T00:06:30Z",
    "zip": "04694"
  },
  {
    "address": "89 High St",
    "city": "Eastport",
    "county": "Washington County",
    "created_at": "2012-01-04T20:15:09Z",
    "id": 11218,
    "latitude": "44.906850",
    "longitude": "-66.989911",
    "mascot": "Tigers",
    "name": "Shead Memorial School",
    "primary_color": "Orange",
    "secondary_color": "Black",
    "state": "ME",
    "timezone": "America/New_York",
    "updated_at": "2012-07-08T00:06:30Z",
    "zip": "04631"
  },
  {
    "address": "123 Main St",
    "city": "Yarmouth",
    "county": "Cumberland County",
    "created_at": "2012-01-04T20:15:09Z",
    "id": 11219,
    "latitude": "43.799470",
    "longitude": "-70.183919",
    "mascot": "Panthers",
    "name": "North Yarmouth Academy",
    "primary_color": "Orange",
    "secondary_color": "Black",
    "state": "ME",
    "timezone": "America/New_York",
    "updated_at": "2012-07-08T00:06:31Z",
    "zip": "04096"
  },
  {
    "address": "Warren Sq",
    "city": "Hartland",
    "county": "Somerset County",
    "created_at": "2012-01-04T20:15:09Z",
    "id": 11220,
    "latitude": "44.882625",
    "longitude": "-69.451784",
    "mascot": "Conquerors",
    "name": "Hartland Christian School",
    "primary_color": "Royal",
    "secondary_color": "White",
    "state": "ME",
    "timezone": "America/New_York",
    "updated_at": "2012-07-08T00:06:31Z",
    "zip": "04943"
  },
  {
    "address": "67 Pownal Rd",
    "city": "Freeport",
    "county": "Cumberland County",
    "created_at": "2012-01-04T20:15:09Z",
    "id": 11221,
    "latitude": "43.863321",
    "longitude": "-70.113355",
    "mascot": "Breakers",
    "name": "Pine Tree Academy",
    "primary_color": "Navy",
    "secondary_color": "White",
    "state": "ME",
    "timezone": "America/New_York",
    "updated_at": "2012-07-08T00:06:31Z",
    "zip": "04032"
  },
  {
    "address": "14 Parkway S",
    "city": "Brewer",
    "county": "Penobscot County",
    "created_at": "2012-01-04T20:15:09Z",
    "id": 11222,
    "latitude": "44.783102",
    "longitude": "-68.750821",
    "mascot": null,
    "name": "Apostolic Christian Academy",
    "primary_color": "Navy",
    "secondary_color": "White",
    "state": "ME",
    "timezone": "America/New_York",
    "updated_at": "2012-07-08T00:06:31Z",
    "zip": "04412"
  },
  {
    "address": "93 High St",
    "city": "Limestone",
    "county": "Aroostook County",
    "created_at": "2012-01-04T20:15:09Z",
    "id": 11223,
    "latitude": "46.906641",
    "longitude": "-67.827660",
    "mascot": "Eagles",
    "name": "Limestone Community School",
    "primary_color": "Black",
    "secondary_color": "Orange",
    "state": "ME",
    "timezone": "America/New_York",
    "updated_at": "2012-07-08T00:06:32Z",
    "zip": "04750"
  },
  {
    "address": "174 Hodgdon Mills Rd",
    "city": "Houlton",
    "county": "Aroostook County",
    "created_at": "2012-01-04T20:15:09Z",
    "id": 11224,
    "latitude": "46.054468",
    "longitude": "-67.864751",
    "mascot": "Hawks",
    "name": "Hodgdon High School",
    "primary_color": "Royal",
    "secondary_color": "White",
    "state": "ME",
    "timezone": "America/New_York",
    "updated_at": "2012-07-08T00:06:32Z",
    "zip": "04730"
  },
  {
    "address": "Pritham Ave",
    "city": "Greenville",
    "county": "Piscataquis County",
    "created_at": "2012-01-04T20:15:09Z",
    "id": 11225,
    "latitude": "45.459922",
    "longitude": "-69.610214",
    "mascot": "Laker Fish",
    "name": "Greenville School",
    "primary_color": "Royal",
    "secondary_color": "White",
    "state": "ME",
    "timezone": "America/New_York",
    "updated_at": "2012-07-08T00:06:32Z",
    "zip": "04441"
  },
  {
    "address": "109 Court St",
    "city": "Machias",
    "county": "Washington County",
    "created_at": "2012-01-04T20:15:09Z",
    "id": 11226,
    "latitude": "44.713490",
    "longitude": "-67.467178",
    "mascot": "Bulldogs",
    "name": "Machias Memorial High School",
    "primary_color": "Orange",
    "secondary_color": "Black",
    "state": "ME",
    "timezone": "America/New_York",
    "updated_at": "2012-07-08T00:06:32Z",
    "zip": "04654"
  },
  {
    "address": "267 Ocean Ave",
    "city": "Portland",
    "county": "Cumberland County",
    "created_at": "2012-01-04T20:15:09Z",
    "id": 11227,
    "latitude": "43.679707",
    "longitude": "-70.278474",
    "mascot": "Stags",
    "name": "Cheverus High School",
    "primary_color": "Purple",
    "secondary_color": "Gold",
    "state": "ME",
    "timezone": "America/New_York",
    "updated_at": "2012-07-08T00:06:32Z",
    "zip": "04103"
  },
  {
    "address": "631 Stevens Ave",
    "city": "Portland",
    "county": "Cumberland County",
    "created_at": "2012-01-04T20:15:09Z",
    "id": 11228,
    "latitude": "43.679328",
    "longitude": "-70.294317",
    "mascot": "Lions",
    "name": "McAuley High School",
    "primary_color": "Kelly Green",
    "secondary_color": "Gold",
    "state": "ME",
    "timezone": "America/New_York",
    "updated_at": "2012-07-08T00:06:33Z",
    "zip": "04103"
  },
  {
    "address": "23 Union St",
    "city": "Blue Hill",
    "county": "Hancock County",
    "created_at": "2012-01-04T20:15:09Z",
    "id": 11229,
    "latitude": "44.413118",
    "longitude": "-68.589546",
    "mascot": "Eagles",
    "name": "George Stevens Academy",
    "primary_color": "Maroon",
    "secondary_color": "White",
    "state": "ME",
    "timezone": "America/New_York",
    "updated_at": "2012-07-08T00:06:33Z",
    "zip": "04614"
  },
  {
    "address": "309 Windsor Rd",
    "city": "South China",
    "county": "Kennebec County",
    "created_at": "2012-01-04T20:15:09Z",
    "id": 11230,
    "latitude": "44.372656",
    "longitude": "-69.574036",
    "mascot": "Eagles",
    "name": "Erskine Academy",
    "primary_color": "Royal",
    "secondary_color": "White",
    "state": "ME",
    "timezone": "America/New_York",
    "updated_at": "2012-07-08T00:06:33Z",
    "zip": "04358"
  },
  {
    "address": "1614 Main St",
    "city": "Kents Hill",
    "county": "Kennebec County",
    "created_at": "2012-01-04T20:15:09Z",
    "id": 11231,
    "latitude": "44.407710",
    "longitude": "-70.018779",
    "mascot": "Huskies",
    "name": "Kents Hill School",
    "primary_color": "Gray",
    "secondary_color": "Maroon",
    "state": "ME",
    "timezone": "America/New_York",
    "updated_at": "2012-07-08T00:06:33Z",
    "zip": "04349"
  },
  {
    "address": "10 Wilson St",
    "city": "Augusta",
    "county": "Kennebec County",
    "created_at": "2012-01-04T20:15:09Z",
    "id": 11232,
    "latitude": "44.371568",
    "longitude": "-69.795379",
    "mascot": null,
    "name": "Dirigere Christian Academy",
    "primary_color": "Teal",
    "secondary_color": "Purple",
    "state": "ME",
    "timezone": "America/New_York",
    "updated_at": "2012-07-08T00:06:34Z",
    "zip": "04330"
  },
  {
    "address": "574 N Nobleboro Rd",
    "city": "Waldoboro",
    "county": "Lincoln County",
    "created_at": "2012-01-04T20:15:09Z",
    "id": 11233,
    "latitude": "44.130663",
    "longitude": "-69.429571",
    "mascot": "Rams",
    "name": "Coastal Christian School",
    "primary_color": "Red",
    "secondary_color": "Black",
    "state": "ME",
    "timezone": "America/New_York",
    "updated_at": "2012-07-08T00:06:34Z",
    "zip": "04572"
  },
  {
    "address": "124 Deck House Rd",
    "city": "North Edgecomb",
    "county": "Lincoln County",
    "created_at": "2012-01-04T20:15:09Z",
    "id": 11234,
    "latitude": "43.952683",
    "longitude": "-69.659634",
    "mascot": null,
    "name": "Deck House School",
    "primary_color": null,
    "secondary_color": null,
    "state": "ME",
    "timezone": "America/New_York",
    "updated_at": "2012-07-08T00:06:34Z",
    "zip": "04556"
  },
  {
    "address": "152 Main St",
    "city": "Fryeburg",
    "county": "Oxford County",
    "created_at": "2012-01-04T20:15:09Z",
    "id": 11235,
    "latitude": "44.005847",
    "longitude": "-70.991569",
    "mascot": "Raiders",
    "name": "Fryeburg Academy",
    "primary_color": "Navy",
    "secondary_color": "White",
    "state": "ME",
    "timezone": "America/New_York",
    "updated_at": "2012-07-08T00:06:35Z",
    "zip": "04037"
  },
  {
    "address": "39 Church St",
    "city": "Bethel",
    "county": "Oxford County",
    "created_at": "2012-01-04T20:15:09Z",
    "id": 11236,
    "latitude": "44.406848",
    "longitude": "-70.792800",
    "mascot": "Huskies",
    "name": "Gould Academy",
    "primary_color": "Gold",
    "secondary_color": "Royal",
    "state": "ME",
    "timezone": "America/New_York",
    "updated_at": "2012-07-08T00:06:35Z",
    "zip": "04217"
  },
  {
    "address": "RR 2 Box 144A",
    "city": "Guilford",
    "county": "Piscataquis County",
    "created_at": "2012-01-04T20:15:09Z",
    "id": 11237,
    "latitude": "45.590905",
    "longitude": "-69.509984",
    "mascot": null,
    "name": "Willimantic Christian School",
    "primary_color": "Royal",
    "secondary_color": "White",
    "state": "ME",
    "timezone": "America/New_York",
    "updated_at": "2012-07-08T00:06:35Z",
    "zip": "04441"
  },
  {
    "address": "Rt 201",
    "city": "Hinckley",
    "county": "Somerset County",
    "created_at": "2012-01-04T20:15:09Z",
    "id": 11238,
    "latitude": "44.683116",
    "longitude": "-69.632954",
    "mascot": "Beavers",
    "name": "Averill High School",
    "primary_color": "Orange",
    "secondary_color": "Black",
    "state": "ME",
    "timezone": "America/New_York",
    "updated_at": "2012-07-08T00:06:35Z",
    "zip": "04944"
  },
  {
    "address": "1890 North Rd",
    "city": "Cornish",
    "county": "York County",
    "created_at": "2012-01-04T20:15:09Z",
    "id": 11239,
    "latitude": "43.715980",
    "longitude": "-70.824529",
    "mascot": "Knights",
    "name": "Ossipee Valley Christian School",
    "primary_color": "Royal",
    "secondary_color": "White",
    "state": "ME",
    "timezone": "America/New_York",
    "updated_at": "2012-07-08T00:06:36Z",
    "zip": "04020"
  },
  {
    "address": "336 Main St",
    "city": "South Berwick",
    "county": "York County",
    "created_at": "2012-01-04T20:15:09Z",
    "id": 11240,
    "latitude": "43.236183",
    "longitude": "-70.810840",
    "mascot": null,
    "name": "Seacoast Christian School",
    "primary_color": "Royal",
    "secondary_color": "White",
    "state": "ME",
    "timezone": "America/New_York",
    "updated_at": "2012-07-08T00:06:36Z",
    "zip": "03908"
  },
  {
    "address": "#5 Rd",
    "city": "Poland Spring",
    "county": "Androscoggin County",
    "created_at": "2012-01-04T20:15:09Z",
    "id": 11241,
    "latitude": "44.024749",
    "longitude": "-70.352112",
    "mascot": null,
    "name": "Elan School",
    "primary_color": null,
    "secondary_color": null,
    "state": "ME",
    "timezone": "America/New_York",
    "updated_at": "2012-07-08T00:06:36Z",
    "zip": "04274"
  },
  {
    "address": "1423 Ohio St",
    "city": "Bangor",
    "county": "Penobscot County",
    "created_at": "2012-01-04T20:15:09Z",
    "id": 11242,
    "latitude": "44.834494",
    "longitude": "-68.822225",
    "mascot": "Panthers",
    "name": "Penobscot Christian School",
    "primary_color": "Royal",
    "secondary_color": "White",
    "state": "ME",
    "timezone": "America/New_York",
    "updated_at": "2012-07-08T00:06:36Z",
    "zip": "04401"
  },
  {
    "address": "201 Mercer Rd",
    "city": "Norridgewock",
    "county": "Somerset County",
    "created_at": "2012-01-04T20:15:09Z",
    "id": 11243,
    "latitude": "44.706903",
    "longitude": "-69.812924",
    "mascot": null,
    "name": "Riverview Memorial School",
    "primary_color": "Royal",
    "secondary_color": "White",
    "state": "ME",
    "timezone": "America/New_York",
    "updated_at": "2012-07-08T00:06:37Z",
    "zip": "04957"
  },
  {
    "address": "27 School St",
    "city": "Houlton",
    "county": "Aroostook County",
    "created_at": "2012-01-04T20:15:09Z",
    "id": 11244,
    "latitude": "46.123640",
    "longitude": "-67.838106",
    "mascot": "Eagles",
    "name": "Greater Houlton Christian Academy",
    "primary_color": "Hunter Green",
    "secondary_color": "White",
    "state": "ME",
    "timezone": "America/New_York",
    "updated_at": "2012-07-08T00:06:37Z",
    "zip": "04730"
  },
  {
    "address": "RR 1 229",
    "city": "Presque Isle",
    "county": "Aroostook County",
    "created_at": "2012-01-04T20:15:09Z",
    "id": 11245,
    "latitude": "46.681615",
    "longitude": "-68.015377",
    "mascot": "Trail Blazers",
    "name": "New Life Christian School",
    "primary_color": "Royal",
    "secondary_color": "White",
    "state": "ME",
    "timezone": "America/New_York",
    "updated_at": "2012-07-08T00:06:37Z",
    "zip": "04769"
  },
  {
    "address": "PO Box 367",
    "city": "Topsham",
    "county": "Sagadahoc County",
    "created_at": "2012-01-04T20:15:09Z",
    "id": 11246,
    "latitude": "43.936062",
    "longitude": "-69.966269",
    "mascot": null,
    "name": "Tabernacle Christian Academy",
    "primary_color": null,
    "secondary_color": null,
    "state": "ME",
    "timezone": "America/New_York",
    "updated_at": "2012-07-08T00:06:37Z",
    "zip": "04086"
  },
  {
    "address": "360 Spring St",
    "city": "Portland",
    "county": "Cumberland County",
    "created_at": "2012-01-04T20:15:09Z",
    "id": 11247,
    "latitude": "43.646488",
    "longitude": "-70.270964",
    "mascot": "Flyers",
    "name": "Waynflete School",
    "primary_color": "Hunter Green",
    "secondary_color": "White",
    "state": "ME",
    "timezone": "America/New_York",
    "updated_at": "2012-07-08T00:06:38Z",
    "zip": "04102"
  },
  {
    "address": "1338 Broadway St",
    "city": "South Portland",
    "county": "Cumberland County",
    "created_at": "2012-01-04T20:15:09Z",
    "id": 11248,
    "latitude": "43.629884",
    "longitude": "-70.287708",
    "mascot": "Lions",
    "name": "Greater Portland Christian School",
    "primary_color": "Royal",
    "secondary_color": "White",
    "state": "ME",
    "timezone": "America/New_York",
    "updated_at": "2012-07-08T00:06:38Z",
    "zip": "04106"
  },
  {
    "address": "RR 4 Box 5500",
    "city": "Farmington",
    "county": "Franklin County",
    "created_at": "2012-01-04T20:15:09Z",
    "id": 11249,
    "latitude": "44.663653",
    "longitude": "-70.149015",
    "mascot": null,
    "name": "Sandy River School",
    "primary_color": null,
    "secondary_color": null,
    "state": "ME",
    "timezone": "America/New_York",
    "updated_at": "2012-07-08T00:06:38Z",
    "zip": "04938"
  },
  {
    "address": "3197 Carrabassett Dr",
    "city": "Kingfield",
    "county": "Franklin County",
    "created_at": "2012-01-04T20:15:09Z",
    "id": 11250,
    "latitude": "45.079213",
    "longitude": "-70.311122",
    "mascot": null,
    "name": "Carrabassett Valley Academy",
    "primary_color": "Hunter Green",
    "secondary_color": "White",
    "state": "ME",
    "timezone": "America/New_York",
    "updated_at": "2012-07-08T00:06:39Z",
    "zip": "04947"
  },
  {
    "address": "268 Barker Rd",
    "city": "New Vineyard",
    "county": "Franklin County",
    "created_at": "2012-01-04T20:15:09Z",
    "id": 11251,
    "latitude": "44.745657",
    "longitude": "-70.148255",
    "mascot": null,
    "name": "Open Bible Christian School",
    "primary_color": "Gold",
    "secondary_color": "Royal",
    "state": "ME",
    "timezone": "America/New_York",
    "updated_at": "2012-07-08T00:06:39Z",
    "zip": "04956"
  },
  {
    "address": "16 Central St",
    "city": "Bucksport",
    "county": "Hancock County",
    "created_at": "2012-01-04T20:15:09Z",
    "id": 11252,
    "latitude": "44.572514",
    "longitude": "-68.793033",
    "mascot": "Knights",
    "name": "Evangel Baptist Academy",
    "primary_color": "Gold",
    "secondary_color": "Kelly Green",
    "state": "ME",
    "timezone": "America/New_York",
    "updated_at": "2012-07-08T00:06:39Z",
    "zip": "04416"
  },
  {
    "address": "79 Washington St",
    "city": "Camden",
    "county": "Knox County",
    "created_at": "2012-01-04T20:15:09Z",
    "id": 11253,
    "latitude": "44.213439",
    "longitude": "-69.071939",
    "mascot": null,
    "name": "The Community School",
    "primary_color": null,
    "secondary_color": null,
    "state": "ME",
    "timezone": "America/New_York",
    "updated_at": "2012-07-08T00:06:39Z",
    "zip": "04843"
  },
  {
    "address": "81 Academy Hill",
    "city": "Newcastle",
    "county": "Lincoln County",
    "created_at": "2012-01-04T20:15:09Z",
    "id": 11254,
    "latitude": "44.038352",
    "longitude": "-69.540530",
    "mascot": "Eagles",
    "name": "Lincoln Academy",
    "primary_color": "Black",
    "secondary_color": "White",
    "state": "ME",
    "timezone": "America/New_York",
    "updated_at": "2012-07-08T00:06:40Z",
    "zip": "04553"
  },
  {
    "address": "854 Main St",
    "city": "West Sumner",
    "county": "Oxford County",
    "created_at": "2012-01-04T20:15:09Z",
    "id": 11255,
    "latitude": "44.372239",
    "longitude": "-70.443249",
    "mascot": null,
    "name": "West Sumner Christian School",
    "primary_color": "Royal",
    "secondary_color": "White",
    "state": "ME",
    "timezone": "America/New_York",
    "updated_at": "2012-07-08T00:06:40Z",
    "zip": "04292"
  },
  {
    "address": "100 Broadway",
    "city": "Bangor",
    "county": "Penobscot County",
    "created_at": "2012-01-04T20:15:09Z",
    "id": 11256,
    "latitude": "44.805440",
    "longitude": "-68.768214",
    "mascot": "Crusaders",
    "name": "John Bapst Memorial High School",
    "primary_color": "Purple",
    "secondary_color": "White",
    "state": "ME",
    "timezone": "America/New_York",
    "updated_at": "2012-07-08T00:06:40Z",
    "zip": "04401"
  },
  {
    "address": "71 Railroad Ave",
    "city": "Dexter",
    "county": "Penobscot County",
    "created_at": "2012-01-04T20:15:09Z",
    "id": 11257,
    "latitude": "45.012708",
    "longitude": "-69.294350",
    "mascot": "Wildcats",
    "name": "Dexter Christian Academy",
    "primary_color": "Gray",
    "secondary_color": "Navy",
    "state": "ME",
    "timezone": "America/New_York",
    "updated_at": "2012-07-08T00:06:40Z",
    "zip": "04930"
  },
  {
    "address": "616 High St",
    "city": "Bath",
    "county": "Sagadahoc County",
    "created_at": "2012-01-04T20:15:09Z",
    "id": 11258,
    "latitude": "43.906872",
    "longitude": "-69.820480",
    "mascot": "Phoenix",
    "name": "Hyde School",
    "primary_color": "Navy",
    "secondary_color": "Gold",
    "state": "ME",
    "timezone": "America/New_York",
    "updated_at": "2012-07-08T00:06:40Z",
    "zip": "04530"
  },
  {
    "address": "2895 Burkettville Rd",
    "city": "Liberty",
    "county": "Waldo County",
    "created_at": "2012-01-04T20:15:09Z",
    "id": 11259,
    "latitude": "44.318016",
    "longitude": "-69.356559",
    "mascot": null,
    "name": "South Liberty Baptist Academy",
    "primary_color": "Red",
    "secondary_color": "White",
    "state": "ME",
    "timezone": "America/New_York",
    "updated_at": "2012-07-08T00:06:41Z",
    "zip": "04949"
  },
  {
    "address": "438 Main St",
    "city": "Saco",
    "county": "York County",
    "created_at": "2012-01-04T20:15:09Z",
    "id": 11260,
    "latitude": "43.505141",
    "longitude": "-70.438830",
    "mascot": "Golden Trojans",
    "name": "Thornton Academy",
    "primary_color": "Gold",
    "secondary_color": "Maroon",
    "state": "ME",
    "timezone": "America/New_York",
    "updated_at": "2012-07-08T00:06:41Z",
    "zip": "04072"
  },
  {
    "address": "31 Academy St",
    "city": "South Berwick",
    "county": "York County",
    "created_at": "2012-01-04T20:15:09Z",
    "id": 11261,
    "latitude": "43.229511",
    "longitude": "-70.804941",
    "mascot": "Bulldogs",
    "name": "Berwick Academy",
    "primary_color": "Royal",
    "secondary_color": "White",
    "state": "ME",
    "timezone": "America/New_York",
    "updated_at": "2012-07-08T00:06:41Z",
    "zip": "03908"
  },
  {
    "address": "PO Box 307",
    "city": "Houlton",
    "county": "Aroostook County",
    "created_at": "2012-01-04T20:15:09Z",
    "id": 11262,
    "latitude": "46.123350",
    "longitude": "-67.839819",
    "mascot": null,
    "name": "Vocational Region 2 School",
    "primary_color": null,
    "secondary_color": null,
    "state": "ME",
    "timezone": "America/New_York",
    "updated_at": "2012-07-08T00:06:42Z",
    "zip": "04730"
  },
  {
    "address": "1 Main St",
    "city": "Rockland",
    "county": "Knox County",
    "created_at": "2012-01-04T20:15:09Z",
    "id": 11263,
    "latitude": "44.109181",
    "longitude": "-69.109711",
    "mascot": null,
    "name": "Mid Coast School Of Technology",
    "primary_color": null,
    "secondary_color": null,
    "state": "ME",
    "timezone": "America/New_York",
    "updated_at": "2012-07-08T00:06:42Z",
    "zip": "04841"
  },
  {
    "address": "77 Harris St",
    "city": "Auburn",
    "county": "Androscoggin County",
    "created_at": "2012-01-04T20:15:09Z",
    "id": 11264,
    "latitude": "44.095209",
    "longitude": "-70.235723",
    "mascot": "Red Eddies",
    "name": "Edward Little High School",
    "primary_color": "Maroon",
    "secondary_color": "White",
    "state": "ME",
    "timezone": "America/New_York",
    "updated_at": "2012-07-08T00:06:42Z",
    "zip": "04210"
  },
  {
    "address": "156 East Ave",
    "city": "Lewiston",
    "county": "Androscoggin County",
    "created_at": "2012-01-04T20:15:09Z",
    "id": 11265,
    "latitude": "44.094857",
    "longitude": "-70.199233",
    "mascot": "Blue Devils",
    "name": "Lewiston High School",
    "primary_color": "Royal",
    "secondary_color": "White",
    "state": "ME",
    "timezone": "America/New_York",
    "updated_at": "2012-07-08T00:06:42Z",
    "zip": "04240"
  },
  {
    "address": "25 Cedar St",
    "city": "Livermore Falls",
    "county": "Androscoggin County",
    "created_at": "2012-01-04T20:15:09Z",
    "id": 11266,
    "latitude": "44.470148",
    "longitude": "-70.180177",
    "mascot": "Andes",
    "name": "Livermore Falls High School",
    "primary_color": "Kelly Green",
    "secondary_color": "Gold",
    "state": "ME",
    "timezone": "America/New_York",
    "updated_at": "2012-07-08T00:06:43Z",
    "zip": "04254"
  },
  {
    "address": "21 Matthews Way",
    "city": "Turner",
    "county": "Androscoggin County",
    "created_at": "2012-01-04T20:15:09Z",
    "id": 11267,
    "latitude": "44.268193",
    "longitude": "-70.227218",
    "mascot": "Hornets",
    "name": "Leavitt Area High School",
    "primary_color": "Kelly Green",
    "secondary_color": "White",
    "state": "ME",
    "timezone": "America/New_York",
    "updated_at": "2012-07-08T00:06:43Z",
    "zip": "04282"
  },
  {
    "address": "E Road Ext",
    "city": "Wales",
    "county": "Androscoggin County",
    "created_at": "2012-01-04T20:15:09Z",
    "id": 11268,
    "latitude": "44.141597",
    "longitude": "-70.049847",
    "mascot": "Raccoons",
    "name": "Oak Hill High School",
    "primary_color": "Red",
    "secondary_color": "White",
    "state": "ME",
    "timezone": "America/New_York",
    "updated_at": "2012-07-08T00:06:43Z",
    "zip": "04280"
  },
  {
    "address": "46 Haywood St",
    "city": "Ashland",
    "county": "Aroostook County",
    "created_at": "2012-01-04T20:15:09Z",
    "id": 11269,
    "latitude": "46.629113",
    "longitude": "-68.395515",
    "mascot": "Hornets",
    "name": "Ashland Community High School",
    "primary_color": "Orange",
    "secondary_color": "Black",
    "state": "ME",
    "timezone": "America/New_York",
    "updated_at": "2012-07-08T00:06:43Z",
    "zip": "04732"
  },
  {
    "address": "173 Center Rd",
    "city": "Easton",
    "county": "Aroostook County",
    "created_at": "2012-01-04T20:15:09Z",
    "id": 11270,
    "latitude": "46.642476",
    "longitude": "-67.903765",
    "mascot": "Bears",
    "name": "Easton Junior Senior High School",
    "primary_color": "Royal Blue",
    "secondary_color": "White",
    "state": "ME",
    "timezone": "America/New_York",
    "updated_at": "2012-07-08T00:06:44Z",
    "zip": "04740"
  },
  {
    "address": "135 7th Ave",
    "city": "Madawaska",
    "county": "Aroostook County",
    "created_at": "2012-01-04T20:15:09Z",
    "id": 11271,
    "latitude": "47.352427",
    "longitude": "-68.325086",
    "mascot": "Owls",
    "name": "Madawaska Middle High School",
    "primary_color": "Royal",
    "secondary_color": "White",
    "state": "ME",
    "timezone": "America/New_York",
    "updated_at": "2012-07-08T00:06:44Z",
    "zip": "04756"
  },
  {
    "address": "28 High School Dr Ste A",
    "city": "Fort Fairfield",
    "county": "Aroostook County",
    "created_at": "2012-01-04T20:15:09Z",
    "id": 11272,
    "latitude": "46.767889",
    "longitude": "-67.839966",
    "mascot": "Tigers",
    "name": "Fort Fairfield Middle High School",
    "primary_color": "Red",
    "secondary_color": "White",
    "state": "ME",
    "timezone": "America/New_York",
    "updated_at": "2012-07-08T00:06:44Z",
    "zip": "04742"
  },
  {
    "address": "321 Main St",
    "city": "Van Buren",
    "county": "Aroostook County",
    "created_at": "2012-01-04T20:15:09Z",
    "id": 11273,
    "latitude": "47.171561",
    "longitude": "-67.945366",
    "mascot": "Crusader",
    "name": "Van Buren District Secondary School",
    "primary_color": "Gold",
    "secondary_color": "Royal",
    "state": "ME",
    "timezone": "America/New_York",
    "updated_at": "2012-07-08T00:06:44Z",
    "zip": "04785"
  },
  {
    "address": "368 Main St",
    "city": "Saint Agatha",
    "county": "Aroostook County",
    "created_at": "2012-01-04T20:15:09Z",
    "id": 11274,
    "latitude": "47.243143",
    "longitude": "-68.313640",
    "mascot": "Pioneers",
    "name": "Wisdom Middle High School",
    "primary_color": "Kelly Green",
    "secondary_color": "Yellow",
    "state": "ME",
    "timezone": "America/New_York",
    "updated_at": "2012-07-08T00:06:45Z",
    "zip": "04772"
  },
  {
    "address": "26 Pleasant St",
    "city": "Mars Hill",
    "county": "Aroostook County",
    "created_at": "2012-01-04T20:15:09Z",
    "id": 11275,
    "latitude": "46.514751",
    "longitude": "-67.861046",
    "mascot": "Panthers",
    "name": "Central Aroostook Junior Senior High",
    "primary_color": "Royal",
    "secondary_color": "White",
    "state": "ME",
    "timezone": "America/New_York",
    "updated_at": "2012-07-08T00:06:45Z",
    "zip": "04758"
  },
  {
    "address": "55 High St",
    "city": "Windham",
    "county": "Cumberland County",
    "created_at": "2012-01-04T20:15:09Z",
    "id": 11276,
    "latitude": "43.734220",
    "longitude": "-70.420593",
    "mascot": null,
    "name": "Windham Real School",
    "primary_color": "Teal",
    "secondary_color": "White",
    "state": "ME",
    "timezone": "America/New_York",
    "updated_at": "2012-07-08T00:06:45Z",
    "zip": "04062"
  },
  {
    "address": "284 Cumberland Ave",
    "city": "Portland",
    "county": "Cumberland County",
    "created_at": "2012-01-04T20:15:09Z",
    "id": 11277,
    "latitude": "43.659426",
    "longitude": "-70.258982",
    "mascot": "Bulldogs",
    "name": "Portland High School",
    "primary_color": "Navy",
    "secondary_color": "White",
    "state": "ME",
    "timezone": "America/New_York",
    "updated_at": "2012-07-08T00:06:45Z",
    "zip": "04101"
  },
  {
    "address": "370 Stevens Ave",
    "city": "Portland",
    "county": "Cumberland County",
    "created_at": "2012-01-04T20:15:09Z",
    "id": 11278,
    "latitude": "43.671242",
    "longitude": "-70.295022",
    "mascot": "Rams",
    "name": "Deering High School",
    "primary_color": "Purple",
    "secondary_color": "White",
    "state": "ME",
    "timezone": "America/New_York",
    "updated_at": "2012-07-08T00:06:45Z",
    "zip": "04103"
  },
  {
    "address": "57 Douglas St",
    "city": "Portland",
    "county": "Cumberland County",
    "created_at": "2012-01-04T20:15:09Z",
    "id": 11279,
    "latitude": "43.658407",
    "longitude": "-70.287433",
    "mascot": "Prep Panthers",
    "name": "West School PREP",
    "primary_color": "Black",
    "secondary_color": "Red",
    "state": "ME",
    "timezone": "America/New_York",
    "updated_at": "2012-07-08T00:06:46Z",
    "zip": "04102"
  },
  {
    "address": "637 Highland Ave",
    "city": "South Portland",
    "county": "Cumberland County",
    "created_at": "2012-01-04T20:15:10Z",
    "id": 11280,
    "latitude": "43.620689",
    "longitude": "-70.268366",
    "mascot": "Fireballs",
    "name": "South Portland High School",
    "primary_color": "Red",
    "secondary_color": "White",
    "state": "ME",
    "timezone": "America/New_York",
    "updated_at": "2012-07-08T00:06:46Z",
    "zip": "04106"
  },
  {
    "address": "125 Stroudwater St",
    "city": "Westbrook",
    "county": "Cumberland County",
    "created_at": "2012-01-04T20:15:10Z",
    "id": 11281,
    "latitude": "43.673290",
    "longitude": "-70.352088",
    "mascot": "Blazes",
    "name": "Westbrook High School",
    "primary_color": "Navy",
    "secondary_color": "White",
    "state": "ME",
    "timezone": "America/New_York",
    "updated_at": "2012-07-08T00:06:46Z",
    "zip": "04092"
  },
  {
    "address": "74 Woodville Rd",
    "city": "Falmouth",
    "county": "Cumberland County",
    "created_at": "2012-01-04T20:15:10Z",
    "id": 11282,
    "latitude": "43.740404",
    "longitude": "-70.270917",
    "mascot": null,
    "name": "Falmouth High School",
    "primary_color": "Royal",
    "secondary_color": "Gold",
    "state": "ME",
    "timezone": "America/New_York",
    "updated_at": "2012-07-08T00:06:47Z",
    "zip": "04105"
  },
  {
    "address": "30 Holbrook St",
    "city": "Freeport",
    "county": "Cumberland County",
    "created_at": "2012-01-04T20:15:10Z",
    "id": 11283,
    "latitude": "43.856180",
    "longitude": "-70.107493",
    "mascot": "Falcons",
    "name": "Freeport High School",
    "primary_color": "Maroon",
    "secondary_color": "White",
    "state": "ME",
    "timezone": "America/New_York",
    "updated_at": "2012-07-08T00:06:47Z",
    "zip": "04032"
  },
  {
    "address": "20 Gorham Rd",
    "city": "Scarborough",
    "county": "Cumberland County",
    "created_at": "2012-01-04T20:15:10Z",
    "id": 11284,
    "latitude": "43.592469",
    "longitude": "-70.334936",
    "mascot": "Red Storms",
    "name": "Scarborough High School",
    "primary_color": "Red",
    "secondary_color": "White",
    "state": "ME",
    "timezone": "America/New_York",
    "updated_at": "2012-07-08T00:06:47Z",
    "zip": "04074"
  },
  {
    "address": "286 W Elm St",
    "city": "Yarmouth",
    "county": "Cumberland County",
    "created_at": "2012-01-04T20:15:10Z",
    "id": 11285,
    "latitude": "43.794537",
    "longitude": "-70.196674",
    "mascot": "Ships",
    "name": "Yarmouth High School",
    "primary_color": "Navy",
    "secondary_color": "White",
    "state": "ME",
    "timezone": "America/New_York",
    "updated_at": "2012-07-08T00:06:47Z",
    "zip": "04096"
  },
  {
    "address": "116 Maquoit Rd",
    "city": "Brunswick",
    "county": "Cumberland County",
    "created_at": "2012-01-04T20:15:10Z",
    "id": 11286,
    "latitude": "43.884659",
    "longitude": "-69.980139",
    "mascot": "Dragons",
    "name": "Brunswick High School",
    "primary_color": "Orange",
    "secondary_color": "Black",
    "state": "ME",
    "timezone": "America/New_York",
    "updated_at": "2012-07-08T00:06:48Z",
    "zip": "04011"
  },
  {
    "address": "10 Libby Hill Rd",
    "city": "Gray",
    "county": "Cumberland County",
    "created_at": "2012-01-04T20:15:10Z",
    "id": 11287,
    "latitude": "43.902538",
    "longitude": "-70.346835",
    "mascot": "Patriots",
    "name": "Gray-New Gloucester High School",
    "primary_color": "Royal",
    "secondary_color": "Red",
    "state": "ME",
    "timezone": "America/New_York",
    "updated_at": "2012-07-08T00:06:48Z",
    "zip": "04039"
  },
  {
    "address": "303 Main St",
    "city": "Cumberland Center",
    "county": "Cumberland County",
    "created_at": "2012-01-04T20:15:10Z",
    "id": 11288,
    "latitude": "43.798334",
    "longitude": "-70.257026",
    "mascot": "Rangers",
    "name": "Greely High School",
    "primary_color": "Maroon",
    "secondary_color": "White",
    "state": "ME",
    "timezone": "America/New_York",
    "updated_at": "2012-07-08T00:06:48Z",
    "zip": "04021"
  },
  {
    "address": "1877 Roosevelt Trail",
    "city": "Naples",
    "county": "Cumberland County",
    "created_at": "2012-01-04T20:15:10Z",
    "id": 11289,
    "latitude": "43.997206",
    "longitude": "-70.658174",
    "mascot": "Lakers",
    "name": "Lake Region High School",
    "primary_color": "Royal",
    "secondary_color": "Gold",
    "state": "ME",
    "timezone": "America/New_York",
    "updated_at": "2012-07-08T00:06:48Z",
    "zip": "04055"
  },
  {
    "address": "33 Community Dr",
    "city": "Jay",
    "county": "Franklin County",
    "created_at": "2012-01-04T20:15:10Z",
    "id": 11290,
    "latitude": "44.494495",
    "longitude": "-70.199964",
    "mascot": "Tigers",
    "name": "Jay High School",
    "primary_color": "Orange",
    "secondary_color": "Black",
    "state": "ME",
    "timezone": "America/New_York",
    "updated_at": "2012-07-08T00:06:49Z",
    "zip": "04239"
  },
  {
    "address": "Rt 142",
    "city": "Salem",
    "county": "Franklin County",
    "created_at": "2012-01-04T20:15:10Z",
    "id": 11291,
    "latitude": "44.900765",
    "longitude": "-70.280769",
    "mascot": "Road Runners",
    "name": "Mount Abram High School",
    "primary_color": "Gold",
    "secondary_color": "Royal",
    "state": "ME",
    "timezone": "America/New_York",
    "updated_at": "2012-07-08T00:06:49Z",
    "zip": "04983"
  },
  {
    "address": "43 Loon Lake Rd",
    "city": "Rangeley",
    "county": "Franklin County",
    "created_at": "2012-01-04T20:15:10Z",
    "id": 11292,
    "latitude": "44.969901",
    "longitude": "-70.655481",
    "mascot": "Lakers",
    "name": "Rangeley Lakes Regional School",
    "primary_color": "Yellow",
    "secondary_color": "Kelly Green",
    "state": "ME",
    "timezone": "America/New_York",
    "updated_at": "2012-07-08T00:06:49Z",
    "zip": "04970"
  },
  {
    "address": "1080 Eagle Lake Rd",
    "city": "Mount Desert",
    "county": "Hancock County",
    "created_at": "2012-01-04T20:15:10Z",
    "id": 11293,
    "latitude": "44.364513",
    "longitude": "-68.305156",
    "mascot": "Trojans",
    "name": "Mount Desert Island High School",
    "primary_color": "Kelly Green",
    "secondary_color": "White",
    "state": "ME",
    "timezone": "America/New_York",
    "updated_at": "2012-07-08T00:06:50Z",
    "zip": "04660"
  },
  {
    "address": "251 N Deer Isle Rd",
    "city": "Deer Isle",
    "county": "Hancock County",
    "created_at": "2012-01-04T20:15:10Z",
    "id": 11294,
    "latitude": "44.241742",
    "longitude": "-68.681813",
    "mascot": "Mariners",
    "name": "Deer Isle-Stonington Junior Senior High",
    "primary_color": "Royal",
    "secondary_color": "White",
    "state": "ME",
    "timezone": "America/New_York",
    "updated_at": "2012-07-08T00:06:50Z",
    "zip": "04627"
  },
  {
    "address": "211 Rambler Rd",
    "city": "Winthrop",
    "county": "Kennebec County",
    "created_at": "2012-01-04T20:15:10Z",
    "id": 11295,
    "latitude": "44.302558",
    "longitude": "-69.983305",
    "mascot": "Ramblers",
    "name": "Winthrop High School",
    "primary_color": "Hunter Green",
    "secondary_color": "White",
    "state": "ME",
    "timezone": "America/New_York",
    "updated_at": "2012-07-08T00:06:50Z",
    "zip": "04364"
  },
  {
    "address": "120 Cony St",
    "city": "Augusta",
    "county": "Kennebec County",
    "created_at": "2012-01-04T20:15:10Z",
    "id": 11296,
    "latitude": "44.316279",
    "longitude": "-69.765653",
    "mascot": "Rams",
    "name": "Cony High School",
    "primary_color": "Red",
    "secondary_color": "White",
    "state": "ME",
    "timezone": "America/New_York",
    "updated_at": "2012-07-08T00:06:50Z",
    "zip": "04330"
  },
  {
    "address": "1 Brooklyn Ave",
    "city": "Waterville",
    "county": "Kennebec County",
    "created_at": "2012-01-04T20:15:10Z",
    "id": 11297,
    "latitude": "44.550795",
    "longitude": "-69.642259",
    "mascot": "Panthers",
    "name": "Waterville High School",
    "primary_color": "Purple",
    "secondary_color": "White",
    "state": "ME",
    "timezone": "America/New_York",
    "updated_at": "2012-07-08T00:06:51Z",
    "zip": "04901"
  },
  {
    "address": "40 W Hill Rd",
    "city": "Gardiner",
    "county": "Kennebec County",
    "created_at": "2012-01-04T20:15:10Z",
    "id": 11298,
    "latitude": "44.229206",
    "longitude": "-69.789527",
    "mascot": "Tigers",
    "name": "Gardiner Area High School",
    "primary_color": "Black",
    "secondary_color": "Orange",
    "state": "ME",
    "timezone": "America/New_York",
    "updated_at": "2012-07-08T00:06:51Z",
    "zip": "04345"
  },
  {
    "address": "97 Maple St",
    "city": "Farmingdale",
    "county": "Kennebec County",
    "created_at": "2012-01-04T20:15:10Z",
    "id": 11299,
    "latitude": "44.265766",
    "longitude": "-69.800545",
    "mascot": "Bulldogs",
    "name": "Hall-Dale High School",
    "primary_color": "Red",
    "secondary_color": "Black",
    "state": "ME",
    "timezone": "America/New_York",
    "updated_at": "2012-07-08T00:06:51Z",
    "zip": "04344"
  },
  {
    "address": "131 Messalonskee High Dr",
    "city": "Oakland",
    "county": "Kennebec County",
    "created_at": "2012-01-04T20:15:10Z",
    "id": 11300,
    "latitude": "44.557404",
    "longitude": "-69.717508",
    "mascot": "Eagles",
    "name": "Messalonskee High School",
    "primary_color": "Red",
    "secondary_color": "White",
    "state": "ME",
    "timezone": "America/New_York",
    "updated_at": "2012-07-08T00:06:51Z",
    "zip": "04963"
  },
  {
    "address": "96 Academy Rd Rt 1 Box 258",
    "city": "Monmouth",
    "county": "Kennebec County",
    "created_at": "2012-01-04T20:15:10Z",
    "id": 11301,
    "latitude": "44.237981",
    "longitude": "-70.035804",
    "mascot": "Mustangs",
    "name": "Monmouth Academy High School",
    "primary_color": "Maroon",
    "secondary_color": "White",
    "state": "ME",
    "timezone": "America/New_York",
    "updated_at": "2012-07-08T00:06:52Z",
    "zip": "04259"
  },
  {
    "address": "14 Danielson St",
    "city": "Winslow",
    "county": "Kennebec County",
    "created_at": "2012-01-04T20:15:10Z",
    "id": 11302,
    "latitude": "44.550332",
    "longitude": "-69.620355",
    "mascot": "Raiders",
    "name": "Winslow Senior High School",
    "primary_color": "Orange",
    "secondary_color": "Black",
    "state": "ME",
    "timezone": "America/New_York",
    "updated_at": "2012-07-08T00:06:52Z",
    "zip": "04901"
  },
  {
    "address": "400 Broadway",
    "city": "Rockland",
    "county": "Knox County",
    "created_at": "2012-01-04T20:15:10Z",
    "id": 11303,
    "latitude": "44.115153",
    "longitude": "-69.112743",
    "mascot": "Tigers",
    "name": "Rockland District High School",
    "primary_color": "Orange",
    "secondary_color": "Black",
    "state": "ME",
    "timezone": "America/New_York",
    "updated_at": "2012-07-08T00:06:52Z",
    "zip": "04841"
  },
  {
    "address": "93 Pulpit Harbor Road",
    "city": "North Haven",
    "county": "Knox County",
    "created_at": "2012-01-04T20:15:10Z",
    "id": 11304,
    "latitude": "44.149489",
    "longitude": "-68.875449",
    "mascot": "Hawks",
    "name": "North Haven Community School",
    "primary_color": "Gold",
    "secondary_color": "Navy",
    "state": "ME",
    "timezone": "America/New_York",
    "updated_at": "2012-07-08T00:06:53Z",
    "zip": "04853"
  },
  {
    "address": "22 Arcola Lane",
    "city": "Vinalhaven",
    "county": "Knox County",
    "created_at": "2012-01-04T20:15:10Z",
    "id": 11305,
    "latitude": "44.049280",
    "longitude": "-68.823466",
    "mascot": "Vikings",
    "name": "Vinalhaven School",
    "primary_color": "Red",
    "secondary_color": "White",
    "state": "ME",
    "timezone": "America/New_York",
    "updated_at": "2012-07-08T00:06:53Z",
    "zip": "04863"
  },
  {
    "address": "25 Keelson Dr",
    "city": "Rockport",
    "county": "Knox County",
    "created_at": "2012-01-04T20:15:10Z",
    "id": 11306,
    "latitude": "44.187923",
    "longitude": "-69.101221",
    "mascot": "Windjammers",
    "name": "Camden Hills Regional High School",
    "primary_color": "Red",
    "secondary_color": "White",
    "state": "ME",
    "timezone": "America/New_York",
    "updated_at": "2012-07-08T00:06:53Z",
    "zip": "04856"
  },
  {
    "address": "47 Valley St",
    "city": "Thomaston",
    "county": "Knox County",
    "created_at": "2012-01-04T20:15:10Z",
    "id": 11307,
    "latitude": "44.080645",
    "longitude": "-69.186121",
    "mascot": "Buccaneers",
    "name": "Georges Valley High School",
    "primary_color": "Kelly Green",
    "secondary_color": "White",
    "state": "ME",
    "timezone": "America/New_York",
    "updated_at": "2012-07-08T00:06:53Z",
    "zip": "04861"
  },
  {
    "address": "236 Townsend Ave",
    "city": "Boothbay Harbor",
    "county": "Lincoln County",
    "created_at": "2012-01-04T20:15:10Z",
    "id": 11308,
    "latitude": "43.864358",
    "longitude": "-69.628325",
    "mascot": "Seahawks",
    "name": "Boothbay Region High School",
    "primary_color": "Royal",
    "secondary_color": "Gold",
    "state": "ME",
    "timezone": "America/New_York",
    "updated_at": "2012-07-08T00:06:53Z",
    "zip": "04538"
  },
  {
    "address": "272 Gardiner Rd",
    "city": "Wiscasset",
    "county": "Lincoln County",
    "created_at": "2012-01-04T20:15:10Z",
    "id": 11309,
    "latitude": "44.023174",
    "longitude": "-69.669878",
    "mascot": "Indians",
    "name": "Wiscasset High School",
    "primary_color": "Red",
    "secondary_color": "Black",
    "state": "ME",
    "timezone": "America/New_York",
    "updated_at": "2012-07-08T00:06:54Z",
    "zip": "04578"
  },
  {
    "address": "256 Main St",
    "city": "South Paris",
    "county": "Oxford County",
    "created_at": "2012-01-04T20:15:10Z",
    "id": 11310,
    "latitude": "44.213064",
    "longitude": "-70.527113",
    "mascot": "Vikings",
    "name": "Oxford Hills Comprehensive High School",
    "primary_color": "Hunter Green",
    "secondary_color": "Gold",
    "state": "ME",
    "timezone": "America/New_York",
    "updated_at": "2012-07-08T00:06:54Z",
    "zip": "04281"
  },
  {
    "address": "99 Weld St",
    "city": "Dixfield",
    "county": "Oxford County",
    "created_at": "2012-01-04T20:15:10Z",
    "id": 11311,
    "latitude": "44.537242",
    "longitude": "-70.454727",
    "mascot": "Cougars",
    "name": "Dirigo High School",
    "primary_color": "Royal",
    "secondary_color": "White",
    "state": "ME",
    "timezone": "America/New_York",
    "updated_at": "2012-07-08T00:06:54Z",
    "zip": "04224"
  },
  {
    "address": "160 Morrill St",
    "city": "Buckfield",
    "county": "Oxford County",
    "created_at": "2012-01-04T20:15:10Z",
    "id": 11312,
    "latitude": "44.298525",
    "longitude": "-70.359763",
    "mascot": "Bucks",
    "name": "Buckfield Junior Senior High School",
    "primary_color": "Maroon",
    "secondary_color": "Gray",
    "state": "ME",
    "timezone": "America/New_York",
    "updated_at": "2012-07-08T00:06:54Z",
    "zip": "04220"
  },
  {
    "address": "115 S Hiram Rd",
    "city": "Hiram",
    "county": "Oxford County",
    "created_at": "2012-01-04T20:15:10Z",
    "id": 11313,
    "latitude": "43.811530",
    "longitude": "-70.869410",
    "mascot": "Hawks",
    "name": "Sacopee Valley Junior Senior High School",
    "primary_color": "Royal",
    "secondary_color": "White",
    "state": "ME",
    "timezone": "America/New_York",
    "updated_at": "2012-07-08T00:06:55Z",
    "zip": "04041"
  },
  {
    "address": "402 Main St",
    "city": "Corinth",
    "county": "Penobscot County",
    "created_at": "2012-01-04T20:15:10Z",
    "id": 11314,
    "latitude": "44.997380",
    "longitude": "-69.020531",
    "mascot": "Devils",
    "name": "Central High School",
    "primary_color": "Red",
    "secondary_color": "White",
    "state": "ME",
    "timezone": "America/New_York",
    "updated_at": "2012-07-08T00:06:55Z",
    "zip": "04427"
  },
  {
    "address": "15 Reed Dr",
    "city": "Lincoln",
    "county": "Penobscot County",
    "created_at": "2012-01-04T20:15:10Z",
    "id": 11315,
    "latitude": "45.378542",
    "longitude": "-68.499180",
    "mascot": "Lynx",
    "name": "Mattanawcook Academy",
    "primary_color": "Maroon",
    "secondary_color": "Gray",
    "state": "ME",
    "timezone": "America/New_York",
    "updated_at": "2012-07-08T00:06:55Z",
    "zip": "04457"
  },
  {
    "address": "79 Pky S",
    "city": "Brewer",
    "county": "Penobscot County",
    "created_at": "2012-01-04T20:15:10Z",
    "id": 11316,
    "latitude": "44.795420",
    "longitude": "-68.764699",
    "mascot": "Witches",
    "name": "Brewer High School",
    "primary_color": "Orange",
    "secondary_color": "Black",
    "state": "ME",
    "timezone": "America/New_York",
    "updated_at": "2012-07-08T00:06:56Z",
    "zip": "04412"
  },
  {
    "address": "199 State St",
    "city": "Millinocket",
    "county": "Penobscot County",
    "created_at": "2012-01-04T20:15:10Z",
    "id": 11317,
    "latitude": "45.661342",
    "longitude": "-68.706575",
    "mascot": "Minutemen",
    "name": "Stearns High School",
    "primary_color": "Royal",
    "secondary_color": "White",
    "state": "ME",
    "timezone": "America/New_York",
    "updated_at": "2012-07-08T00:06:56Z",
    "zip": "04462"
  },
  {
    "address": "885 Broadway",
    "city": "Bangor",
    "county": "Penobscot County",
    "created_at": "2012-01-04T20:15:10Z",
    "id": 11318,
    "latitude": "44.829504",
    "longitude": "-68.785082",
    "mascot": "Rams",
    "name": "Bangor High School",
    "primary_color": "Red",
    "secondary_color": "White",
    "state": "ME",
    "timezone": "America/New_York",
    "updated_at": "2012-07-08T00:06:56Z",
    "zip": "04401"
  },
  {
    "address": "203 Stillwater Ave",
    "city": "Old Town",
    "county": "Penobscot County",
    "created_at": "2012-01-04T20:15:10Z",
    "id": 11319,
    "latitude": "44.934700",
    "longitude": "-68.655148",
    "mascot": "Indians",
    "name": "Old Town High School",
    "primary_color": "Hunter Green",
    "secondary_color": "White",
    "state": "ME",
    "timezone": "America/New_York",
    "updated_at": "2012-07-08T00:06:56Z",
    "zip": "04468"
  },
  {
    "address": "1 Main Rd N",
    "city": "Hampden",
    "county": "Penobscot County",
    "created_at": "2012-01-04T20:15:10Z",
    "id": 11320,
    "latitude": "44.740055",
    "longitude": "-68.838421",
    "mascot": null,
    "name": "Hampden Academy High School",
    "primary_color": "Purple",
    "secondary_color": "White",
    "state": "ME",
    "timezone": "America/New_York",
    "updated_at": "2012-07-08T00:06:57Z",
    "zip": "04444"
  },
  {
    "address": "800 Station Rd",
    "city": "Sherman Station",
    "county": "Penobscot County",
    "created_at": "2012-01-04T20:15:10Z",
    "id": 11321,
    "latitude": "45.926027",
    "longitude": "-68.439251",
    "mascot": "Cougars",
    "name": "Katahdin High School",
    "primary_color": "Red",
    "secondary_color": "Black",
    "state": "ME",
    "timezone": "America/New_York",
    "updated_at": "2012-07-08T00:06:57Z",
    "zip": "04777"
  },
  {
    "address": "19 Cross St",
    "city": "Howland",
    "county": "Penobscot County",
    "created_at": "2012-01-04T20:15:10Z",
    "id": 11322,
    "latitude": "45.245770",
    "longitude": "-68.661384",
    "mascot": "Howlers",
    "name": "Penobscot Valley High School",
    "primary_color": "Kelly Green",
    "secondary_color": "White",
    "state": "ME",
    "timezone": "America/New_York",
    "updated_at": "2012-07-08T00:06:57Z",
    "zip": "04448"
  },
  {
    "address": "12 Abbott Hill Rd",
    "city": "Dexter",
    "county": "Penobscot County",
    "created_at": "2012-01-04T20:15:10Z",
    "id": 11323,
    "latitude": "45.025308",
    "longitude": "-69.294808",
    "mascot": "Tigers",
    "name": "Dexter Regional High School",
    "primary_color": "Red",
    "secondary_color": "White",
    "state": "ME",
    "timezone": "America/New_York",
    "updated_at": "2012-07-08T00:06:57Z",
    "zip": "04930"
  },
  {
    "address": "2415 Rt 2",
    "city": "Hermon",
    "county": "Penobscot County",
    "created_at": "2012-01-04T20:15:10Z",
    "id": 11324,
    "latitude": "44.806101",
    "longitude": "-68.902794",
    "mascot": "Hawks",
    "name": "Hermon High School",
    "primary_color": "Gold",
    "secondary_color": "Royal",
    "state": "ME",
    "timezone": "America/New_York",
    "updated_at": "2012-07-08T00:06:58Z",
    "zip": "04401"
  },
  {
    "address": "45 N St",
    "city": "East Millinocket",
    "county": "Penobscot County",
    "created_at": "2012-01-04T20:15:10Z",
    "id": 11325,
    "latitude": "45.631678",
    "longitude": "-68.571986",
    "mascot": "Wolverines",
    "name": "Schenck High School",
    "primary_color": "Kelly Green",
    "secondary_color": "White",
    "state": "ME",
    "timezone": "America/New_York",
    "updated_at": "2012-07-08T00:06:58Z",
    "zip": "04430"
  },
  {
    "address": "18 Goodridge Dr",
    "city": "Orono",
    "county": "Penobscot County",
    "created_at": "2012-01-04T20:15:10Z",
    "id": 11326,
    "latitude": "44.881324",
    "longitude": "-68.677231",
    "mascot": null,
    "name": "Orono Junior Senior High School",
    "primary_color": "Maroon",
    "secondary_color": "White",
    "state": "ME",
    "timezone": "America/New_York",
    "updated_at": "2012-07-08T00:06:58Z",
    "zip": "04473"
  },
  {
    "address": "9 Campus Dr",
    "city": "Guilford",
    "county": "Piscataquis County",
    "created_at": "2012-01-04T20:15:10Z",
    "id": 11327,
    "latitude": "45.171242",
    "longitude": "-69.380125",
    "mascot": "Pirates",
    "name": "Piscataquis Community High School",
    "primary_color": "Gold",
    "secondary_color": "Royal",
    "state": "ME",
    "timezone": "America/New_York",
    "updated_at": "2012-07-08T00:06:59Z",
    "zip": "04443"
  },
  {
    "address": "826 High St",
    "city": "Bath",
    "county": "Sagadahoc County",
    "created_at": "2012-01-04T20:15:10Z",
    "id": 11328,
    "latitude": "43.914000",
    "longitude": "-69.819403",
    "mascot": null,
    "name": "Morse Senior High School",
    "primary_color": "Royal",
    "secondary_color": "White",
    "state": "ME",
    "timezone": "America/New_York",
    "updated_at": "2012-07-08T00:06:59Z",
    "zip": "04530"
  },
  {
    "address": "160 N Main St",
    "city": "North Anson",
    "county": "Somerset County",
    "created_at": "2012-01-04T20:15:10Z",
    "id": 11329,
    "latitude": "44.861197",
    "longitude": "-69.887353",
    "mascot": "Cobras",
    "name": "Carrabec High School",
    "primary_color": "Kelly Green",
    "secondary_color": "White",
    "state": "ME",
    "timezone": "America/New_York",
    "updated_at": "2012-07-08T00:06:59Z",
    "zip": "04958"
  },
  {
    "address": "486 Main St",
    "city": "Madison",
    "county": "Somerset County",
    "created_at": "2012-01-04T20:15:10Z",
    "id": 11330,
    "latitude": "44.799978",
    "longitude": "-69.848005",
    "mascot": "Bulldogs",
    "name": "Madison High School",
    "primary_color": "Royal",
    "secondary_color": "White",
    "state": "ME",
    "timezone": "America/New_York",
    "updated_at": "2012-07-08T00:06:59Z",
    "zip": "04950"
  },
  {
    "address": "61 Academy Cir",
    "city": "Skowhegan",
    "county": "Somerset County",
    "created_at": "2012-01-04T20:15:10Z",
    "id": 11331,
    "latitude": "44.751481",
    "longitude": "-69.728866",
    "mascot": "Indians",
    "name": "Skowhegan High School",
    "primary_color": "Black",
    "secondary_color": "Orange",
    "state": "ME",
    "timezone": "America/New_York",
    "updated_at": "2012-07-08T00:07:00Z",
    "zip": "04976"
  },
  {
    "address": "9 School St",
    "city": "Fairfield",
    "county": "Somerset County",
    "created_at": "2012-01-04T20:15:10Z",
    "id": 11332,
    "latitude": "44.589152",
    "longitude": "-69.604645",
    "mascot": "Bulldogs",
    "name": "Lawrence High School",
    "primary_color": "Royal",
    "secondary_color": "Gray",
    "state": "ME",
    "timezone": "America/New_York",
    "updated_at": "2012-07-08T00:07:00Z",
    "zip": "04937"
  },
  {
    "address": "577 Mount View Rd",
    "city": "Thorndike",
    "county": "Waldo County",
    "created_at": "2012-01-04T20:15:10Z",
    "id": 11333,
    "latitude": "44.552716",
    "longitude": "-69.268676",
    "mascot": "Mustangs",
    "name": "Mount View High School",
    "primary_color": "Kelly Green",
    "secondary_color": "White",
    "state": "ME",
    "timezone": "America/New_York",
    "updated_at": "2012-07-08T00:07:00Z",
    "zip": "04986"
  },
  {
    "address": "159 Alumni Dr",
    "city": "Islesboro",
    "county": "Waldo County",
    "created_at": "2012-01-04T20:15:10Z",
    "id": 11334,
    "latitude": "44.267837",
    "longitude": "-68.914838",
    "mascot": "Eagles",
    "name": "Islesboro Central School",
    "primary_color": "Gray",
    "secondary_color": "Royal",
    "state": "ME",
    "timezone": "America/New_York",
    "updated_at": "2012-07-08T00:07:00Z",
    "zip": "04848"
  },
  {
    "address": "180 Snare Creek Ln",
    "city": "Jonesport",
    "county": "Washington County",
    "created_at": "2012-01-04T20:15:10Z",
    "id": 11335,
    "latitude": "44.557508",
    "longitude": "-67.615582",
    "mascot": "Lions",
    "name": "Jonesport Beals High School",
    "primary_color": "Royal",
    "secondary_color": "White",
    "state": "ME",
    "timezone": "America/New_York",
    "updated_at": "2012-07-08T00:07:01Z",
    "zip": "04649"
  },
  {
    "address": "31 Houlton Rd",
    "city": "Danforth",
    "county": "Washington County",
    "created_at": "2012-01-04T20:15:10Z",
    "id": 11336,
    "latitude": "45.661354",
    "longitude": "-67.864879",
    "mascot": "Vikings",
    "name": "East Grand School",
    "primary_color": "Maroon",
    "secondary_color": "White",
    "state": "ME",
    "timezone": "America/New_York",
    "updated_at": "2012-07-08T00:07:01Z",
    "zip": "04424"
  },
  {
    "address": "20 South St",
    "city": "Lubec",
    "county": "Washington County",
    "created_at": "2012-01-04T20:15:10Z",
    "id": 11337,
    "latitude": "44.854779",
    "longitude": "-66.990297",
    "mascot": "Hornets",
    "name": "Lubec Consolidated School",
    "primary_color": "Gold",
    "secondary_color": "Kelly Green",
    "state": "ME",
    "timezone": "America/New_York",
    "updated_at": "2012-07-08T00:07:01Z",
    "zip": "04652"
  },
  {
    "address": "34 Blue Devil Hill",
    "city": "Calais",
    "county": "Washington County",
    "created_at": "2012-01-04T20:15:10Z",
    "id": 11338,
    "latitude": "45.164624",
    "longitude": "-67.242790",
    "mascot": "Devils",
    "name": "Calais High School",
    "primary_color": "Royal",
    "secondary_color": "White",
    "state": "ME",
    "timezone": "America/New_York",
    "updated_at": "2012-07-08T00:07:01Z",
    "zip": "04619"
  },
  {
    "address": "222 Sanford Rd",
    "city": "Wells",
    "county": "York County",
    "created_at": "2012-01-04T20:15:10Z",
    "id": 11339,
    "latitude": "43.321832",
    "longitude": "-70.590964",
    "mascot": "Warriors",
    "name": "Wells High School",
    "primary_color": "Red",
    "secondary_color": "Black",
    "state": "ME",
    "timezone": "America/New_York",
    "updated_at": "2012-07-08T00:07:01Z",
    "zip": "04090"
  },
  {
    "address": "12 Williams Ave",
    "city": "Kittery",
    "county": "York County",
    "created_at": "2012-01-04T20:15:10Z",
    "id": 11340,
    "latitude": "43.087422",
    "longitude": "-70.738604",
    "mascot": "Rangers",
    "name": "Traip Academy High School",
    "primary_color": "Royal",
    "secondary_color": "Gold",
    "state": "ME",
    "timezone": "America/New_York",
    "updated_at": "2012-07-08T00:07:02Z",
    "zip": "03904"
  },
  {
    "address": "40 E Emerson Cummings Blvd",
    "city": "Old Orchard Beach",
    "county": "York County",
    "created_at": "2012-01-04T20:15:10Z",
    "id": 11341,
    "latitude": "43.514337",
    "longitude": "-70.392588",
    "mascot": "Sea Gulls",
    "name": "Old Orchard Beach High School",
    "primary_color": "White",
    "secondary_color": "Royal",
    "state": "ME",
    "timezone": "America/New_York",
    "updated_at": "2012-07-08T00:07:02Z",
    "zip": "04064"
  },
  {
    "address": "89 Fletcher St",
    "city": "Kennebunk",
    "county": "York County",
    "created_at": "2012-01-04T20:15:10Z",
    "id": 11342,
    "latitude": "43.395231",
    "longitude": "-70.549631",
    "mascot": "Rams",
    "name": "Kennebunk High School",
    "primary_color": "Royal",
    "secondary_color": "White",
    "state": "ME",
    "timezone": "America/New_York",
    "updated_at": "2012-07-08T00:07:02Z",
    "zip": "04043"
  },
  {
    "address": "286 Long Sands Rd",
    "city": "York",
    "county": "York County",
    "created_at": "2012-01-04T20:15:10Z",
    "id": 11343,
    "latitude": "43.151728",
    "longitude": "-70.628576",
    "mascot": "Wildcats",
    "name": "York High School",
    "primary_color": "Columbia Blue",
    "secondary_color": "White",
    "state": "ME",
    "timezone": "America/New_York",
    "updated_at": "2012-07-08T00:07:03Z",
    "zip": "03909"
  },
  {
    "address": "700 Saco Rd",
    "city": "Standish",
    "county": "Cumberland County",
    "created_at": "2012-01-04T20:15:10Z",
    "id": 11344,
    "latitude": "43.697321",
    "longitude": "-70.600446",
    "mascot": "Scotts",
    "name": "Bonny Eagle High School",
    "primary_color": "Kelly Green",
    "secondary_color": "White",
    "state": "ME",
    "timezone": "America/New_York",
    "updated_at": "2012-07-08T00:07:03Z",
    "zip": "04084"
  },
  {
    "address": "388 Summersworth Rd",
    "city": "North Berwick",
    "county": "York County",
    "created_at": "2012-01-04T20:15:10Z",
    "id": 11345,
    "latitude": "43.298469",
    "longitude": "-70.778712",
    "mascot": "Knights",
    "name": "Noble High School",
    "primary_color": "Gray",
    "secondary_color": "Maroon",
    "state": "ME",
    "timezone": "America/New_York",
    "updated_at": "2012-07-08T00:07:03Z",
    "zip": "03906"
  },
  {
    "address": "80 West Rd",
    "city": "Waterboro",
    "county": "York County",
    "created_at": "2012-01-04T20:15:10Z",
    "id": 11346,
    "latitude": "43.537590",
    "longitude": "-70.723932",
    "mascot": "Mustangs",
    "name": "Massabesic High School",
    "primary_color": "Kelly Green",
    "secondary_color": "White",
    "state": "ME",
    "timezone": "America/New_York",
    "updated_at": "2012-07-08T00:07:03Z",
    "zip": "04087"
  },
  {
    "address": "1051 Roosevelt Trl",
    "city": "Windham",
    "county": "Cumberland County",
    "created_at": "2012-01-04T20:15:10Z",
    "id": 11347,
    "latitude": "43.864381",
    "longitude": "-70.466240",
    "mascot": "Warriors",
    "name": "Windham Christian Academy",
    "primary_color": "Royal",
    "secondary_color": "White",
    "state": "ME",
    "timezone": "America/New_York",
    "updated_at": "2012-07-08T00:07:04Z",
    "zip": "04062"
  },
  {
    "address": "24 Madison Ave",
    "city": "Auburn",
    "county": "Androscoggin County",
    "created_at": "2012-01-04T20:15:10Z",
    "id": 11348,
    "latitude": "44.087597",
    "longitude": "-70.234062",
    "mascot": null,
    "name": "Central Maine Christian Academy",
    "primary_color": "Gray",
    "secondary_color": "Kelly Green",
    "state": "ME",
    "timezone": "America/New_York",
    "updated_at": "2012-07-08T00:07:04Z",
    "zip": "04210"
  },
  {
    "address": "308 Sweden St",
    "city": "Caribou",
    "county": "Aroostook County",
    "created_at": "2012-01-04T20:15:10Z",
    "id": 11349,
    "latitude": "46.863890",
    "longitude": "-68.031074",
    "mascot": "Vikings",
    "name": "Caribou High School",
    "primary_color": "Maroon",
    "secondary_color": "White",
    "state": "ME",
    "timezone": "America/New_York",
    "updated_at": "2012-07-08T00:07:04Z",
    "zip": "04736"
  },
  {
    "address": "125 S Maine St",
    "city": "Pittsfield",
    "county": "Somerset County",
    "created_at": "2012-01-04T20:15:10Z",
    "id": 11350,
    "latitude": "44.783230",
    "longitude": "-69.382029",
    "mascot": "Huskies",
    "name": "Maine Central Institute",
    "primary_color": "Maroon",
    "secondary_color": "White",
    "state": "ME",
    "timezone": "America/New_York",
    "updated_at": "2012-07-08T00:07:04Z",
    "zip": "04967"
  },
  {
    "address": "143 Beachnut Hill Rd",
    "city": "Wiscasset",
    "county": "Lincoln County",
    "created_at": "2012-01-04T20:15:10Z",
    "id": 11351,
    "latitude": "43.989111",
    "longitude": "-69.694342",
    "mascot": "Minutemen",
    "name": "Wiscasset Christian School",
    "primary_color": "Royal",
    "secondary_color": "White",
    "state": "ME",
    "timezone": "America/New_York",
    "updated_at": "2012-07-08T00:07:05Z",
    "zip": "04578"
  },
  {
    "address": "1 Park St",
    "city": "South Paris",
    "county": "Oxford County",
    "created_at": "2012-01-04T20:15:10Z",
    "id": 11352,
    "latitude": "44.225249",
    "longitude": "-70.514105",
    "mascot": "Eagles",
    "name": "Oxford Hills Christian Academy",
    "primary_color": "Navy",
    "secondary_color": "White",
    "state": "ME",
    "timezone": "America/New_York",
    "updated_at": "2012-07-08T00:07:06Z",
    "zip": "04281"
  },
  {
    "address": "185 Atlantic Hwy",
    "city": "Warren",
    "county": "Knox County",
    "created_at": "2012-01-04T20:15:10Z",
    "id": 11353,
    "latitude": "44.080674",
    "longitude": "-69.225005",
    "mascot": null,
    "name": "Calvary Family School",
    "primary_color": "Royal",
    "secondary_color": "White",
    "state": "ME",
    "timezone": "America/New_York",
    "updated_at": "2012-07-08T00:07:06Z",
    "zip": "04864"
  },
  {
    "address": "171 Bar Harbor Rd",
    "city": "Ellsworth",
    "county": "Hancock County",
    "created_at": "2012-01-04T20:15:10Z",
    "id": 11354,
    "latitude": "44.500911",
    "longitude": "-68.382656",
    "mascot": null,
    "name": "Life Christian Academy",
    "primary_color": "Purple",
    "secondary_color": "White",
    "state": "ME",
    "timezone": "America/New_York",
    "updated_at": "2012-07-08T00:07:06Z",
    "zip": "04605"
  },
  {
    "address": "425 Chop Point Rd",
    "city": "Woolwich",
    "county": "Sagadahoc County",
    "created_at": "2012-01-04T20:15:10Z",
    "id": 11355,
    "latitude": "43.983671",
    "longitude": "-69.827078",
    "mascot": null,
    "name": "Chop Point School",
    "primary_color": "Royal",
    "secondary_color": "White",
    "state": "ME",
    "timezone": "America/New_York",
    "updated_at": "2012-07-08T00:07:07Z",
    "zip": "04579"
  },
  {
    "address": "301 Park St",
    "city": "Rockland",
    "county": "Knox County",
    "created_at": "2012-01-04T20:15:10Z",
    "id": 11356,
    "latitude": "44.101531",
    "longitude": "-69.130518",
    "mascot": "Saints",
    "name": "Grace Christian School",
    "primary_color": "Maroon",
    "secondary_color": "Gold",
    "state": "ME",
    "timezone": "America/New_York",
    "updated_at": "2012-07-08T00:07:07Z",
    "zip": "04841"
  },
  {
    "address": "RFD 2 Box 2580",
    "city": "Farmington",
    "county": "Franklin County",
    "created_at": "2012-01-04T20:15:10Z",
    "id": 11357,
    "latitude": "44.718722",
    "longitude": "-70.087515",
    "mascot": "Lynx",
    "name": "Foster Regional Applied Technology Ctr",
    "primary_color": "Red",
    "secondary_color": "Navy",
    "state": "ME",
    "timezone": "America/New_York",
    "updated_at": "2012-07-08T00:07:07Z",
    "zip": "04938"
  },
  {
    "address": "48 Penguis Dr",
    "city": "Milo",
    "county": "Piscataquis County",
    "created_at": "2012-01-04T20:15:10Z",
    "id": 11358,
    "latitude": "45.254236",
    "longitude": "-68.985035",
    "mascot": "Patriots",
    "name": "Penquis Valley High School",
    "primary_color": "Red",
    "secondary_color": "White",
    "state": "ME",
    "timezone": "America/New_York",
    "updated_at": "2012-07-08T00:07:08Z",
    "zip": "04463"
  },
  {
    "address": "110 Meadow St",
    "city": "Bingham",
    "county": "Somerset County",
    "created_at": "2012-01-04T20:15:10Z",
    "id": 11359,
    "latitude": "45.057914",
    "longitude": "-69.872980",
    "mascot": "Cavaliers",
    "name": "Upper Kennebec Valley Junior Senior High",
    "primary_color": "Gray",
    "secondary_color": "Royal",
    "state": "ME",
    "timezone": "America/New_York",
    "updated_at": "2012-07-08T00:07:08Z",
    "zip": "04920"
  },
  {
    "address": "195 W Front St",
    "city": "Skowhegan",
    "county": "Somerset County",
    "created_at": "2012-01-04T20:15:10Z",
    "id": 11360,
    "latitude": "44.754025",
    "longitude": "-69.732620",
    "mascot": "Indians",
    "name": "Marti Stevens Learning Center",
    "primary_color": "Orange",
    "secondary_color": "Black",
    "state": "ME",
    "timezone": "America/New_York",
    "updated_at": "2012-07-08T00:07:08Z",
    "zip": "04976"
  },
  {
    "address": "52 Sanford High Blvd",
    "city": "Sanford",
    "county": "York County",
    "created_at": "2012-01-04T20:15:10Z",
    "id": 11361,
    "latitude": "43.453594",
    "longitude": "-70.786496",
    "mascot": "Redskins",
    "name": "Sanford High School",
    "primary_color": "Red",
    "secondary_color": "White",
    "state": "ME",
    "timezone": "America/New_York",
    "updated_at": "2012-07-08T00:07:08Z",
    "zip": "04073"
  },
  {
    "address": "377 River Rd",
    "city": "Mexico Main",
    "county": "Oxford County",
    "created_at": "2012-01-04T20:15:10Z",
    "id": 11362,
    "latitude": "44.534632",
    "longitude": "-70.506225",
    "mascot": null,
    "name": "School Of Applied Technology Region 9",
    "primary_color": "Teal",
    "secondary_color": "Gray",
    "state": "ME",
    "timezone": "America/New_York",
    "updated_at": "2012-07-08T00:07:09Z",
    "zip": "04257"
  },
  {
    "address": "10 Maplewood Ave",
    "city": "Biddeford",
    "county": "York County",
    "created_at": "2012-01-04T20:15:10Z",
    "id": 11363,
    "latitude": "43.496463",
    "longitude": "-70.469932",
    "mascot": null,
    "name": "Biddeford Regional Center Of Technology",
    "primary_color": "Royal",
    "secondary_color": "Black",
    "state": "ME",
    "timezone": "America/New_York",
    "updated_at": "2012-07-08T00:07:09Z",
    "zip": "04005"
  },
  {
    "address": "431 US Rt 1",
    "city": "Frenchville",
    "county": "Aroostook County",
    "created_at": "2012-01-04T20:15:10Z",
    "id": 11364,
    "latitude": "47.280212",
    "longitude": "-68.423755",
    "mascot": null,
    "name": "Saint John Valley Technology Center",
    "primary_color": "Gray",
    "secondary_color": "Maroon",
    "state": "ME",
    "timezone": "America/New_York",
    "updated_at": "2012-07-08T00:07:09Z",
    "zip": "04745"
  },
  {
    "address": "200 Hogan Rd",
    "city": "Bangor",
    "county": "Penobscot County",
    "created_at": "2012-01-04T20:15:11Z",
    "id": 11365,
    "latitude": "44.820427",
    "longitude": "-68.739105",
    "mascot": null,
    "name": "United Technologies Center",
    "primary_color": "Teal",
    "secondary_color": "Purple",
    "state": "ME",
    "timezone": "America/New_York",
    "updated_at": "2012-07-08T00:07:10Z",
    "zip": "04401"
  },
  {
    "address": "40 Pierce Dr",
    "city": "Augusta",
    "county": "Kennebec County",
    "created_at": "2012-01-04T20:15:11Z",
    "id": 11366,
    "latitude": "44.311843",
    "longitude": "-69.748232",
    "mascot": null,
    "name": "Capitol Area Technical Center",
    "primary_color": "Royal",
    "secondary_color": "Gray",
    "state": "ME",
    "timezone": "America/New_York",
    "updated_at": "2012-07-08T00:07:10Z",
    "zip": "04330"
  },
  {
    "address": "61 Academy Circle",
    "city": "Skowhegan",
    "county": "Somerset County",
    "created_at": "2012-01-04T20:15:11Z",
    "id": 11367,
    "latitude": "44.751481",
    "longitude": "-69.728866",
    "mascot": null,
    "name": "Skowhegan Regional Vocational Center",
    "primary_color": "Navy",
    "secondary_color": "Gray",
    "state": "ME",
    "timezone": "America/New_York",
    "updated_at": "2012-07-08T00:07:10Z",
    "zip": "04976"
  },
  {
    "address": "68 Church Rd",
    "city": "Brunswick",
    "county": "Cumberland County",
    "created_at": "2012-01-04T20:15:11Z",
    "id": 11368,
    "latitude": "43.907578",
    "longitude": "-69.991750",
    "mascot": null,
    "name": "Maine Vocational Region 10",
    "primary_color": null,
    "secondary_color": null,
    "state": "ME",
    "timezone": "America/New_York",
    "updated_at": "2012-07-08T00:07:10Z",
    "zip": "04011"
  },
  {
    "address": "PO Box 313",
    "city": "Norway",
    "county": "Oxford County",
    "created_at": "2012-01-04T20:15:11Z",
    "id": 11369,
    "latitude": "44.213100",
    "longitude": "-70.540474",
    "mascot": "Vikings",
    "name": "South Oxford County Vocational School",
    "primary_color": "Hunter Green",
    "secondary_color": "Gold",
    "state": "ME",
    "timezone": "America/New_York",
    "updated_at": "2012-07-08T00:07:10Z",
    "zip": "04268"
  },
  {
    "address": "1022 Waterville Rd",
    "city": "Waldo",
    "county": "Waldo County",
    "created_at": "2012-01-04T20:15:11Z",
    "id": 11370,
    "latitude": "44.454546",
    "longitude": "-69.096487",
    "mascot": null,
    "name": "Waldo County Technical School",
    "primary_color": null,
    "secondary_color": null,
    "state": "ME",
    "timezone": "America/New_York",
    "updated_at": "2012-07-08T00:07:11Z",
    "zip": "04915"
  },
  {
    "address": "196 Allen Ave",
    "city": "Portland",
    "county": "Cumberland County",
    "created_at": "2012-01-04T20:15:11Z",
    "id": 11371,
    "latitude": "43.695306",
    "longitude": "-70.291630",
    "mascot": null,
    "name": "Portland Regional Technical Vocational",
    "primary_color": null,
    "secondary_color": null,
    "state": "ME",
    "timezone": "America/New_York",
    "updated_at": "2012-07-08T00:07:11Z",
    "zip": "04103"
  },
  {
    "address": "308 Sweden St Ste 1",
    "city": "Caribou",
    "county": "Aroostook County",
    "created_at": "2012-01-04T20:15:11Z",
    "id": 11372,
    "latitude": "46.863890",
    "longitude": "-68.031074",
    "mascot": "Vikings",
    "name": "Caribou Regional Applied Technology Ctr",
    "primary_color": "Gold",
    "secondary_color": "Maroon",
    "state": "ME",
    "timezone": "America/New_York",
    "updated_at": "2012-07-08T00:07:11Z",
    "zip": "04736"
  },
  {
    "address": "17 W Broadway",
    "city": "Lincoln",
    "county": "Penobscot County",
    "created_at": "2012-01-04T20:15:11Z",
    "id": 11373,
    "latitude": "45.362852",
    "longitude": "-68.506729",
    "mascot": null,
    "name": "North Penobscot Technological School",
    "primary_color": "Navy",
    "secondary_color": "Gold",
    "state": "ME",
    "timezone": "America/New_York",
    "updated_at": "2012-07-08T00:07:12Z",
    "zip": "04457"
  },
  {
    "address": "14 Abbott Hill Rd",
    "city": "Dexter",
    "county": "Penobscot County",
    "created_at": "2012-01-04T20:15:11Z",
    "id": 11374,
    "latitude": "45.025394",
    "longitude": "-69.294841",
    "mascot": null,
    "name": "Tri County Technical Center",
    "primary_color": "Royal",
    "secondary_color": "White",
    "state": "ME",
    "timezone": "America/New_York",
    "updated_at": "2012-07-08T00:07:12Z",
    "zip": "04930"
  },
  {
    "address": "16 Western Ave",
    "city": "Auburn",
    "county": "Androscoggin County",
    "created_at": "2012-01-04T20:15:11Z",
    "id": 11375,
    "latitude": "44.095240",
    "longitude": "-70.240608",
    "mascot": "Panthers",
    "name": "Merrill Hill Alternative School",
    "primary_color": "Black",
    "secondary_color": "White",
    "state": "ME",
    "timezone": "America/New_York",
    "updated_at": "2012-07-08T00:07:12Z",
    "zip": "04212"
  },
  {
    "address": "154 Mount Auburn Ave",
    "city": "Auburn",
    "county": "Androscoggin County",
    "created_at": "2012-01-04T20:15:11Z",
    "id": 11376,
    "latitude": "44.121799",
    "longitude": "-70.239677",
    "mascot": null,
    "name": "RETC SOS",
    "primary_color": "Royal",
    "secondary_color": "White",
    "state": "ME",
    "timezone": "America/New_York",
    "updated_at": "2012-07-08T00:07:13Z",
    "zip": "04212"
  },
  {
    "address": "8 Liberty Ln",
    "city": "Blue Hill",
    "county": "Hancock County",
    "created_at": "2012-01-04T20:15:11Z",
    "id": 11377,
    "latitude": "44.405605",
    "longitude": "-68.594567",
    "mascot": "Lightning Bolts",
    "name": "Liberty School",
    "primary_color": "Gray",
    "secondary_color": "Royal",
    "state": "ME",
    "timezone": "America/New_York",
    "updated_at": "2012-07-08T00:07:13Z",
    "zip": "04614"
  },
  {
    "address": "739 Main Rd",
    "city": "Charleston",
    "county": "Penobscot County",
    "created_at": "2012-01-04T20:15:11Z",
    "id": 11378,
    "latitude": "45.034975",
    "longitude": "-69.032381",
    "mascot": "Knights",
    "name": "Highview Christian Academy",
    "primary_color": "Gray",
    "secondary_color": "Navy",
    "state": "ME",
    "timezone": "America/New_York",
    "updated_at": "2012-07-08T00:07:13Z",
    "zip": "04422"
  },
  {
    "address": "181 Ossepee Tr W",
    "city": "Standish",
    "county": "Cumberland County",
    "created_at": "2012-01-04T20:15:11Z",
    "id": 11379,
    "latitude": "43.733666",
    "longitude": "-70.566017",
    "mascot": null,
    "name": "Standish Baptist Academy",
    "primary_color": "Teal",
    "secondary_color": "Black",
    "state": "ME",
    "timezone": "America/New_York",
    "updated_at": "2012-07-08T00:07:13Z",
    "zip": "04084"
  },
  {
    "address": "95 High St",
    "city": "Limestone",
    "county": "Aroostook County",
    "created_at": "2012-01-04T20:15:11Z",
    "id": 11380,
    "latitude": "46.906626",
    "longitude": "-67.827659",
    "mascot": null,
    "name": "Maine School Of Science & Mathematics",
    "primary_color": "Gray",
    "secondary_color": "Navy",
    "state": "ME",
    "timezone": "America/New_York",
    "updated_at": "2012-07-08T00:07:14Z",
    "zip": "04750"
  },
  {
    "address": "1457 Maine St",
    "city": "Poland",
    "county": "Androscoggin County",
    "created_at": "2012-01-04T20:15:11Z",
    "id": 11381,
    "latitude": "44.072784",
    "longitude": "-70.413001",
    "mascot": "Knights",
    "name": "Poland Regional High School",
    "primary_color": "Gray",
    "secondary_color": "Royal",
    "state": "ME",
    "timezone": "America/New_York",
    "updated_at": "2012-07-08T00:07:14Z",
    "zip": "04274"
  },
  {
    "address": "1877 Roosevelt Trail",
    "city": "Naples",
    "county": "Cumberland County",
    "created_at": "2012-01-04T20:15:11Z",
    "id": 11382,
    "latitude": "43.997206",
    "longitude": "-70.658174",
    "mascot": "King Traitons",
    "name": "Lake Region High School",
    "primary_color": "Gold",
    "secondary_color": "Royal",
    "state": "ME",
    "timezone": "America/New_York",
    "updated_at": "2012-07-08T00:07:14Z",
    "zip": "04055"
  },
  {
    "address": "877 Poland Spring Rd",
    "city": "Casco",
    "county": "Cumberland County",
    "created_at": "2012-01-04T20:15:11Z",
    "id": 11383,
    "latitude": "43.984146",
    "longitude": "-70.513193",
    "mascot": null,
    "name": "Casco Memorial School Learning Center",
    "primary_color": null,
    "secondary_color": null,
    "state": "ME",
    "timezone": "America/New_York",
    "updated_at": "2012-07-08T00:07:14Z",
    "zip": "04015"
  },
  {
    "address": "1879 Roosevelt Trl",
    "city": "Naples",
    "county": "Cumberland County",
    "created_at": "2012-01-04T20:15:11Z",
    "id": 11384,
    "latitude": "43.997238",
    "longitude": "-70.658221",
    "mascot": null,
    "name": "Lake Region Vocational Center",
    "primary_color": null,
    "secondary_color": null,
    "state": "ME",
    "timezone": "America/New_York",
    "updated_at": "2012-07-08T00:07:14Z",
    "zip": "04055"
  },
  {
    "address": "2456 US Hwy 1",
    "city": "Sullivan",
    "county": "Hancock County",
    "created_at": "2012-01-04T20:15:11Z",
    "id": 11385,
    "latitude": "44.511310",
    "longitude": "-68.167968",
    "mascot": "Tigers",
    "name": "Sumner Memorial High School",
    "primary_color": "Royal",
    "secondary_color": "White",
    "state": "ME",
    "timezone": "America/New_York",
    "updated_at": "2012-07-08T00:07:15Z",
    "zip": "04664"
  },
  {
    "address": "26 Gartley St",
    "city": "Libson",
    "county": "Androscoggin County",
    "created_at": "2012-01-04T20:15:11Z",
    "id": 11386,
    "latitude": "44.027768",
    "longitude": "-70.105541",
    "mascot": "Patriots",
    "name": "Open Door Christian Academy",
    "primary_color": "Maroon",
    "secondary_color": "Gray",
    "state": "ME",
    "timezone": "America/New_York",
    "updated_at": "2012-07-08T00:07:15Z",
    "zip": "04250"
  },
  {
    "address": "25 Adams Ave",
    "city": "Lewiston",
    "county": "Androscoggin County",
    "created_at": "2012-01-04T20:15:11Z",
    "id": 11387,
    "latitude": "44.089299",
    "longitude": "-70.211762",
    "mascot": "Narwhale",
    "name": "North Atlantic Regional High School",
    "primary_color": "Hunter Green",
    "secondary_color": "Yellow",
    "state": "ME",
    "timezone": "America/New_York",
    "updated_at": "2012-07-08T00:07:15Z",
    "zip": "04240"
  }
]