[
  {
    "address": "PO Box 200",
    "city": "Savoonga",
    "county": "Nome Census Area",
    "created_at": "2012-01-04T20:13:20Z",
    "id": 2215,
    "latitude": "63.685999",
    "longitude": "-170.493057",
    "mascot": "Huskies",
    "name": "Hogarth Kingeekuk School",
    "primary_color": "Gold",
    "secondary_color": "Royal",
    "state": "AK",
    "timezone": "America/Nome",
    "updated_at": "2012-07-07T22:44:18Z",
    "zip": "99769"
  },
  {
    "address": "General Delivery",
    "city": "Hooper Bay",
    "county": "Wade Hampton Census Area",
    "created_at": "2012-01-04T20:13:20Z",
    "id": 2216,
    "latitude": "61.531703",
    "longitude": "-166.098101",
    "mascot": "Warriors",
    "name": "Hooper Bay School",
    "primary_color": "Gold",
    "secondary_color": "Royal",
    "state": "AK",
    "timezone": "America/Nome",
    "updated_at": "2012-07-07T22:44:18Z",
    "zip": "99604"
  },
  {
    "address": "122 Yukon Dr",
    "city": "Nulato",
    "county": "Yukon-Koyukuk Census Area",
    "created_at": "2012-01-04T20:13:20Z",
    "id": 2217,
    "latitude": "64.716978",
    "longitude": "-158.106511",
    "mascot": "Wolves",
    "name": "Andrew K Demoski School",
    "primary_color": "Red",
    "secondary_color": "White",
    "state": "AK",
    "timezone": "America/Anchorage",
    "updated_at": "2012-07-07T22:44:19Z",
    "zip": "99765"
  },
  {
    "address": "4th & Milton Street",
    "city": "Metlakatla",
    "county": "Prince of Wales-Outer Ketchikan Census Area",
    "created_at": "2012-01-04T20:13:20Z",
    "id": 2218,
    "latitude": "55.128710",
    "longitude": "-131.575029",
    "mascot": "Chiefs",
    "name": "Metlakatla High School",
    "primary_color": "Gold",
    "secondary_color": "Royal",
    "state": "AK",
    "timezone": "America/Metlakatla",
    "updated_at": "2012-07-07T22:44:19Z",
    "zip": "99926"
  },
  {
    "address": "985 KSD Way",
    "city": "Chevak",
    "county": "Wade Hampton Census Area",
    "created_at": "2012-01-04T20:13:20Z",
    "id": 2219,
    "latitude": "61.528003",
    "longitude": "-165.580693",
    "mascot": "Comets",
    "name": "Chevak School",
    "primary_color": "Columbia Blue",
    "secondary_color": "Red",
    "state": "AK",
    "timezone": "America/Nome",
    "updated_at": "2012-07-07T22:44:20Z",
    "zip": "99563"
  },
  {
    "address": "1010 Sandy Beach Road",
    "city": "Thorne Bay",
    "county": "Prince of Wales-Outer Ketchikan Census Area",
    "created_at": "2012-01-04T20:13:20Z",
    "id": 2220,
    "latitude": "55.686360",
    "longitude": "-132.527189",
    "mascot": "Wolverines",
    "name": "Thorne Bay School",
    "primary_color": "Gold",
    "secondary_color": "Black",
    "state": "AK",
    "timezone": "America/Metlakatla",
    "updated_at": "2012-07-07T22:44:21Z",
    "zip": "99919"
  },
  {
    "address": "1976 Aurora Dr",
    "city": "Glennallen",
    "county": "Valdez-Cordova Census Area",
    "created_at": "2012-01-04T20:13:20Z",
    "id": 2221,
    "latitude": "62.108380",
    "longitude": "-145.530419",
    "mascot": "Panthers",
    "name": "Glennallen High School",
    "primary_color": "Gold",
    "secondary_color": "Black",
    "state": "AK",
    "timezone": "America/Anchorage",
    "updated_at": "2012-07-07T22:44:21Z",
    "zip": "99588"
  },
  {
    "address": "8001 Glacier Hwy",
    "city": "Juneau",
    "county": "City and Borough of Juneau",
    "created_at": "2012-01-04T20:13:20Z",
    "id": 2222,
    "latitude": "58.360198",
    "longitude": "-134.554594",
    "mascot": "Knights",
    "name": "Juneau Christian School",
    "primary_color": "Gray",
    "secondary_color": "Royal",
    "state": "AK",
    "timezone": "America/Juneau",
    "updated_at": "2012-07-07T22:44:22Z",
    "zip": "99803"
  },
  {
    "address": "4 Katanook Way",
    "city": "Angoon",
    "county": "Hoonah-Angoon Census Area",
    "created_at": "2012-01-04T20:13:20Z",
    "id": 2223,
    "latitude": "57.499770",
    "longitude": "-134.587499",
    "mascot": "Eagles",
    "name": "Angoon High School",
    "primary_color": "Navy",
    "secondary_color": "White",
    "state": "AK",
    "timezone": "America/Juneau",
    "updated_at": "2012-07-07T22:44:23Z",
    "zip": "99820"
  },
  {
    "address": "1000 Lake Street",
    "city": "Sitka",
    "county": "City and Borough of Sitka",
    "created_at": "2012-01-04T20:13:20Z",
    "id": 2224,
    "latitude": "57.062690",
    "longitude": "-135.341949",
    "mascot": "Wolves",
    "name": "Sitka High School",
    "primary_color": "Royal",
    "secondary_color": "Red",
    "state": "AK",
    "timezone": "America/Sitka",
    "updated_at": "2012-07-07T22:44:23Z",
    "zip": "99835"
  },
  {
    "address": "1600 N Double B St",
    "city": "Palmer",
    "county": "Matanuska-Susitna Borough",
    "created_at": "2012-01-04T20:13:20Z",
    "id": 2225,
    "latitude": "61.596922",
    "longitude": "-149.269334",
    "mascot": "Bears",
    "name": "Valley Christian School",
    "primary_color": "Royal",
    "secondary_color": "White",
    "state": "AK",
    "timezone": "America/Anchorage",
    "updated_at": "2012-07-07T22:44:24Z",
    "zip": "99645"
  },
  {
    "address": "Yukon Way",
    "city": "Fortuna Ledge",
    "county": "Wade Hampton Census Area",
    "created_at": "2012-01-04T20:13:20Z",
    "id": 2226,
    "latitude": "61.879530",
    "longitude": "-162.087924",
    "mascot": "Mustangs",
    "name": "Marshall School",
    "primary_color": "Gold",
    "secondary_color": "Black",
    "state": "AK",
    "timezone": "America/Nome",
    "updated_at": "2012-07-07T22:44:25Z",
    "zip": "99585"
  },
  {
    "address": "1 School Rd",
    "city": "Aniak",
    "county": "Bethel Census Area",
    "created_at": "2012-01-04T20:13:20Z",
    "id": 2227,
    "latitude": "61.354665",
    "longitude": "-155.438244",
    "mascot": "Aniak Halfbreeds",
    "name": "Aniak Secondary High School",
    "primary_color": "Gold",
    "secondary_color": "Black",
    "state": "AK",
    "timezone": "America/Anchorage",
    "updated_at": "2012-07-07T22:44:25Z",
    "zip": "99557"
  },
  {
    "address": "Village Ave",
    "city": "Tununak",
    "county": "Bethel Census Area",
    "created_at": "2012-01-04T20:13:20Z",
    "id": 2228,
    "latitude": "60.581433",
    "longitude": "-165.261604",
    "mascot": "Coasters",
    "name": "Paul T Albert Memorial School",
    "primary_color": "Gold",
    "secondary_color": "Royal",
    "state": "AK",
    "timezone": "America/Nome",
    "updated_at": "2012-07-07T22:44:26Z",
    "zip": "99681"
  },
  {
    "address": "PO Box 165",
    "city": "Noorvik",
    "county": "Northwest Arctic Borough",
    "created_at": "2012-01-04T20:13:20Z",
    "id": 2229,
    "latitude": "66.839075",
    "longitude": "-161.034902",
    "mascot": "Bears",
    "name": "Noorvik School",
    "primary_color": "Orange",
    "secondary_color": "Black",
    "state": "AK",
    "timezone": "America/Anchorage",
    "updated_at": "2012-07-07T22:44:26Z",
    "zip": "99763"
  },
  {
    "address": "130 Main St",
    "city": "Unalakleet",
    "county": "Nome Census Area",
    "created_at": "2012-01-04T20:13:20Z",
    "id": 2230,
    "latitude": "63.876140",
    "longitude": "-160.790659",
    "mascot": "Wolves",
    "name": "Unalakleet School",
    "primary_color": "Gold",
    "secondary_color": "Black",
    "state": "AK",
    "timezone": "America/Anchorage",
    "updated_at": "2012-07-07T22:44:27Z",
    "zip": "99684"
  },
  {
    "address": "100 High School Rd",
    "city": "Mountain Village",
    "county": "Wade Hampton Census Area",
    "created_at": "2012-01-04T20:13:20Z",
    "id": 2231,
    "latitude": "62.161706",
    "longitude": "-163.861557",
    "mascot": "Strivers",
    "name": "Mountain Village School",
    "primary_color": "Gold",
    "secondary_color": "Royal",
    "state": "AK",
    "timezone": "America/Nome",
    "updated_at": "2012-07-07T22:44:28Z",
    "zip": "99632"
  },
  {
    "address": "103 Askinuk St",
    "city": "Scammon Bay",
    "county": "Wade Hampton Census Area",
    "created_at": "2012-01-04T20:13:20Z",
    "id": 2232,
    "latitude": "61.842090",
    "longitude": "-165.580112",
    "mascot": "Eagles",
    "name": "Scammon Bay School",
    "primary_color": "Gold",
    "secondary_color": "Black",
    "state": "AK",
    "timezone": "America/Nome",
    "updated_at": "2012-07-07T22:44:28Z",
    "zip": "99662"
  },
  {
    "address": "930 Tolstoi Blvd",
    "city": "Saint Paul Island",
    "county": "Aleutians West Census Area",
    "created_at": "2012-01-04T20:13:20Z",
    "id": 2233,
    "latitude": "57.127675",
    "longitude": "-170.284659",
    "mascot": "Sea Parrots",
    "name": "Saint Paul Island School",
    "primary_color": "White",
    "secondary_color": "Red",
    "state": "AK",
    "timezone": "AMerica/Nome",
    "updated_at": "2012-07-07T22:44:29Z",
    "zip": "99660"
  },
  {
    "address": "PO Box 50",
    "city": "Eek",
    "county": "Bethel Census Area",
    "created_at": "2012-01-04T20:13:20Z",
    "id": 2234,
    "latitude": "60.218446",
    "longitude": "-162.034279",
    "mascot": "Cougars",
    "name": "Eek School",
    "primary_color": "Gold",
    "secondary_color": "Royal",
    "state": "AK",
    "timezone": "America/Nome",
    "updated_at": "2012-07-07T22:44:30Z",
    "zip": "99578"
  },
  {
    "address": "123 Main St",
    "city": "McGrath",
    "county": "Yukon-Koyukuk Census Area",
    "created_at": "2012-01-04T20:13:20Z",
    "id": 2235,
    "latitude": "62.970144",
    "longitude": "-155.664385",
    "mascot": "Artic Knights",
    "name": "McGrath School",
    "primary_color": "Royal",
    "secondary_color": "White",
    "state": "AK",
    "timezone": "America/Anchorage",
    "updated_at": "2012-07-07T22:44:30Z",
    "zip": "99627"
  },
  {
    "address": "9900 Carribou Blvd",
    "city": "Buckland",
    "county": "Northwest Arctic Borough",
    "created_at": "2012-01-04T20:13:20Z",
    "id": 2236,
    "latitude": "65.839537",
    "longitude": "-161.618252",
    "mascot": "Beluga Whales",
    "name": "Buckland School",
    "primary_color": "Columbia Blue",
    "secondary_color": "White",
    "state": "AK",
    "timezone": "America/Anchorage",
    "updated_at": "2012-07-07T22:44:31Z",
    "zip": "99727"
  },
  {
    "address": "PO Box 500",
    "city": "Togiak",
    "county": "Dillingham Census Area",
    "created_at": "2012-01-04T20:13:20Z",
    "id": 2237,
    "latitude": "59.068123",
    "longitude": "-160.363207",
    "mascot": "Huskies",
    "name": "Togiak School",
    "primary_color": "Gold",
    "secondary_color": "Royal",
    "state": "AK",
    "timezone": "America/Anchorage",
    "updated_at": "2012-07-07T22:44:32Z",
    "zip": "99678"
  },
  {
    "address": "601 NPHS Blvd",
    "city": "North Pole",
    "county": "Fairbanks North Star Borough",
    "created_at": "2012-01-04T20:13:20Z",
    "id": 2238,
    "latitude": "64.747927",
    "longitude": "-147.366596",
    "mascot": "Patriots",
    "name": "North Pole High School",
    "primary_color": "Royal",
    "secondary_color": "Red",
    "state": "AK",
    "timezone": "America/Anchorage",
    "updated_at": "2012-07-07T22:44:33Z",
    "zip": "99705"
  },
  {
    "address": "General Delivery",
    "city": "Selawik",
    "county": "Northwest Arctic Borough",
    "created_at": "2012-01-04T20:13:20Z",
    "id": 2239,
    "latitude": "66.600100",
    "longitude": "-160.010968",
    "mascot": "Wolves",
    "name": "Selawik School",
    "primary_color": "Royal",
    "secondary_color": "White",
    "state": "AK",
    "timezone": "America/Anchorage",
    "updated_at": "2012-07-07T22:44:33Z",
    "zip": "99770"
  },
  {
    "address": "PO Box 79",
    "city": "Kasigluk",
    "county": "Bethel Census Area",
    "created_at": "2012-01-04T20:13:20Z",
    "id": 2240,
    "latitude": "60.895240",
    "longitude": "-162.517167",
    "mascot": "Tundra Foxes",
    "name": "Akula Elitnaurvik School",
    "primary_color": "Orange",
    "secondary_color": "Black",
    "state": "AK",
    "timezone": "America/Nome",
    "updated_at": "2012-07-07T22:44:34Z",
    "zip": "99609"
  },
  {
    "address": "123 Main St",
    "city": "Grayling",
    "county": "Yukon-Koyukuk Census Area",
    "created_at": "2012-01-04T20:13:20Z",
    "id": 2241,
    "latitude": "62.906698",
    "longitude": "-160.068346",
    "mascot": "Eagles",
    "name": "David Louis Memorial School",
    "primary_color": "Royal",
    "secondary_color": "White",
    "state": "AK",
    "timezone": "America/Anchorage",
    "updated_at": "2012-07-07T22:44:35Z",
    "zip": "99590"
  },
  {
    "address": "1110 20th Ave",
    "city": "Fairbanks",
    "county": "Fairbanks North Star Borough",
    "created_at": "2012-01-04T20:13:20Z",
    "id": 2242,
    "latitude": "64.829314",
    "longitude": "-147.729094",
    "mascot": "Rams",
    "name": "Far North Christian School",
    "primary_color": "Red",
    "secondary_color": "Navy",
    "state": "AK",
    "timezone": "America/Anchorage",
    "updated_at": "2012-07-07T22:44:36Z",
    "zip": "99701"
  },
  {
    "address": "32 Adak Ave",
    "city": "Fairbanks",
    "county": "Fairbanks North Star Borough",
    "created_at": "2012-01-04T20:13:20Z",
    "id": 2243,
    "latitude": "64.849032",
    "longitude": "-147.692892",
    "mascot": null,
    "name": "Bible Baptist Church School",
    "primary_color": "Gray",
    "secondary_color": "Maroon",
    "state": "AK",
    "timezone": "America/Anchorage",
    "updated_at": "2012-07-07T22:44:37Z",
    "zip": "99701"
  },
  {
    "address": "100 Ambler Ave",
    "city": "Ambler",
    "county": "Northwest Arctic Borough",
    "created_at": "2012-01-04T20:13:20Z",
    "id": 2244,
    "latitude": "67.083728",
    "longitude": "-157.864174",
    "mascot": "Grizzlies",
    "name": "Ambler School",
    "primary_color": "Gold",
    "secondary_color": "Royal",
    "state": "AK",
    "timezone": "America/Anchorage",
    "updated_at": "2012-07-07T22:44:38Z",
    "zip": "99786"
  },
  {
    "address": "100 Fisherman Way",
    "city": "Cordova",
    "county": "Valdez-Cordova Census Area",
    "created_at": "2012-01-04T20:13:20Z",
    "id": 2245,
    "latitude": "60.540730",
    "longitude": "-145.760749",
    "mascot": "Wolverines",
    "name": "Cordova Junior Senior High School",
    "primary_color": "Royal",
    "secondary_color": "White",
    "state": "AK",
    "timezone": "America/Anchorage",
    "updated_at": "2012-07-07T22:44:39Z",
    "zip": "99574"
  },
  {
    "address": "9251 Lake Otis Pky",
    "city": "Anchorage",
    "county": "Municipality of Anchorage",
    "created_at": "2012-01-04T20:13:20Z",
    "id": 2246,
    "latitude": "61.136888",
    "longitude": "-149.834011",
    "mascot": "Eagles",
    "name": "Heritage Christian School",
    "primary_color": "Royal",
    "secondary_color": "White",
    "state": "AK",
    "timezone": "America/Anchorage",
    "updated_at": "2012-07-07T22:44:39Z",
    "zip": "99507"
  },
  {
    "address": "12407 Pinell St",
    "city": "Anchorage",
    "county": "Municipality of Anchorage",
    "created_at": "2012-01-04T20:13:20Z",
    "id": 2247,
    "latitude": "61.093490",
    "longitude": "-149.789225",
    "mascot": "Brown Grizzlies",
    "name": "Grace Christian School",
    "primary_color": "Maroon",
    "secondary_color": "Gold",
    "state": "AK",
    "timezone": "America/Anchorage",
    "updated_at": "2012-07-07T22:44:40Z",
    "zip": "99516"
  },
  {
    "address": "1 Salmon St",
    "city": "Manokotak",
    "county": "Dillingham Census Area",
    "created_at": "2012-01-04T20:13:20Z",
    "id": 2248,
    "latitude": "58.978421",
    "longitude": "-159.060744",
    "mascot": "Manokotak Lynx",
    "name": "Manokotak School",
    "primary_color": "Gold",
    "secondary_color": "Purple",
    "state": "AK",
    "timezone": "America/Anchorage",
    "updated_at": "2012-07-07T22:44:40Z",
    "zip": "99628"
  },
  {
    "address": "2 School Rd",
    "city": "Naknek",
    "county": "Bristol Bay Borough",
    "created_at": "2012-01-04T20:13:20Z",
    "id": 2249,
    "latitude": "58.730280",
    "longitude": "-157.007704",
    "mascot": "Angels",
    "name": "Bristol Bay Borough School",
    "primary_color": "Gold",
    "secondary_color": "Purple",
    "state": "AK",
    "timezone": "America/Anchorage",
    "updated_at": "2012-07-07T22:44:41Z",
    "zip": "99633"
  },
  {
    "address": "1 Anderson St",
    "city": "Alakanuk",
    "county": "Wade Hampton Census Area",
    "created_at": "2012-01-04T20:13:20Z",
    "id": 2250,
    "latitude": "62.684950",
    "longitude": "-164.634921",
    "mascot": "Braves",
    "name": "Alakanuk School",
    "primary_color": "Purple",
    "secondary_color": "White",
    "state": "AK",
    "timezone": "America/Nome",
    "updated_at": "2012-07-07T22:44:41Z",
    "zip": "99554"
  },
  {
    "address": "4025 E Northern Lights",
    "city": "Anchorage",
    "county": "Municipality of Anchorage",
    "created_at": "2012-01-04T20:13:20Z",
    "id": 2251,
    "latitude": "61.198957",
    "longitude": "-149.803776",
    "mascot": "Thunder Birds",
    "name": "East Anchorage High School",
    "primary_color": "Columbia Blue",
    "secondary_color": "Red",
    "state": "AK",
    "timezone": "America/Anchorage",
    "updated_at": "2012-07-07T22:44:42Z",
    "zip": "99508"
  },
  {
    "address": "425 W. Marydale Avenue",
    "city": "Soldotna",
    "county": "Kenai Peninsula Borough",
    "created_at": "2012-01-04T20:13:20Z",
    "id": 2252,
    "latitude": "60.495012",
    "longitude": "-151.096370",
    "mascot": "Stars",
    "name": "Soldotna High School",
    "primary_color": "Gray",
    "secondary_color": "Columbia Blue",
    "state": "AK",
    "timezone": "America/Anchorage",
    "updated_at": "2012-07-07T22:44:42Z",
    "zip": "99669"
  },
  {
    "address": "901 Airport Way",
    "city": "Fairbanks",
    "county": "Fairbanks North Star Borough",
    "created_at": "2012-01-04T20:13:20Z",
    "id": 2253,
    "latitude": "64.836761",
    "longitude": "-147.731356",
    "mascot": "Malemutes",
    "name": "Lathrop High School",
    "primary_color": "Gold",
    "secondary_color": "Purple",
    "state": "AK",
    "timezone": "America/Anchorage",
    "updated_at": "2012-07-07T22:44:43Z",
    "zip": "99701"
  },
  {
    "address": "2001 Palmer Wasilla Hwy",
    "city": "Wasilla",
    "county": "Matanuska-Susitna Borough",
    "created_at": "2012-01-04T20:13:20Z",
    "id": 2254,
    "latitude": "61.580734",
    "longitude": "-149.399028",
    "mascot": "Timber Wolves",
    "name": "Wasilla Christian School",
    "primary_color": "Kelly Green",
    "secondary_color": "White",
    "state": "AK",
    "timezone": "America/Anchorage",
    "updated_at": "2012-07-07T22:44:43Z",
    "zip": "99654"
  },
  {
    "address": "170 School Rd",
    "city": "Dillingham",
    "county": "Dillingham Census Area",
    "created_at": "2012-01-04T20:13:20Z",
    "id": 2255,
    "latitude": "59.043932",
    "longitude": "-158.518142",
    "mascot": "Wolverines",
    "name": "Dillingham Junior Senior High School",
    "primary_color": "Yellow",
    "secondary_color": "Royal",
    "state": "AK",
    "timezone": "America/Anchorage",
    "updated_at": "2012-07-07T22:44:44Z",
    "zip": "99576"
  },
  {
    "address": "45872 Kalifornsky Beach Rd",
    "city": "Soldotna",
    "county": "Kenai Peninsula Borough",
    "created_at": "2012-01-04T20:13:20Z",
    "id": 2256,
    "latitude": "60.475020",
    "longitude": "-151.088775",
    "mascot": "Eagles",
    "name": "Cook Inlet Academy",
    "primary_color": "Gold",
    "secondary_color": "Royal",
    "state": "AK",
    "timezone": "America/Anchorage",
    "updated_at": "2012-07-07T22:44:45Z",
    "zip": "99669"
  },
  {
    "address": "3405 Baranof Ave",
    "city": "Ketchikan",
    "county": "Ketchikan Gateway Borough",
    "created_at": "2012-01-04T20:13:20Z",
    "id": 2257,
    "latitude": "55.357309",
    "longitude": "-131.687117",
    "mascot": "Eagles",
    "name": "Ketchikan Christian Academy",
    "primary_color": "Gold",
    "secondary_color": "Royal",
    "state": "AK",
    "timezone": "America/Sitka",
    "updated_at": "2012-07-07T22:44:45Z",
    "zip": "99901"
  },
  {
    "address": "3838 Bartlett St",
    "city": "Homer",
    "county": "Kenai Peninsula Borough",
    "created_at": "2012-01-04T20:13:20Z",
    "id": 2258,
    "latitude": "59.646302",
    "longitude": "-151.549314",
    "mascot": "Knights",
    "name": "Community Christian School",
    "primary_color": "Columbia Blue",
    "secondary_color": "White",
    "state": "AK",
    "timezone": "America/Anchorage",
    "updated_at": "2012-07-07T22:44:45Z",
    "zip": "99603"
  },
  {
    "address": "555 N Gulkana",
    "city": "Palmer",
    "county": "Matanuska-Susitna Borough",
    "created_at": "2012-01-04T20:13:21Z",
    "id": 2259,
    "latitude": "61.612857",
    "longitude": "-149.103174",
    "mascot": "Huskies",
    "name": "Manna Christian Academy",
    "primary_color": "Columbia Blue",
    "secondary_color": "Navy",
    "state": "AK",
    "timezone": "America/Anchorage",
    "updated_at": "2012-07-07T22:44:46Z",
    "zip": "99645"
  },
  {
    "address": "366 Garteeni Highway",
    "city": "Hoonah",
    "county": "Hoonah-Angoon Census Area",
    "created_at": "2012-01-04T20:13:21Z",
    "id": 2260,
    "latitude": "58.108185",
    "longitude": "-135.441741",
    "mascot": "Indians",
    "name": "Hoonah City Schools",
    "primary_color": "Gold",
    "secondary_color": "Maroon",
    "state": "AK",
    "timezone": "America/Juneau",
    "updated_at": "2012-07-07T22:44:46Z",
    "zip": "99829"
  },
  {
    "address": "175 Library Pl",
    "city": "Kake",
    "county": "Petersburg Census Area",
    "created_at": "2012-01-04T20:13:21Z",
    "id": 2261,
    "latitude": "56.252963",
    "longitude": "-134.644188",
    "mascot": "Thunderbirds",
    "name": "Kake City School",
    "primary_color": "Red",
    "secondary_color": "White",
    "state": "AK",
    "timezone": "America/Juneau",
    "updated_at": "2012-07-07T22:44:47Z",
    "zip": "99830"
  },
  {
    "address": "2nd & C Street",
    "city": "Nenana",
    "county": "Yukon-Koyukuk Census Area",
    "created_at": "2012-01-04T20:13:21Z",
    "id": 2262,
    "latitude": "64.562400",
    "longitude": "-149.089999",
    "mascot": "Lynx",
    "name": "Nenana City Public School",
    "primary_color": "Gold",
    "secondary_color": "Black",
    "state": "AK",
    "timezone": "America/Anchorage",
    "updated_at": "2012-07-07T22:44:47Z",
    "zip": "99760"
  },
  {
    "address": "100 School Dr",
    "city": "Emmonak",
    "county": "Wade Hampton Census Area",
    "created_at": "2012-01-04T20:13:21Z",
    "id": 2263,
    "latitude": "62.778690",
    "longitude": "-164.540088",
    "mascot": "Huskies",
    "name": "Emmonak School",
    "primary_color": "Kelly Green",
    "secondary_color": "White",
    "state": "AK",
    "timezone": "America/Nome",
    "updated_at": "2012-07-07T22:44:48Z",
    "zip": "99581"
  },
  {
    "address": "101 Village St",
    "city": "Atmautluak",
    "county": "Bethel Census Area",
    "created_at": "2012-01-04T20:13:21Z",
    "id": 2264,
    "latitude": "60.814512",
    "longitude": "-161.709462",
    "mascot": null,
    "name": "Joann Alexie Memorial School",
    "primary_color": null,
    "secondary_color": null,
    "state": "AK",
    "timezone": "America/Anchorage",
    "updated_at": "2012-07-07T22:44:48Z",
    "zip": "99559"
  },
  {
    "address": "General Delivery Airport 1",
    "city": "Kalskag",
    "county": "Bethel Census Area",
    "created_at": "2012-01-04T20:13:21Z",
    "id": 2265,
    "latitude": "61.537782",
    "longitude": "-160.321660",
    "mascot": "Grizzlies",
    "name": "George Morgan High School",
    "primary_color": "Gold",
    "secondary_color": "Royal",
    "state": "AK",
    "timezone": "America/Anchorage",
    "updated_at": "2012-07-07T22:44:49Z",
    "zip": "99607"
  },
  {
    "address": "1 Dixon Cir",
    "city": "Saint Mary's",
    "county": "Wade Hampton Census Area",
    "created_at": "2012-01-04T20:13:21Z",
    "id": 2266,
    "latitude": "62.056105",
    "longitude": "-163.176054",
    "mascot": "Eagles",
    "name": "Andreafski High School",
    "primary_color": "Red",
    "secondary_color": "White",
    "state": "AK",
    "timezone": "America/Nome",
    "updated_at": "2012-07-07T22:44:49Z",
    "zip": "99658"
  },
  {
    "address": "52275 Education Dr",
    "city": "Nikiski",
    "county": "Kenai Peninsula Borough",
    "created_at": "2012-01-04T20:13:21Z",
    "id": 2267,
    "latitude": "60.735813",
    "longitude": "-151.295903",
    "mascot": "Bulldogs",
    "name": "Nikiski Middle High School",
    "primary_color": "Gray",
    "secondary_color": "Black",
    "state": "AK",
    "timezone": "America/Anchorage",
    "updated_at": "2012-07-07T22:44:50Z",
    "zip": "99611"
  },
  {
    "address": "PO Box 49",
    "city": "Circle",
    "county": "Yukon-Koyukuk Census Area",
    "created_at": "2012-01-04T20:13:21Z",
    "id": 2268,
    "latitude": "65.824338",
    "longitude": "-144.064016",
    "mascot": "Circle Wolves",
    "name": "Circle School",
    "primary_color": "Columbia Blue",
    "secondary_color": "White",
    "state": "AK",
    "timezone": "America/Anchorage",
    "updated_at": "2012-07-07T22:44:50Z",
    "zip": "99733"
  },
  {
    "address": "PO Box 6029",
    "city": "Mentasta Lake",
    "county": "Southeast Fairbanks Census Area",
    "created_at": "2012-01-04T20:13:21Z",
    "id": 2269,
    "latitude": "63.678950",
    "longitude": "-142.264172",
    "mascot": null,
    "name": "Mentasta Lake School",
    "primary_color": "Gold",
    "secondary_color": "Navy",
    "state": "AK",
    "timezone": "America/Anchorage",
    "updated_at": "2012-07-07T22:44:50Z",
    "zip": "99780"
  },
  {
    "address": "Mile 6 Northway Rd",
    "city": "Northway",
    "county": "Southeast Fairbanks Census Area",
    "created_at": "2012-01-04T20:13:21Z",
    "id": 2270,
    "latitude": "62.960029",
    "longitude": "-141.928898",
    "mascot": "Warriors",
    "name": "Walter Northway School",
    "primary_color": "Red",
    "secondary_color": "Black",
    "state": "AK",
    "timezone": "America/Anchorage",
    "updated_at": "2012-07-07T22:44:51Z",
    "zip": "99764"
  },
  {
    "address": "10336 E Eagle River Loop Rd",
    "city": "Eagle River",
    "county": "Municipality of Anchorage",
    "created_at": "2012-01-04T20:13:21Z",
    "id": 2271,
    "latitude": "61.313713",
    "longitude": "-149.539023",
    "mascot": "Eagles",
    "name": "Eagle River Christian School",
    "primary_color": "Black",
    "secondary_color": "Old Gold",
    "state": "AK",
    "timezone": "America/Anchorage",
    "updated_at": "2012-07-07T22:44:51Z",
    "zip": "99577"
  },
  {
    "address": "615 Monroe St",
    "city": "Fairbanks",
    "county": "Fairbanks North Star Borough",
    "created_at": "2012-01-04T20:13:21Z",
    "id": 2272,
    "latitude": "64.850589",
    "longitude": "-147.716714",
    "mascot": "Rams",
    "name": "Monroe Catholic Junior Senior High",
    "primary_color": "Gold",
    "secondary_color": "Royal",
    "state": "AK",
    "timezone": "America/Anchorage",
    "updated_at": "2012-07-07T22:44:51Z",
    "zip": "99701"
  },
  {
    "address": "4600 DeBarr Rd",
    "city": "Anchorage",
    "county": "Municipality of Anchorage",
    "created_at": "2012-01-04T20:13:21Z",
    "id": 2273,
    "latitude": "61.209692",
    "longitude": "-149.795298",
    "mascot": "Sea Otters",
    "name": "Alaska State School For Deaf & HH",
    "primary_color": "Purple",
    "secondary_color": "White",
    "state": "AK",
    "timezone": "America/Anchorage",
    "updated_at": "2012-07-07T22:44:52Z",
    "zip": "99519"
  },
  {
    "address": "2238 S Innerspringer Loop",
    "city": "Palmer",
    "county": "Matanuska-Susitna Borough",
    "created_at": "2012-01-04T20:13:21Z",
    "id": 2274,
    "latitude": "61.570540",
    "longitude": "-149.144724",
    "mascot": null,
    "name": "Mat-Valley Adventist School",
    "primary_color": "Royal",
    "secondary_color": "White",
    "state": "AK",
    "timezone": "America/Anchorage",
    "updated_at": "2012-07-07T22:44:52Z",
    "zip": "99645"
  },
  {
    "address": "HC 60 Box 4190",
    "city": "Delta Junction",
    "county": "Southeast Fairbanks Census Area",
    "created_at": "2012-01-04T20:13:21Z",
    "id": 2275,
    "latitude": "63.985577",
    "longitude": "-145.530606",
    "mascot": null,
    "name": "New Hope Community Training Center",
    "primary_color": null,
    "secondary_color": null,
    "state": "AK",
    "timezone": "America/Anchorage",
    "updated_at": "2012-07-07T22:44:53Z",
    "zip": "99737"
  },
  {
    "address": "433 E Dolphin Ave",
    "city": "Palmer",
    "county": "Matanuska-Susitna Borough",
    "created_at": "2012-01-04T20:13:21Z",
    "id": 2276,
    "latitude": "61.612175",
    "longitude": "-149.106168",
    "mascot": null,
    "name": "Perrien Family School",
    "primary_color": "Gold",
    "secondary_color": "Turquoise",
    "state": "AK",
    "timezone": "America/Anchorage",
    "updated_at": "2012-07-07T22:44:53Z",
    "zip": "99645"
  },
  {
    "address": "248 E Elmwood",
    "city": "Palmer",
    "county": "Matanuska-Susitna Borough",
    "created_at": "2012-01-04T20:13:21Z",
    "id": 2277,
    "latitude": "61.598802",
    "longitude": "-149.112212",
    "mascot": "Eagles",
    "name": "Matanuska Christian School",
    "primary_color": "Red",
    "secondary_color": "White",
    "state": "AK",
    "timezone": "America/Anchorage",
    "updated_at": "2012-07-07T22:44:54Z",
    "zip": "99645"
  },
  {
    "address": "913 College Rd",
    "city": "Fairbanks",
    "county": "Fairbanks North Star Borough",
    "created_at": "2012-01-04T20:13:21Z",
    "id": 2278,
    "latitude": "64.859292",
    "longitude": "-147.728639",
    "mascot": "Lions",
    "name": "Fairbanks Christian School",
    "primary_color": "Red",
    "secondary_color": "Black",
    "state": "AK",
    "timezone": "America/Anchorage",
    "updated_at": "2012-07-07T22:44:54Z",
    "zip": "99701"
  },
  {
    "address": "3470 Silverleaf Ave",
    "city": "North Pole",
    "county": "Fairbanks North Star Borough",
    "created_at": "2012-01-04T20:13:21Z",
    "id": 2279,
    "latitude": "64.739625",
    "longitude": "-147.288764",
    "mascot": "Eagles",
    "name": "North Pole Christian School",
    "primary_color": "Royal",
    "secondary_color": "White",
    "state": "AK",
    "timezone": "America/Anchorage",
    "updated_at": "2012-07-07T22:44:54Z",
    "zip": "99705"
  },
  {
    "address": "101 City Lights Blvd",
    "city": "Fairbanks",
    "county": "Fairbanks North Star Borough",
    "created_at": "2012-01-04T20:13:21Z",
    "id": 2280,
    "latitude": "64.864011",
    "longitude": "-147.673305",
    "mascot": "Falcons",
    "name": "Fairhill Christian School",
    "primary_color": "Red",
    "secondary_color": "White",
    "state": "AK",
    "timezone": "America/Anchorage",
    "updated_at": "2012-07-07T22:44:55Z",
    "zip": "99712"
  },
  {
    "address": "138 Farewell Ave",
    "city": "Fairbanks",
    "county": "Fairbanks North Star Borough",
    "created_at": "2012-01-04T20:13:21Z",
    "id": 2281,
    "latitude": "64.844698",
    "longitude": "-147.687896",
    "mascot": "Eagles",
    "name": "Hamilton Acres Baptist School",
    "primary_color": "Gold",
    "secondary_color": "Navy",
    "state": "AK",
    "timezone": "America/Anchorage",
    "updated_at": "2012-07-07T22:44:55Z",
    "zip": "99701"
  },
  {
    "address": "HC 60 Box 2662",
    "city": "Haines",
    "county": "Haines Borough",
    "created_at": "2012-01-04T20:13:21Z",
    "id": 2282,
    "latitude": "59.260675",
    "longitude": "-135.566743",
    "mascot": null,
    "name": "Covenant Life Center",
    "primary_color": null,
    "secondary_color": null,
    "state": "AK",
    "timezone": "America/Juneau",
    "updated_at": "2012-07-07T22:44:55Z",
    "zip": "99827"
  },
  {
    "address": "HC 60 Box 289",
    "city": "Copper Center",
    "county": "Valdez-Cordova Census Area",
    "created_at": "2012-01-04T20:13:21Z",
    "id": 2283,
    "latitude": "61.723327",
    "longitude": "-144.896655",
    "mascot": null,
    "name": "Sapa Christian School",
    "primary_color": null,
    "secondary_color": null,
    "state": "AK",
    "timezone": "America/Anchorage",
    "updated_at": "2012-07-07T22:44:57Z",
    "zip": "99573"
  },
  {
    "address": "Game Creek",
    "city": "Hoonah",
    "county": "Hoonah-Angoon Census Area",
    "created_at": "2012-01-04T20:13:21Z",
    "id": 2284,
    "latitude": "58.058472",
    "longitude": "-135.478943",
    "mascot": null,
    "name": "Mount Bether Bible Centers",
    "primary_color": null,
    "secondary_color": null,
    "state": "AK",
    "timezone": "America/Juneau",
    "updated_at": "2012-07-07T22:44:57Z",
    "zip": "99829"
  },
  {
    "address": "1133 Clearwater Rd",
    "city": "Delta Junction",
    "county": "Southeast Fairbanks Census Area",
    "created_at": "2012-01-04T20:13:21Z",
    "id": 2285,
    "latitude": "64.037260",
    "longitude": "-145.519043",
    "mascot": null,
    "name": "Living Word Academy",
    "primary_color": null,
    "secondary_color": null,
    "state": "AK",
    "timezone": "America/Anchorage",
    "updated_at": "2012-07-07T22:44:57Z",
    "zip": "99737"
  },
  {
    "address": "1st & Boat St",
    "city": "Fort Yukon",
    "county": "Yukon-Koyukuk Census Area",
    "created_at": "2012-01-04T20:13:21Z",
    "id": 2286,
    "latitude": "66.561630",
    "longitude": "-145.271769",
    "mascot": null,
    "name": "Artic Circle Christian School",
    "primary_color": "Royal",
    "secondary_color": "Red",
    "state": "AK",
    "timezone": "America/Anchorage",
    "updated_at": "2012-07-07T22:44:58Z",
    "zip": "99740"
  },
  {
    "address": "Mile 275 Richardson Hwy",
    "city": "Delta Junction",
    "county": "Southeast Fairbanks Census Area",
    "created_at": "2012-01-04T20:13:21Z",
    "id": 2287,
    "latitude": "63.985569",
    "longitude": "-145.530598",
    "mascot": null,
    "name": "Whitestone Farms Training Center",
    "primary_color": "Royal",
    "secondary_color": "White",
    "state": "AK",
    "timezone": "America/Anchorage",
    "updated_at": "2012-07-07T22:44:59Z",
    "zip": "99737"
  },
  {
    "address": "2610 4th Ave",
    "city": "Ketchikan",
    "county": "Ketchikan Gateway Borough",
    "created_at": "2012-01-04T20:13:21Z",
    "id": 2288,
    "latitude": "55.352630",
    "longitude": "-131.677466",
    "mascot": "King Salmon",
    "name": "Ketchikan High School",
    "primary_color": "Maroon",
    "secondary_color": "White",
    "state": "AK",
    "timezone": "America/Sitka",
    "updated_at": "2012-07-07T22:45:00Z",
    "zip": "99901"
  },
  {
    "address": "3131 Baranoff Ave",
    "city": "Ketchikan",
    "county": "Ketchikan Gateway Borough",
    "created_at": "2012-01-04T20:13:21Z",
    "id": 2289,
    "latitude": "55.355078",
    "longitude": "-131.683453",
    "mascot": null,
    "name": "Revilla Alternative School",
    "primary_color": "Royal",
    "secondary_color": "White",
    "state": "AK",
    "timezone": "America/Sitka",
    "updated_at": "2012-07-07T22:45:00Z",
    "zip": "99901"
  },
  {
    "address": "16525 S Birchwood Loop",
    "city": "Eagle River",
    "county": "Municipality of Anchorage",
    "created_at": "2012-01-04T20:13:21Z",
    "id": 2290,
    "latitude": "61.315357",
    "longitude": "-149.516395",
    "mascot": "Mustangs",
    "name": "Chugiak High School",
    "primary_color": "Columbia Blue",
    "secondary_color": "Black",
    "state": "AK",
    "timezone": "America/Anchorage",
    "updated_at": "2012-07-07T22:45:01Z",
    "zip": "99577"
  },
  {
    "address": "2909 W 88th Ave",
    "city": "Anchorage",
    "county": "Municipality of Anchorage",
    "created_at": "2012-01-04T20:13:21Z",
    "id": 2291,
    "latitude": "61.141098",
    "longitude": "-149.934664",
    "mascot": "Lynx",
    "name": "Dimond High School",
    "primary_color": "Gold",
    "secondary_color": "Maroon",
    "state": "AK",
    "timezone": "America/Anchorage",
    "updated_at": "2012-07-07T22:45:01Z",
    "zip": "99502"
  },
  {
    "address": "5577 Abbott Rd",
    "city": "Anchorage",
    "county": "Municipality of Anchorage",
    "created_at": "2012-01-04T20:13:21Z",
    "id": 2292,
    "latitude": "61.137518",
    "longitude": "-149.777588",
    "mascot": "Cougars",
    "name": "Robert Service High School",
    "primary_color": "Gold",
    "secondary_color": "Kelly Green",
    "state": "AK",
    "timezone": "America/Anchorage",
    "updated_at": "2012-07-07T22:45:02Z",
    "zip": "99507"
  },
  {
    "address": "1700 Hillcrest Dr",
    "city": "Anchorage",
    "county": "Municipality of Anchorage",
    "created_at": "2012-01-04T20:13:21Z",
    "id": 2293,
    "latitude": "61.201418",
    "longitude": "-149.915841",
    "mascot": "Eagles",
    "name": "West Anchorage High School",
    "primary_color": "Orange",
    "secondary_color": "Black",
    "state": "AK",
    "timezone": "America/Anchorage",
    "updated_at": "2012-07-07T22:45:02Z",
    "zip": "99517"
  },
  {
    "address": "25500 N Muldoon Rd",
    "city": "Anchorage",
    "county": "Municipality of Anchorage",
    "created_at": "2012-01-04T20:13:21Z",
    "id": 2294,
    "latitude": "61.231390",
    "longitude": "-149.745429",
    "mascot": "Bears",
    "name": "Bartlett High School",
    "primary_color": "Gold",
    "secondary_color": "Royal",
    "state": "AK",
    "timezone": "America/Anchorage",
    "updated_at": "2012-07-07T22:45:03Z",
    "zip": "99506"
  },
  {
    "address": "4600 Abbott Rd",
    "city": "Anchorage",
    "county": "Municipality of Anchorage",
    "created_at": "2012-01-04T20:13:21Z",
    "id": 2295,
    "latitude": "61.137496",
    "longitude": "-149.795371",
    "mascot": null,
    "name": "Jesse Lee Home School",
    "primary_color": null,
    "secondary_color": null,
    "state": "AK",
    "timezone": "America/Anchorage",
    "updated_at": "2012-07-07T22:45:04Z",
    "zip": "99507"
  },
  {
    "address": "1639 Glacier Ave",
    "city": "Juneau",
    "county": "City and Borough of Juneau",
    "created_at": "2012-01-04T20:13:21Z",
    "id": 2296,
    "latitude": "58.305157",
    "longitude": "-134.427919",
    "mascot": "Crimson Bears",
    "name": "Juneau Douglas High School",
    "primary_color": "Red",
    "secondary_color": "Black",
    "state": "AK",
    "timezone": "America/Juneau",
    "updated_at": "2012-07-07T22:45:05Z",
    "zip": "99801"
  },
  {
    "address": "600 E Fairview Ave",
    "city": "Homer",
    "county": "Kenai Peninsula Borough",
    "created_at": "2012-01-04T20:13:21Z",
    "id": 2297,
    "latitude": "59.649621",
    "longitude": "-151.529191",
    "mascot": "Mariners",
    "name": "Homer High School",
    "primary_color": "Gold",
    "secondary_color": "Royal",
    "state": "AK",
    "timezone": "America/Anchorage",
    "updated_at": "2012-07-07T22:45:06Z",
    "zip": "99603"
  },
  {
    "address": "Corner Of B & C Bldg",
    "city": "Tyonek",
    "county": "Kenai Peninsula Borough",
    "created_at": "2012-01-04T20:13:21Z",
    "id": 2298,
    "latitude": "61.111072",
    "longitude": "-151.176189",
    "mascot": "Chiefs",
    "name": "Bartlett School",
    "primary_color": "Gold",
    "secondary_color": "Royal",
    "state": "AK",
    "timezone": "America/Anchorage",
    "updated_at": "2012-07-07T22:45:07Z",
    "zip": "99682"
  },
  {
    "address": "100 Alexandrovsk",
    "city": "Nanwalek",
    "county": "Kenai Peninsula Borough",
    "created_at": "2012-01-04T20:13:21Z",
    "id": 2299,
    "latitude": "59.354210",
    "longitude": "-151.921799",
    "mascot": "Eagles",
    "name": "Nanwalek School",
    "primary_color": "Royal",
    "secondary_color": "White",
    "state": "AK",
    "timezone": "America/Anchorage",
    "updated_at": "2012-07-07T22:45:08Z",
    "zip": "99603"
  },
  {
    "address": "#1 Warrior Way",
    "city": "Nikolaevsk",
    "county": "Kenai Peninsula Borough",
    "created_at": "2012-01-04T20:13:21Z",
    "id": 2300,
    "latitude": "59.802100",
    "longitude": "-151.752576",
    "mascot": "Warriors",
    "name": "Nikolaevsk School",
    "primary_color": "Maroon",
    "secondary_color": "White",
    "state": "AK",
    "timezone": "America/Anchorage",
    "updated_at": "2012-07-07T22:45:09Z",
    "zip": "99556"
  },
  {
    "address": "Mile 135 Sterling Hwy",
    "city": "Ninilchik",
    "county": "Kenai Peninsula Borough",
    "created_at": "2012-01-04T20:13:21Z",
    "id": 2301,
    "latitude": "60.029688",
    "longitude": "-151.616513",
    "mascot": "Wolverines",
    "name": "Ninilchik School",
    "primary_color": "Navy Blue",
    "secondary_color": "Metallic Silver",
    "state": "AK",
    "timezone": "America/Anchorage",
    "updated_at": "2012-07-07T22:45:09Z",
    "zip": "99639"
  },
  {
    "address": "PO Box 5550",
    "city": "Port Graham",
    "county": "Kenai Peninsula Borough",
    "created_at": "2012-01-04T20:13:21Z",
    "id": 2302,
    "latitude": "59.673260",
    "longitude": "-151.446879",
    "mascot": "Killer Whales",
    "name": "Port Graham School",
    "primary_color": "Black",
    "secondary_color": "White",
    "state": "AK",
    "timezone": "America/Anchorage",
    "updated_at": "2012-07-07T22:45:10Z",
    "zip": "99603"
  },
  {
    "address": "9583 Kenai Spur Hwy",
    "city": "Kenai",
    "county": "Kenai Peninsula Borough",
    "created_at": "2012-01-04T20:13:21Z",
    "id": 2303,
    "latitude": "60.563184",
    "longitude": "-151.212468",
    "mascot": "Kardinals",
    "name": "Kenai Central High School",
    "primary_color": "Black",
    "secondary_color": "White",
    "state": "AK",
    "timezone": "America/Anchorage",
    "updated_at": "2012-07-07T22:45:11Z",
    "zip": "99611"
  },
  {
    "address": "2001 Swetmann Drive",
    "city": "Seward",
    "county": "Kenai Peninsula Borough",
    "created_at": "2012-01-04T20:13:21Z",
    "id": 2304,
    "latitude": "60.128048",
    "longitude": "-149.443594",
    "mascot": "Seahawks",
    "name": "Seward High School",
    "primary_color": "Gold",
    "secondary_color": "Kelly Green",
    "state": "AK",
    "timezone": "America/Anchorage",
    "updated_at": "2012-07-07T22:45:12Z",
    "zip": "99664"
  },
  {
    "address": "352 Winnifred St",
    "city": "Seldovia",
    "county": "Kenai Peninsula Borough",
    "created_at": "2012-01-04T20:13:21Z",
    "id": 2305,
    "latitude": "59.441705",
    "longitude": "-151.712553",
    "mascot": "Sea Otters",
    "name": "Susan B English School",
    "primary_color": "Red",
    "secondary_color": "White",
    "state": "AK",
    "timezone": "America/Anchorage",
    "updated_at": "2012-07-07T22:45:13Z",
    "zip": "99663"
  },
  {
    "address": "32908 Voznesenka Rd",
    "city": "Homer",
    "county": "Kenai Peninsula Borough",
    "created_at": "2012-01-04T20:13:21Z",
    "id": 2306,
    "latitude": "59.794593",
    "longitude": "-151.096833",
    "mascot": "Cougars",
    "name": "Voznesenka School",
    "primary_color": "Black",
    "secondary_color": "Gold",
    "state": "AK",
    "timezone": "America/Anchorage",
    "updated_at": "2012-07-07T22:45:13Z",
    "zip": "99603"
  },
  {
    "address": "16 Karluk Ave",
    "city": "Akhoik",
    "county": "Kodiak Island Borough",
    "created_at": "2012-01-04T20:13:21Z",
    "id": 2307,
    "latitude": "57.737960",
    "longitude": "-152.498019",
    "mascot": "Eagles",
    "name": "Akhiok School",
    "primary_color": "Royal",
    "secondary_color": "White",
    "state": "AK",
    "timezone": "America/Anchorage",
    "updated_at": "2012-07-07T22:45:14Z",
    "zip": "99615"
  },
  {
    "address": "General Delivery 16 Karluk Ave",
    "city": "Karluk",
    "county": "Kodiak Island Borough",
    "created_at": "2012-01-04T20:13:21Z",
    "id": 2308,
    "latitude": "57.559025",
    "longitude": "-154.438613",
    "mascot": "Huskies",
    "name": "Karluk School",
    "primary_color": "Royal",
    "secondary_color": "White",
    "state": "AK",
    "timezone": "America/Anchorage",
    "updated_at": "2012-07-07T22:45:15Z",
    "zip": "99608"
  },
  {
    "address": "PO Box 18",
    "city": "Kodiak",
    "county": "Kodiak Island Borough",
    "created_at": "2012-01-04T20:13:21Z",
    "id": 2309,
    "latitude": "57.738820",
    "longitude": "-152.496289",
    "mascot": null,
    "name": "Larsen Bay School",
    "primary_color": "Gray",
    "secondary_color": "Red",
    "state": "AK",
    "timezone": "America/Anchorage",
    "updated_at": "2012-07-07T22:45:15Z",
    "zip": "99615"
  },
  {
    "address": "1 Three Saints Ave",
    "city": "Old Harbor",
    "county": "Kodiak Island Borough",
    "created_at": "2012-01-04T20:13:21Z",
    "id": 2310,
    "latitude": "57.200560",
    "longitude": "-153.303374",
    "mascot": "Lynx",
    "name": "Old Harbor School",
    "primary_color": "Black",
    "secondary_color": "White",
    "state": "AK",
    "timezone": "America/Anchorage",
    "updated_at": "2012-07-07T22:45:16Z",
    "zip": "99643"
  },
  {
    "address": "3rd & C Sts",
    "city": "Ouzinkie",
    "county": "Kodiak Island Borough",
    "created_at": "2012-01-04T20:13:21Z",
    "id": 2311,
    "latitude": "57.922140",
    "longitude": "-152.505589",
    "mascot": "Hawks",
    "name": "Ouzinkie School",
    "primary_color": "Yellow",
    "secondary_color": "Navy",
    "state": "AK",
    "timezone": "America/Anchorage",
    "updated_at": "2012-07-07T22:45:16Z",
    "zip": "99644"
  },
  {
    "address": "722 Mill Bay Rd",
    "city": "Port Lions",
    "county": "Kodiak Island Borough",
    "created_at": "2012-01-04T20:13:21Z",
    "id": 2312,
    "latitude": "57.883417",
    "longitude": "-152.853367",
    "mascot": "Lions",
    "name": "Port Lions School",
    "primary_color": "Royal",
    "secondary_color": "White",
    "state": "AK",
    "timezone": "America/Anchorage",
    "updated_at": "2012-07-07T22:45:17Z",
    "zip": "99550"
  },
  {
    "address": "HCO 3 Box 8454",
    "city": "Palmer",
    "county": "Matanuska-Susitna Borough",
    "created_at": "2012-01-04T20:13:21Z",
    "id": 2313,
    "latitude": "61.541112",
    "longitude": "-149.251744",
    "mascot": "Wolverines",
    "name": "Glacier View School",
    "primary_color": "Gold",
    "secondary_color": "Kelly Green",
    "state": "AK",
    "timezone": "America/Anchorage",
    "updated_at": "2012-07-07T22:45:17Z",
    "zip": "99645"
  },
  {
    "address": "1170 W Arctic Ave",
    "city": "Palmer",
    "county": "Matanuska-Susitna Borough",
    "created_at": "2012-01-04T20:13:21Z",
    "id": 2314,
    "latitude": "61.606662",
    "longitude": "-149.137312",
    "mascot": "Moose",
    "name": "Palmer High School",
    "primary_color": "Royal",
    "secondary_color": "White",
    "state": "AK",
    "timezone": "America/Anchorage",
    "updated_at": "2012-07-07T22:45:18Z",
    "zip": "99645"
  },
  {
    "address": "701 Bogard Rd",
    "city": "Wasilla",
    "county": "Matanuska-Susitna Borough",
    "created_at": "2012-01-04T20:13:21Z",
    "id": 2315,
    "latitude": "61.586684",
    "longitude": "-149.431821",
    "mascot": "Warriors",
    "name": "Wasilla High School",
    "primary_color": "Red",
    "secondary_color": "White",
    "state": "AK",
    "timezone": "America/Anchorage",
    "updated_at": "2012-07-07T22:45:18Z",
    "zip": "99654"
  },
  {
    "address": "Mile 986 Parks Highway",
    "city": "Talkeetna",
    "county": "Matanuska-Susitna Borough",
    "created_at": "2012-01-04T20:13:21Z",
    "id": 2316,
    "latitude": "62.263818",
    "longitude": "-149.892839",
    "mascot": "Rams",
    "name": "Susitna Valley Junior Senior High School",
    "primary_color": "Gold",
    "secondary_color": "Royal",
    "state": "AK",
    "timezone": "America/Anchorage",
    "updated_at": "2012-07-07T22:45:19Z",
    "zip": "99676"
  },
  {
    "address": "PO Box 17",
    "city": "Skwentna",
    "county": "Matanuska-Susitna Borough",
    "created_at": "2012-01-04T20:13:21Z",
    "id": 2317,
    "latitude": "62.027750",
    "longitude": "-151.390489",
    "mascot": "Wolves",
    "name": "Skwentna School",
    "primary_color": "Gray",
    "secondary_color": "Black",
    "state": "AK",
    "timezone": "America/Anchorage",
    "updated_at": "2012-07-07T22:45:19Z",
    "zip": "99667"
  },
  {
    "address": "600 E Railroad Ave Ste 6",
    "city": "Wasilla",
    "county": "Matanuska-Susitna Borough",
    "created_at": "2012-01-04T20:13:21Z",
    "id": 2318,
    "latitude": "61.579726",
    "longitude": "-149.435089",
    "mascot": null,
    "name": "Mat Su Correspondence Study School",
    "primary_color": "Gray",
    "secondary_color": "Black",
    "state": "AK",
    "timezone": "America/Anchorage",
    "updated_at": "2012-07-07T22:45:20Z",
    "zip": "99654"
  },
  {
    "address": "12501 W Hawk Rd",
    "city": "Big Lake",
    "county": "Matanuska-Susitna Borough",
    "created_at": "2012-01-04T20:13:21Z",
    "id": 2319,
    "latitude": "61.528870",
    "longitude": "-149.887795",
    "mascot": "Hawks",
    "name": "Houston High School",
    "primary_color": "Red",
    "secondary_color": "Black",
    "state": "AK",
    "timezone": "America/Anchorage",
    "updated_at": "2012-07-07T22:45:20Z",
    "zip": "99652"
  },
  {
    "address": "675 Ravens Way",
    "city": "Eielson AFB",
    "county": "Fairbanks North Star Borough",
    "created_at": "2012-01-04T20:13:21Z",
    "id": 2320,
    "latitude": "64.674414",
    "longitude": "-147.071947",
    "mascot": "Ravens",
    "name": "Ben Eielson Junior Senior High School",
    "primary_color": "Red",
    "secondary_color": "Black",
    "state": "AK",
    "timezone": "America/Anchorage",
    "updated_at": "2012-07-07T22:45:20Z",
    "zip": "99702"
  },
  {
    "address": "3800 Geist Rd",
    "city": "Fairbanks",
    "county": "Fairbanks North Star Borough",
    "created_at": "2012-01-04T20:13:21Z",
    "id": 2321,
    "latitude": "64.849178",
    "longitude": "-147.817657",
    "mascot": "Wolfpack",
    "name": "West Valley High School",
    "primary_color": "Gold",
    "secondary_color": "Red",
    "state": "AK",
    "timezone": "America/Anchorage",
    "updated_at": "2012-07-07T22:45:21Z",
    "zip": "99709"
  },
  {
    "address": "299 Antoski Rd",
    "city": "Galena",
    "county": "Yukon-Koyukuk Census Area",
    "created_at": "2012-01-04T20:13:21Z",
    "id": 2322,
    "latitude": "64.741650",
    "longitude": "-156.875669",
    "mascot": "Hawks",
    "name": "Galena City School",
    "primary_color": "Gold",
    "secondary_color": "Royal",
    "state": "AK",
    "timezone": "America/Anchorage",
    "updated_at": "2012-07-07T22:45:22Z",
    "zip": "99741"
  },
  {
    "address": "604 Haines Hwy",
    "city": "Haines",
    "county": "Haines Borough",
    "created_at": "2012-01-04T20:13:21Z",
    "id": 2323,
    "latitude": "59.236680",
    "longitude": "-135.469969",
    "mascot": "Glacier Bears",
    "name": "Haines High School",
    "primary_color": "Kelly Green",
    "secondary_color": "White",
    "state": "AK",
    "timezone": "America/Juneau",
    "updated_at": "2012-07-07T22:45:23Z",
    "zip": "99827"
  },
  {
    "address": "1 Totem Pky",
    "city": "Hydaburg",
    "county": "Prince of Wales-Outer Ketchikan Census Area",
    "created_at": "2012-01-04T20:13:21Z",
    "id": 2324,
    "latitude": "55.354368",
    "longitude": "-132.726737",
    "mascot": "Warriors",
    "name": "Hydaburg City School",
    "primary_color": "Gold",
    "secondary_color": "Purple",
    "state": "AK",
    "timezone": "America/Metlakatla",
    "updated_at": "2012-07-07T22:45:23Z",
    "zip": "99922"
  },
  {
    "address": "100 Bayview Blvd",
    "city": "Klawock",
    "county": "Prince of Wales-Outer Ketchikan Census Area",
    "created_at": "2012-01-04T20:13:21Z",
    "id": 2325,
    "latitude": "55.553840",
    "longitude": "-133.096569",
    "mascot": "Chieftains",
    "name": "Klawock City School",
    "primary_color": "Red",
    "secondary_color": "Black",
    "state": "AK",
    "timezone": "America/Metlakatla",
    "updated_at": "2012-07-07T22:45:24Z",
    "zip": "99925"
  },
  {
    "address": "Mile 35 Nome-Teller Highway",
    "city": "Nome",
    "county": "Nome Census Area",
    "created_at": "2012-01-04T20:13:21Z",
    "id": 2326,
    "latitude": "64.661070",
    "longitude": "-165.156904",
    "mascot": "Mighty Nanooks",
    "name": "Nome Beltz High School",
    "primary_color": "Royal",
    "secondary_color": "White",
    "state": "AK",
    "timezone": "America/Nome",
    "updated_at": "2012-07-07T22:45:25Z",
    "zip": "99762"
  },
  {
    "address": "PO Box 90",
    "city": "Pelican",
    "county": "Hoonah-Angoon Census Area",
    "created_at": "2012-01-04T20:13:21Z",
    "id": 2327,
    "latitude": "57.960539",
    "longitude": "-136.231377",
    "mascot": "Bucks",
    "name": "Pelican School",
    "primary_color": "Gold",
    "secondary_color": "Royal",
    "state": "AK",
    "timezone": "America/Juneau",
    "updated_at": "2012-07-07T22:45:25Z",
    "zip": "99832"
  },
  {
    "address": "109 Charles W Street",
    "city": "Petersburg",
    "county": "Petersburg Census Area",
    "created_at": "2012-01-04T20:13:21Z",
    "id": 2328,
    "latitude": "56.814715",
    "longitude": "-132.954699",
    "mascot": "Vikings",
    "name": "Petersburg High School",
    "primary_color": "Royal",
    "secondary_color": "White",
    "state": "AK",
    "timezone": "America/Sitka",
    "updated_at": "2012-07-07T22:45:26Z",
    "zip": "99833"
  },
  {
    "address": "1533 Main St",
    "city": "Skagway",
    "county": "Municipality of Skagway Borough",
    "created_at": "2012-01-04T20:13:21Z",
    "id": 2329,
    "latitude": "59.462160",
    "longitude": "-135.307673",
    "mascot": "Panthers",
    "name": "Skagway School",
    "primary_color": "Gold",
    "secondary_color": "Royal",
    "state": "AK",
    "timezone": "America/Juneau",
    "updated_at": "2012-07-07T22:45:26Z",
    "zip": "99840"
  },
  {
    "address": "319 Robe River Dr",
    "city": "Valdez",
    "county": "Valdez-Cordova Census Area",
    "created_at": "2012-01-04T20:13:21Z",
    "id": 2330,
    "latitude": "61.137777",
    "longitude": "-146.356024",
    "mascot": "Buccaneers",
    "name": "Valdez High School",
    "primary_color": "Royal",
    "secondary_color": "Black",
    "state": "AK",
    "timezone": "America/Anchorage",
    "updated_at": "2012-07-07T22:45:27Z",
    "zip": "99686"
  },
  {
    "address": "312 Reid St",
    "city": "Wrangell",
    "county": "City and Borough of Wrangell",
    "created_at": "2012-01-04T20:13:21Z",
    "id": 2331,
    "latitude": "56.472458",
    "longitude": "-132.381453",
    "mascot": "Wolves",
    "name": "Wrangell High School",
    "primary_color": "Red",
    "secondary_color": "White",
    "state": "AK",
    "timezone": "America/Juneau",
    "updated_at": "2012-07-07T22:45:27Z",
    "zip": "99929"
  },
  {
    "address": "429 Forest Hwy",
    "city": "Yakutat",
    "county": "City and Borough of Yakutat",
    "created_at": "2012-01-04T20:13:21Z",
    "id": 2332,
    "latitude": "59.520845",
    "longitude": "-139.567207",
    "mascot": "Eagles",
    "name": "Yakutat High School",
    "primary_color": "Orange",
    "secondary_color": "Black",
    "state": "AK",
    "timezone": "America/Yakutat",
    "updated_at": "2012-07-07T22:45:28Z",
    "zip": "99689"
  },
  {
    "address": "School Rd",
    "city": "Anaktuvuk Pass",
    "county": "North Slope Borough",
    "created_at": "2012-01-04T20:13:21Z",
    "id": 2333,
    "latitude": "68.148033",
    "longitude": "-151.728258",
    "mascot": "Wolves",
    "name": "Nunamiut School",
    "primary_color": "Gold",
    "secondary_color": "Royal",
    "state": "AK",
    "timezone": "America/Anchorage",
    "updated_at": "2012-07-07T22:45:29Z",
    "zip": "99721"
  },
  {
    "address": "201 Barber Ave",
    "city": "Kaktovik",
    "county": "North Slope Borough",
    "created_at": "2012-01-04T20:13:21Z",
    "id": 2334,
    "latitude": "70.116758",
    "longitude": "-143.662882",
    "mascot": "Rams",
    "name": "Harold Kaveolook School",
    "primary_color": "Gold",
    "secondary_color": "Kelly Green",
    "state": "AK",
    "timezone": "America/Anchorage",
    "updated_at": "2012-07-07T22:45:29Z",
    "zip": "99747"
  },
  {
    "address": "3310 3rd Ave",
    "city": "Nuiqsut",
    "county": "North Slope Borough",
    "created_at": "2012-01-04T20:13:21Z",
    "id": 2335,
    "latitude": "70.221945",
    "longitude": "-150.996624",
    "mascot": "Trappers",
    "name": "Trapper School",
    "primary_color": "Yellow",
    "secondary_color": "Kelly Green",
    "state": "AK",
    "timezone": "America/Anchorage",
    "updated_at": "2012-07-07T22:45:30Z",
    "zip": "99789"
  },
  {
    "address": "1837 Tikigaq Ave",
    "city": "Point Hope",
    "county": "North Slope Borough",
    "created_at": "2012-01-04T20:13:21Z",
    "id": 2336,
    "latitude": "68.347439",
    "longitude": "-166.784256",
    "mascot": "Harpooners",
    "name": "Tikigaq School",
    "primary_color": "Gold",
    "secondary_color": "Black",
    "state": "AK",
    "timezone": "America/Nome",
    "updated_at": "2012-07-07T22:45:30Z",
    "zip": "99766"
  },
  {
    "address": "1029 Qasigialik St",
    "city": "Point Lay",
    "county": "North Slope Borough",
    "created_at": "2012-01-04T20:13:21Z",
    "id": 2337,
    "latitude": "69.744315",
    "longitude": "-163.015421",
    "mascot": "Wolverines",
    "name": "Kali School",
    "primary_color": "Gold",
    "secondary_color": "Black",
    "state": "AK",
    "timezone": "America/Nome",
    "updated_at": "2012-07-07T22:45:31Z",
    "zip": "99759"
  },
  {
    "address": "4001 Kippi Rd",
    "city": "Atqasuk",
    "county": "North Slope Borough",
    "created_at": "2012-01-04T20:13:21Z",
    "id": 2338,
    "latitude": "70.475620",
    "longitude": "-157.413751",
    "mascot": null,
    "name": "Meade River School",
    "primary_color": null,
    "secondary_color": null,
    "state": "AK",
    "timezone": "America/Anchorage",
    "updated_at": "2012-07-07T22:45:31Z",
    "zip": "99791"
  },
  {
    "address": "567 Main St",
    "city": "Wainwright",
    "county": "North Slope Borough",
    "created_at": "2012-01-04T20:13:21Z",
    "id": 2339,
    "latitude": "70.643951",
    "longitude": "-160.023670",
    "mascot": "Huskies",
    "name": "Alak School",
    "primary_color": "Columbia Blue",
    "secondary_color": "Red",
    "state": "AK",
    "timezone": "America/Anchorage",
    "updated_at": "2012-07-07T22:45:32Z",
    "zip": "99782"
  },
  {
    "address": "123 Red Cove Road",
    "city": "Sand Point",
    "county": "Aleutians East Borough",
    "created_at": "2012-01-04T20:13:21Z",
    "id": 2340,
    "latitude": "55.346460",
    "longitude": "-160.481269",
    "mascot": null,
    "name": "Sand Point School",
    "primary_color": null,
    "secondary_color": null,
    "state": "AK",
    "timezone": "America/Anchorage",
    "updated_at": "2012-07-07T22:45:33Z",
    "zip": "99661"
  },
  {
    "address": "101 Windy Walkway",
    "city": "King Cove",
    "county": "Aleutians East Borough",
    "created_at": "2012-01-04T20:13:21Z",
    "id": 2341,
    "latitude": "55.061668",
    "longitude": "-162.308854",
    "mascot": "T-Jacks & Rookies",
    "name": "King Cove School",
    "primary_color": "Gold",
    "secondary_color": "Black",
    "state": "AK",
    "timezone": "America/Nome",
    "updated_at": "2012-07-07T22:45:34Z",
    "zip": "99612"
  },
  {
    "address": "202 Hilly Dr",
    "city": "Akutan",
    "county": "Aleutians East Borough",
    "created_at": "2012-01-04T20:13:21Z",
    "id": 2342,
    "latitude": "54.134875",
    "longitude": "-165.770508",
    "mascot": "Falcons",
    "name": "Akutan School",
    "primary_color": "Black",
    "secondary_color": "White",
    "state": "AK",
    "timezone": "America/Nome",
    "updated_at": "2012-07-07T22:45:34Z",
    "zip": "99553"
  },
  {
    "address": "401 Airport Way",
    "city": "Cold Bay",
    "county": "Aleutians East Borough",
    "created_at": "2012-01-04T20:13:21Z",
    "id": 2343,
    "latitude": "56.004192",
    "longitude": "-161.196454",
    "mascot": "Black Wolves",
    "name": "Cold Bay School",
    "primary_color": "Red",
    "secondary_color": "Black",
    "state": "AK",
    "timezone": "America/Nome",
    "updated_at": "2012-07-07T22:45:35Z",
    "zip": "99571"
  },
  {
    "address": "30 Table Top Rd",
    "city": "False Pass",
    "county": "Aleutians East Borough",
    "created_at": "2012-01-04T20:13:21Z",
    "id": 2344,
    "latitude": "54.851473",
    "longitude": "-163.412843",
    "mascot": "Wolverines",
    "name": "False Pass School",
    "primary_color": "Black",
    "secondary_color": "White",
    "state": "AK",
    "timezone": "America/Nome",
    "updated_at": "2012-07-07T22:45:35Z",
    "zip": "99583"
  },
  {
    "address": "154 Bering Way",
    "city": "Cold Bay",
    "county": "Aleutians East Borough",
    "created_at": "2012-01-04T20:13:21Z",
    "id": 2345,
    "latitude": "55.334363",
    "longitude": "-162.665992",
    "mascot": "Huskies",
    "name": "Nelson Lagoon School",
    "primary_color": "Black",
    "secondary_color": "White",
    "state": "AK",
    "timezone": "America/Nome",
    "updated_at": "2012-07-07T22:45:36Z",
    "zip": "99571"
  },
  {
    "address": "89 River St",
    "city": "Tanana",
    "county": "Yukon-Koyukuk Census Area",
    "created_at": "2012-01-04T20:13:21Z",
    "id": 2346,
    "latitude": "65.189532",
    "longitude": "-153.047494",
    "mascot": "Wolves",
    "name": "Maudrey J Sommer School",
    "primary_color": "Red",
    "secondary_color": "White",
    "state": "AK",
    "timezone": "America/Anchorage",
    "updated_at": "2012-07-07T22:45:37Z",
    "zip": "99777"
  },
  {
    "address": "29 Front St",
    "city": "Deering",
    "county": "Northwest Arctic Borough",
    "created_at": "2012-01-04T20:13:21Z",
    "id": 2347,
    "latitude": "66.076119",
    "longitude": "-162.720036",
    "mascot": "Northern Lights",
    "name": "Deering School",
    "primary_color": "Gold",
    "secondary_color": "Kelly Green",
    "state": "AK",
    "timezone": "America/Nome",
    "updated_at": "2012-07-07T22:45:38Z",
    "zip": "99736"
  },
  {
    "address": "#6 Oceanside Expressway",
    "city": "Kivalina",
    "county": "Northwest Arctic Borough",
    "created_at": "2012-01-04T20:13:21Z",
    "id": 2348,
    "latitude": "67.612753",
    "longitude": "-164.127345",
    "mascot": "Kivalina Qavviks",
    "name": "McQueen School",
    "primary_color": "Gold",
    "secondary_color": "Black",
    "state": "AK",
    "timezone": "America/Nome",
    "updated_at": "2012-07-07T22:45:38Z",
    "zip": "99750"
  },
  {
    "address": "#2 Airport Way",
    "city": "Noatak",
    "county": "Northwest Arctic Borough",
    "created_at": "2012-01-04T20:13:21Z",
    "id": 2349,
    "latitude": "67.527168",
    "longitude": "-162.911022",
    "mascot": "Lynx",
    "name": "Napaaqtugmiut School",
    "primary_color": "Gold",
    "secondary_color": "Kelly Green",
    "state": "AK",
    "timezone": "America/Nome",
    "updated_at": "2012-07-07T22:45:40Z",
    "zip": "99761"
  },
  {
    "address": "PO Box 79",
    "city": "Shungnak",
    "county": "Northwest Arctic Borough",
    "created_at": "2012-01-04T20:13:21Z",
    "id": 2350,
    "latitude": "66.887225",
    "longitude": "-157.144592",
    "mascot": "Eagles",
    "name": "Shungnak School",
    "primary_color": "Gold",
    "secondary_color": "Maroon",
    "state": "AK",
    "timezone": "America/Anchorage",
    "updated_at": "2012-07-07T22:45:40Z",
    "zip": "99773"
  },
  {
    "address": "100 Main St",
    "city": "Koyukuk",
    "county": "Yukon-Koyukuk Census Area",
    "created_at": "2012-01-04T20:13:21Z",
    "id": 2351,
    "latitude": "64.880382",
    "longitude": "-157.700029",
    "mascot": "Malamutes",
    "name": "Koyuk Malemute School",
    "primary_color": "Yellow",
    "secondary_color": "Black",
    "state": "AK",
    "timezone": "America/Nome",
    "updated_at": "2012-07-07T22:45:41Z",
    "zip": "99753"
  },
  {
    "address": " #1 Seaview Lane",
    "city": "Shishmaref",
    "county": "Nome Census Area",
    "created_at": "2012-01-04T20:13:21Z",
    "id": 2352,
    "latitude": "66.256083",
    "longitude": "-166.059370",
    "mascot": "Northern Lights",
    "name": "Shishmaref School",
    "primary_color": "Kelly Green",
    "secondary_color": "White",
    "state": "AK",
    "timezone": "America/Nome",
    "updated_at": "2012-07-07T22:45:42Z",
    "zip": "99772"
  },
  {
    "address": "100 Airport Ave.",
    "city": "Teller",
    "county": "Nome Census Area",
    "created_at": "2012-01-04T20:13:21Z",
    "id": 2353,
    "latitude": "65.253835",
    "longitude": "-166.335203",
    "mascot": "Bears",
    "name": "James C Isabell School",
    "primary_color": "Royal",
    "secondary_color": "White",
    "state": "AK",
    "timezone": "America/Nome",
    "updated_at": "2012-07-07T22:45:43Z",
    "zip": "99778"
  },
  {
    "address": "PO Box 490",
    "city": "Wales",
    "county": "Nome Census Area",
    "created_at": "2012-01-04T20:13:22Z",
    "id": 2354,
    "latitude": "65.623253",
    "longitude": "-168.016129",
    "mascot": "Seawolves",
    "name": "Kingikmiut School",
    "primary_color": "Royal",
    "secondary_color": "Black",
    "state": "AK",
    "timezone": "America/Nome",
    "updated_at": "2012-07-07T22:45:43Z",
    "zip": "99783"
  },
  {
    "address": "1 Principal Ln",
    "city": "White Mountain",
    "county": "Nome Census Area",
    "created_at": "2012-01-04T20:13:22Z",
    "id": 2355,
    "latitude": "64.689728",
    "longitude": "-163.428082",
    "mascot": "Wolves",
    "name": "White Mountain School",
    "primary_color": "Gray",
    "secondary_color": "Navy",
    "state": "AK",
    "timezone": "America/Nome",
    "updated_at": "2012-07-07T22:45:44Z",
    "zip": "99784"
  },
  {
    "address": "Gravel Rd",
    "city": "Gambell",
    "county": "Nome Census Area",
    "created_at": "2012-01-04T20:13:22Z",
    "id": 2356,
    "latitude": "63.776780",
    "longitude": "-171.726134",
    "mascot": "King Polar Bears",
    "name": "John Apangalook School",
    "primary_color": "Royal",
    "secondary_color": "White",
    "state": "AK",
    "timezone": "America/Nome",
    "updated_at": "2012-07-07T22:45:45Z",
    "zip": "99742"
  },
  {
    "address": "23 Amuktollik St",
    "city": "Nome",
    "county": "Nome Census Area",
    "created_at": "2012-01-04T20:13:22Z",
    "id": 2357,
    "latitude": "64.542760",
    "longitude": "-163.032309",
    "mascot": "Lynx",
    "name": "Martin L Olson School",
    "primary_color": "Gold",
    "secondary_color": "Purple",
    "state": "AK",
    "timezone": "America/Nome",
    "updated_at": "2012-07-07T22:45:45Z",
    "zip": "99762"
  },
  {
    "address": "Main Street",
    "city": "Stebbins",
    "county": "Nome Census Area",
    "created_at": "2012-01-04T20:13:22Z",
    "id": 2358,
    "latitude": "63.520008",
    "longitude": "-162.279045",
    "mascot": "Knights",
    "name": "Tukumgalinguq School",
    "primary_color": "Gold",
    "secondary_color": "Maroon",
    "state": "AK",
    "timezone": "America/Nome",
    "updated_at": "2012-07-07T22:45:46Z",
    "zip": "99671"
  },
  {
    "address": "100 Baker St",
    "city": "St. Michael",
    "county": "Nome Census Area",
    "created_at": "2012-01-04T20:13:22Z",
    "id": 2359,
    "latitude": "63.477700",
    "longitude": "-162.042005",
    "mascot": "Braves",
    "name": "Anthony A Andrews School",
    "primary_color": "Red",
    "secondary_color": "Black",
    "state": "AK",
    "timezone": "America/Nome",
    "updated_at": "2012-07-07T22:45:46Z",
    "zip": "99659"
  },
  {
    "address": "PO Box 7099",
    "city": "Nome",
    "county": "Nome Census Area",
    "created_at": "2012-01-04T20:13:22Z",
    "id": 2360,
    "latitude": "64.661070",
    "longitude": "-165.156904",
    "mascot": null,
    "name": "Diomede School",
    "primary_color": "Royal",
    "secondary_color": "White",
    "state": "AK",
    "timezone": "America/Nome",
    "updated_at": "2012-07-07T22:45:47Z",
    "zip": "99762"
  },
  {
    "address": "29 Main Street",
    "city": "Elim",
    "county": "Nome Census Area",
    "created_at": "2012-01-04T20:13:22Z",
    "id": 2361,
    "latitude": "64.619077",
    "longitude": "-162.261006",
    "mascot": "Eagles",
    "name": "Aniguiin School",
    "primary_color": "Gold",
    "secondary_color": "Royal",
    "state": "AK",
    "timezone": "America/Nome",
    "updated_at": "2012-07-07T22:45:47Z",
    "zip": "99739"
  },
  {
    "address": "PO Box 40",
    "city": "Shaktoolik",
    "county": "Nome Census Area",
    "created_at": "2012-01-04T20:13:22Z",
    "id": 2362,
    "latitude": "64.200580",
    "longitude": "-160.948706",
    "mascot": null,
    "name": "Shaktoolik School",
    "primary_color": "Gold",
    "secondary_color": "Maroon",
    "state": "AK",
    "timezone": "America/Anchorage",
    "updated_at": "2012-07-07T22:45:48Z",
    "zip": "99771"
  },
  {
    "address": "2 Educate St",
    "city": "Brevig Mission",
    "county": "Nome Census Area",
    "created_at": "2012-01-04T20:13:22Z",
    "id": 2363,
    "latitude": "65.338967",
    "longitude": "-166.551476",
    "mascot": null,
    "name": "Brevig Mission School",
    "primary_color": "Yellow",
    "secondary_color": "Kelly Green",
    "state": "AK",
    "timezone": "America/Nome",
    "updated_at": "2012-07-07T22:45:48Z",
    "zip": "99785"
  },
  {
    "address": "Pitkas Point Rd",
    "city": "Saint Marys",
    "county": "Wade Hampton Census Area",
    "created_at": "2012-01-04T20:13:22Z",
    "id": 2364,
    "latitude": "62.050328",
    "longitude": "-163.178908",
    "mascot": "Falcons",
    "name": "Pitkas Point School",
    "primary_color": "Red",
    "secondary_color": "Royal",
    "state": "AK",
    "timezone": "America/Nome",
    "updated_at": "2012-07-07T22:45:49Z",
    "zip": "99658"
  },
  {
    "address": "#1 School Rd",
    "city": "Russian Mission",
    "county": "Wade Hampton Census Area",
    "created_at": "2012-01-04T20:13:22Z",
    "id": 2365,
    "latitude": "61.787829",
    "longitude": "-161.330673",
    "mascot": "Raiders",
    "name": "Russian Mission School",
    "primary_color": "Red",
    "secondary_color": "White",
    "state": "AK",
    "timezone": "America/Anchorage",
    "updated_at": "2012-07-07T22:45:50Z",
    "zip": "99657"
  },
  {
    "address": "100 Airport Rd",
    "city": "Pilot Station",
    "county": "Wade Hampton Census Area",
    "created_at": "2012-01-04T20:13:22Z",
    "id": 2366,
    "latitude": "61.936445",
    "longitude": "-162.892369",
    "mascot": "Kings",
    "name": "Pilot Station School",
    "primary_color": "Gold",
    "secondary_color": "Black",
    "state": "AK",
    "timezone": "America/Nome",
    "updated_at": "2012-07-07T22:45:51Z",
    "zip": "99650"
  },
  {
    "address": "PO Box 32",
    "city": "Sheldon Point",
    "county": "Wade Hampton Census Area",
    "created_at": "2012-01-04T20:13:22Z",
    "id": 2367,
    "latitude": "62.210625",
    "longitude": "-164.617554",
    "mascot": null,
    "name": "Sheldon Point School",
    "primary_color": "Red",
    "secondary_color": "White",
    "state": "AK",
    "timezone": "America/Nome",
    "updated_at": "2012-07-07T22:45:52Z",
    "zip": "99666"
  },
  {
    "address": "1 Ron Edwards Memorial Dr",
    "city": "Bethel",
    "county": "Bethel Census Area",
    "created_at": "2012-01-04T20:13:22Z",
    "id": 2368,
    "latitude": "60.803255",
    "longitude": "-161.773094",
    "mascot": "Warriors",
    "name": "Bethel Regional High School",
    "primary_color": "Gold",
    "secondary_color": "Royal",
    "state": "AK",
    "timezone": "America/Anchorage",
    "updated_at": "2012-07-07T22:45:53Z",
    "zip": "99559"
  },
  {
    "address": "PO Box 5109",
    "city": "Kongiganak",
    "county": "Bethel Census Area",
    "created_at": "2012-01-04T20:13:22Z",
    "id": 2369,
    "latitude": "59.955120",
    "longitude": "-162.888115",
    "mascot": "Wolverines",
    "name": "Dick R Kiunya Memorial School",
    "primary_color": "Gold",
    "secondary_color": "Royal",
    "state": "AK",
    "timezone": "America/Nome",
    "updated_at": "2012-07-07T22:45:53Z",
    "zip": "99545"
  },
  {
    "address": "PO Box 28",
    "city": "Platinum",
    "county": "Bethel Census Area",
    "created_at": "2012-01-04T20:13:22Z",
    "id": 2370,
    "latitude": "58.931009",
    "longitude": "-161.720186",
    "mascot": "Devils Fish",
    "name": "Arviq High School",
    "primary_color": "Red",
    "secondary_color": "Black",
    "state": "AK",
    "timezone": "America/Nome",
    "updated_at": "2012-07-07T22:45:54Z",
    "zip": "99651"
  },
  {
    "address": "100 School Rd",
    "city": "Chefornak",
    "county": "Bethel Census Area",
    "created_at": "2012-01-04T20:13:22Z",
    "id": 2371,
    "latitude": "60.156662",
    "longitude": "-164.276411",
    "mascot": "Shamen",
    "name": "Chaputnguak School",
    "primary_color": "Black",
    "secondary_color": "White",
    "state": "AK",
    "timezone": "America/Nome",
    "updated_at": "2012-07-07T22:45:55Z",
    "zip": "99561"
  },
  {
    "address": "101 Village Rd",
    "city": "Kipnuk",
    "county": "Bethel Census Area",
    "created_at": "2012-01-04T20:13:22Z",
    "id": 2372,
    "latitude": "59.877776",
    "longitude": "-163.178007",
    "mascot": "Falcons",
    "name": "Chief Paul Memorial School",
    "primary_color": "Royal",
    "secondary_color": "White",
    "state": "AK",
    "timezone": "America/Nome",
    "updated_at": "2012-07-07T22:45:56Z",
    "zip": "99614"
  },
  {
    "address": "101 Village Rd",
    "city": "Kwigillingok",
    "county": "Bethel Census Area",
    "created_at": "2012-01-04T20:13:22Z",
    "id": 2373,
    "latitude": "59.907547",
    "longitude": "-163.026895",
    "mascot": "Eagles",
    "name": "Kwigillingok School",
    "primary_color": "Royal",
    "secondary_color": "White",
    "state": "AK",
    "timezone": "America/Nome",
    "updated_at": "2012-07-07T22:45:57Z",
    "zip": "99622"
  },
  {
    "address": "114 Village Rd",
    "city": "Nunapitchuk",
    "county": "Bethel Census Area",
    "created_at": "2012-01-04T20:13:22Z",
    "id": 2374,
    "latitude": "60.897818",
    "longitude": "-162.453611",
    "mascot": "Wolves",
    "name": "Anna Tobeluk Memorial School",
    "primary_color": "Gold",
    "secondary_color": "Maroon",
    "state": "AK",
    "timezone": "America/Nome",
    "updated_at": "2012-07-07T22:45:58Z",
    "zip": "99641"
  },
  {
    "address": "General Delivery",
    "city": "Toksook Bay",
    "county": "Bethel Census Area",
    "created_at": "2012-01-04T20:13:22Z",
    "id": 2375,
    "latitude": "60.532985",
    "longitude": "-165.104244",
    "mascot": "Islanders",
    "name": "Nelson Island Area School",
    "primary_color": "Royal",
    "secondary_color": "Red",
    "state": "AK",
    "timezone": "America/Nome",
    "updated_at": "2012-07-07T22:45:58Z",
    "zip": "99637"
  },
  {
    "address": "PO Box 49",
    "city": "Mekoryuk",
    "county": "Bethel Census Area",
    "created_at": "2012-01-04T20:13:22Z",
    "id": 2376,
    "latitude": "60.387387",
    "longitude": "-166.189211",
    "mascot": "Reindeer",
    "name": "Nunivaarmiut School",
    "primary_color": "Gold",
    "secondary_color": "Maroon",
    "state": "AK",
    "timezone": "America/Nome",
    "updated_at": "2012-07-07T22:45:59Z",
    "zip": "99630"
  },
  {
    "address": "General Delivery",
    "city": "Napakiak",
    "county": "Bethel Census Area",
    "created_at": "2012-01-04T20:13:22Z",
    "id": 2377,
    "latitude": "60.694331",
    "longitude": "-161.967179",
    "mascot": "Huskies",
    "name": "William N Miller Memorial School",
    "primary_color": "Royal",
    "secondary_color": "White",
    "state": "AK",
    "timezone": "America/Anchorage",
    "updated_at": "2012-07-07T22:46:00Z",
    "zip": "99634"
  },
  {
    "address": "101 Village Rd",
    "city": "Goodnews Bay",
    "county": "Bethel Census Area",
    "created_at": "2012-01-04T20:13:22Z",
    "id": 2378,
    "latitude": "59.122232",
    "longitude": "-161.587551",
    "mascot": "Bears",
    "name": "Rocky Mountain School",
    "primary_color": "Gold",
    "secondary_color": "Black",
    "state": "AK",
    "timezone": "America/Anchorage",
    "updated_at": "2012-07-07T22:46:00Z",
    "zip": "99589"
  },
  {
    "address": "General Delivery",
    "city": "Kwethluk",
    "county": "Bethel Census Area",
    "created_at": "2012-01-04T20:13:22Z",
    "id": 2379,
    "latitude": "60.810110",
    "longitude": "-161.426029",
    "mascot": "Vikings",
    "name": "Kwethluk Community School",
    "primary_color": "Red",
    "secondary_color": "Black",
    "state": "AK",
    "timezone": "America/Anchorage",
    "updated_at": "2012-07-07T22:46:01Z",
    "zip": "99621"
  },
  {
    "address": "PO Box 6089",
    "city": "Napaskiak",
    "county": "Bethel Census Area",
    "created_at": "2012-01-04T20:13:22Z",
    "id": 2380,
    "latitude": "60.814520",
    "longitude": "-161.709470",
    "mascot": "Hawks",
    "name": "Zacharias John Williams Memorial School",
    "primary_color": "Columbia Blue",
    "secondary_color": "White",
    "state": "AK",
    "timezone": "America/Anchorage",
    "updated_at": "2012-07-07T22:46:02Z",
    "zip": "99559"
  },
  {
    "address": "102 Tundra Ln",
    "city": "Bethel",
    "county": "Bethel Census Area",
    "created_at": "2012-01-04T20:13:22Z",
    "id": 2381,
    "latitude": "60.794190",
    "longitude": "-161.752089",
    "mascot": null,
    "name": "Ayaprun School",
    "primary_color": "Royal",
    "secondary_color": "Red",
    "state": "AK",
    "timezone": "America/Anchorage",
    "updated_at": "2012-07-07T22:46:03Z",
    "zip": "99559"
  },
  {
    "address": "PO Box NME",
    "city": "Bethel",
    "county": "Bethel Census Area",
    "created_at": "2012-01-04T20:13:22Z",
    "id": 2382,
    "latitude": "60.477240",
    "longitude": "-164.721404",
    "mascot": "Eagles",
    "name": "Nightmute School",
    "primary_color": "Gold",
    "secondary_color": "Purple",
    "state": "AK",
    "timezone": "America/Nome",
    "updated_at": "2012-07-07T22:46:03Z",
    "zip": "99690"
  },
  {
    "address": "101 School St",
    "city": "Anchorage",
    "county": "Municipality of Anchorage",
    "created_at": "2012-01-04T20:13:22Z",
    "id": 2383,
    "latitude": "61.216072",
    "longitude": "-149.875879",
    "mascot": null,
    "name": "Qugcuun Memorial School",
    "primary_color": null,
    "secondary_color": null,
    "state": "AK",
    "timezone": "America/Anchorage",
    "updated_at": "2012-07-07T22:46:04Z",
    "zip": "99501"
  },
  {
    "address": "General Delivery",
    "city": "Quinhagak",
    "county": "Bethel Census Area",
    "created_at": "2012-01-04T20:13:22Z",
    "id": 2384,
    "latitude": "59.751140",
    "longitude": "-161.907874",
    "mascot": "Seahawks",
    "name": "Kuinerrarmiut Elitnaruviat",
    "primary_color": "Gold",
    "secondary_color": "Black",
    "state": "AK",
    "timezone": "America/Anchorage",
    "updated_at": "2012-07-07T22:46:05Z",
    "zip": "99655"
  },
  {
    "address": "101 School St",
    "city": "Tuntutuliak",
    "county": "Bethel Census Area",
    "created_at": "2012-01-04T20:13:22Z",
    "id": 2385,
    "latitude": "60.343147",
    "longitude": "-162.663932",
    "mascot": "Blue Jays",
    "name": "Lewis Angapak Memorial School",
    "primary_color": "Gold",
    "secondary_color": "Navy",
    "state": "AK",
    "timezone": "America/Nome",
    "updated_at": "2012-07-07T22:46:05Z",
    "zip": "99680"
  },
  {
    "address": "General Delivery",
    "city": "Chuathbaluk",
    "county": "Bethel Census Area",
    "created_at": "2012-01-04T20:13:22Z",
    "id": 2386,
    "latitude": "61.581385",
    "longitude": "-159.568004",
    "mascot": null,
    "name": "Chuathbaluk School",
    "primary_color": null,
    "secondary_color": null,
    "state": "AK",
    "timezone": "America/Anchorage",
    "updated_at": "2012-07-07T22:46:06Z",
    "zip": "99557"
  },
  {
    "address": "General Delivery",
    "city": "Crooked Creek",
    "county": "Bethel Census Area",
    "created_at": "2012-01-04T20:13:22Z",
    "id": 2387,
    "latitude": "61.870369",
    "longitude": "-158.108306",
    "mascot": null,
    "name": "Johnnie John Senior School",
    "primary_color": "Columbia Blue",
    "secondary_color": "White",
    "state": "AK",
    "timezone": "America/Anchorage",
    "updated_at": "2012-07-07T22:46:07Z",
    "zip": "99575"
  },
  {
    "address": "General Delivery",
    "city": "Red Devil",
    "county": "Bethel Census Area",
    "created_at": "2012-01-04T20:13:22Z",
    "id": 2388,
    "latitude": "61.764540",
    "longitude": "-157.312474",
    "mascot": "Devils",
    "name": "George Willis School",
    "primary_color": "Red",
    "secondary_color": "Black",
    "state": "AK",
    "timezone": "America/Anchorage",
    "updated_at": "2012-07-07T22:46:07Z",
    "zip": "99656"
  },
  {
    "address": "PO Box 69",
    "city": "Sleetmute",
    "county": "Bethel Census Area",
    "created_at": "2012-01-04T20:13:22Z",
    "id": 2389,
    "latitude": "61.702220",
    "longitude": "-157.169179",
    "mascot": "Wildcats",
    "name": "Jack Egnaty Senior School",
    "primary_color": "Gray",
    "secondary_color": "Black",
    "state": "AK",
    "timezone": "America/Anchorage",
    "updated_at": "2012-07-07T22:46:08Z",
    "zip": "99668"
  },
  {
    "address": "General Delivery",
    "city": "Stoney River",
    "county": "Bethel Census Area",
    "created_at": "2012-01-04T20:13:22Z",
    "id": 2390,
    "latitude": "61.581385",
    "longitude": "-159.568004",
    "mascot": "Eagles",
    "name": "Gusty Michael School",
    "primary_color": "Gold",
    "secondary_color": "Navy",
    "state": "AK",
    "timezone": "America/Anchorage",
    "updated_at": "2012-07-07T22:46:18Z",
    "zip": "99557"
  },
  {
    "address": "400 Avec Rd",
    "city": "New Stuyahok",
    "county": "Dillingham Census Area",
    "created_at": "2012-01-04T20:13:22Z",
    "id": 2391,
    "latitude": "59.450620",
    "longitude": "-157.316310",
    "mascot": "Eagles",
    "name": "New Stuyahok School",
    "primary_color": "Gold",
    "secondary_color": "Black",
    "state": "AK",
    "timezone": "America/Anchorage",
    "updated_at": "2012-07-07T22:46:19Z",
    "zip": "99636"
  },
  {
    "address": "General Delivery",
    "city": "Chignik",
    "county": "Lake and Peninsula Borough",
    "created_at": "2012-01-04T20:13:22Z",
    "id": 2392,
    "latitude": "56.295195",
    "longitude": "-158.403141",
    "mascot": "Eagles",
    "name": "Chignik Bay School",
    "primary_color": "Royal",
    "secondary_color": "White",
    "state": "AK",
    "timezone": "America/Anchorage",
    "updated_at": "2012-07-07T22:46:19Z",
    "zip": "99564"
  },
  {
    "address": "200 School Rd",
    "city": "Chignik Lagoon",
    "county": "Lake and Peninsula Borough",
    "created_at": "2012-01-04T20:13:22Z",
    "id": 2393,
    "latitude": "56.307421",
    "longitude": "-158.496040",
    "mascot": "Wolverines",
    "name": "Chignik Lagoon School",
    "primary_color": "Gold",
    "secondary_color": "Black",
    "state": "AK",
    "timezone": "America/Anchorage",
    "updated_at": "2012-07-07T22:46:20Z",
    "zip": "99565"
  },
  {
    "address": "300 School Rd",
    "city": "Chignak Lake",
    "county": "Lake and Peninsula Borough",
    "created_at": "2012-01-04T20:13:22Z",
    "id": 2394,
    "latitude": "56.255408",
    "longitude": "-158.766576",
    "mascot": "Wolves",
    "name": "Chignik Lake School",
    "primary_color": "Gold",
    "secondary_color": "Navy",
    "state": "AK",
    "timezone": "America/Anchorage",
    "updated_at": "2012-07-07T22:46:21Z",
    "zip": "99548"
  },
  {
    "address": "General Delivery",
    "city": "Egegik",
    "county": "Lake and Peninsula Borough",
    "created_at": "2012-01-04T20:13:22Z",
    "id": 2395,
    "latitude": "58.217820",
    "longitude": "-157.355146",
    "mascot": null,
    "name": "Egegik School",
    "primary_color": "Black",
    "secondary_color": "White",
    "state": "AK",
    "timezone": "America/Anchorage",
    "updated_at": "2012-07-07T22:46:21Z",
    "zip": "99579"
  },
  {
    "address": "PO Box 4010",
    "city": "King Salmon",
    "county": "Bristol Bay Borough",
    "created_at": "2012-01-04T20:13:22Z",
    "id": 2396,
    "latitude": "58.672092",
    "longitude": "-156.462257",
    "mascot": null,
    "name": "Igiugig School",
    "primary_color": "Gold",
    "secondary_color": "Maroon",
    "state": "AK",
    "timezone": "America/Anchorage",
    "updated_at": "2012-07-07T22:46:22Z",
    "zip": "99613"
  },
  {
    "address": "1000 School Rd",
    "city": "Nondalton",
    "county": "Lake and Peninsula Borough",
    "created_at": "2012-01-04T20:13:22Z",
    "id": 2397,
    "latitude": "59.972718",
    "longitude": "-154.845677",
    "mascot": "Warriors",
    "name": "Nondalton School",
    "primary_color": "Red",
    "secondary_color": "White",
    "state": "AK",
    "timezone": "America/Anchorage",
    "updated_at": "2012-07-07T22:46:23Z",
    "zip": "99640"
  },
  {
    "address": "900 School Rd",
    "city": "Iliamna",
    "county": "Lake and Peninsula Borough",
    "created_at": "2012-01-04T20:13:22Z",
    "id": 2398,
    "latitude": "59.326127",
    "longitude": "-155.904103",
    "mascot": "Malamutes",
    "name": "Newhalen School",
    "primary_color": "Royal",
    "secondary_color": "White",
    "state": "AK",
    "timezone": "America/Anchorage",
    "updated_at": "2012-07-07T22:46:23Z",
    "zip": "99606"
  },
  {
    "address": "PO Box 103",
    "city": "Perryville",
    "county": "Lake and Peninsula Borough",
    "created_at": "2012-01-04T20:13:22Z",
    "id": 2399,
    "latitude": "55.912169",
    "longitude": "-159.154264",
    "mascot": "Eagles",
    "name": "Perryville School",
    "primary_color": "Gold",
    "secondary_color": "Royal",
    "state": "AK",
    "timezone": "America/Anchorage",
    "updated_at": "2012-07-07T22:46:24Z",
    "zip": "99648"
  },
  {
    "address": "1300 School Rd",
    "city": "Pilot Point",
    "county": "Lake and Peninsula Borough",
    "created_at": "2012-01-04T20:13:22Z",
    "id": 2400,
    "latitude": "57.557840",
    "longitude": "-157.572989",
    "mascot": "Minks",
    "name": "Pilot Point School",
    "primary_color": "Gray",
    "secondary_color": "Black",
    "state": "AK",
    "timezone": "America/Anchorage",
    "updated_at": "2012-07-07T22:46:25Z",
    "zip": "99649"
  },
  {
    "address": "1500 School Rd",
    "city": "Port Heiden",
    "county": "Lake and Peninsula Borough",
    "created_at": "2012-01-04T20:13:22Z",
    "id": 2401,
    "latitude": "56.934428",
    "longitude": "-158.640166",
    "mascot": "Wolves",
    "name": "Meshik School",
    "primary_color": "Black",
    "secondary_color": "White",
    "state": "AK",
    "timezone": "America/Anchorage",
    "updated_at": "2012-07-07T22:46:25Z",
    "zip": "99549"
  },
  {
    "address": "1400 School Rd",
    "city": "Port Alsworth",
    "county": "Lake and Peninsula Borough",
    "created_at": "2012-01-04T20:13:22Z",
    "id": 2402,
    "latitude": "60.471467",
    "longitude": "-154.576383",
    "mascot": null,
    "name": "Port Alsworth School",
    "primary_color": "Gray",
    "secondary_color": "Royal",
    "state": "AK",
    "timezone": "America/Anchorage",
    "updated_at": "2012-07-07T22:46:26Z",
    "zip": "99653"
  },
  {
    "address": "PO Box 47028",
    "city": "Pedro Bay",
    "county": "Lake and Peninsula Borough",
    "created_at": "2012-01-04T20:13:22Z",
    "id": 2403,
    "latitude": "59.771440",
    "longitude": "-154.077650",
    "mascot": null,
    "name": "Dena'Ina School",
    "primary_color": "Gold",
    "secondary_color": "Black",
    "state": "AK",
    "timezone": "America/Anchorage",
    "updated_at": "2012-07-07T22:46:26Z",
    "zip": "99647"
  },
  {
    "address": "600 School Rd",
    "city": "Ivanof Bay",
    "county": "Lake and Peninsula Borough",
    "created_at": "2012-01-04T20:13:22Z",
    "id": 2404,
    "latitude": "55.902400",
    "longitude": "-159.482884",
    "mascot": "Falcons",
    "name": "Ivanof Bay School",
    "primary_color": "Gold",
    "secondary_color": "Purple",
    "state": "AK",
    "timezone": "America/Anchorage",
    "updated_at": "2012-07-07T22:46:27Z",
    "zip": "99695"
  },
  {
    "address": "800 School Rd",
    "city": "Levelock",
    "county": "Lake and Peninsula Borough",
    "created_at": "2012-01-04T20:13:22Z",
    "id": 2405,
    "latitude": "59.117010",
    "longitude": "-156.848219",
    "mascot": "Vikings",
    "name": "Levelock School",
    "primary_color": "Gold",
    "secondary_color": "Royal",
    "state": "AK",
    "timezone": "America/Anchorage",
    "updated_at": "2012-07-07T22:46:28Z",
    "zip": "99625"
  },
  {
    "address": "PO Box 47050",
    "city": "Atka",
    "county": "Aleutians West Census Area",
    "created_at": "2012-01-04T20:13:22Z",
    "id": 2406,
    "latitude": "52.206111",
    "longitude": "-174.199425",
    "mascot": "Foxes",
    "name": "Netsvetov School",
    "primary_color": "Royal",
    "secondary_color": "White",
    "state": "AK",
    "timezone": "America/Adak",
    "updated_at": "2012-07-07T22:46:28Z",
    "zip": "99547"
  },
  {
    "address": "PO Box 959",
    "city": "Saint George Island",
    "county": "Aleutians West Census Area",
    "created_at": "2012-01-04T20:13:22Z",
    "id": 2407,
    "latitude": "56.606173",
    "longitude": "-169.583448",
    "mascot": "Seal Pups",
    "name": "Saint George Island School",
    "primary_color": "Royal Blue",
    "secondary_color": "Gold",
    "state": "AK",
    "timezone": "America/Adak",
    "updated_at": "2012-07-07T22:46:29Z",
    "zip": "99591"
  },
  {
    "address": "PO Box 90",
    "city": "Anvik",
    "county": "Yukon-Koyukuk Census Area",
    "created_at": "2012-01-04T20:13:22Z",
    "id": 2408,
    "latitude": "62.652808",
    "longitude": "-160.191076",
    "mascot": "Bears",
    "name": "Blackwell School",
    "primary_color": "Gold",
    "secondary_color": "Black",
    "state": "AK",
    "timezone": "America/Anchorage",
    "updated_at": "2012-07-07T22:46:30Z",
    "zip": "99558"
  },
  {
    "address": "PO Box 210",
    "city": "Holy Cross",
    "county": "Yukon-Koyukuk Census Area",
    "created_at": "2012-01-04T20:13:22Z",
    "id": 2409,
    "latitude": "62.174082",
    "longitude": "-159.087341",
    "mascot": "Huskies",
    "name": "Holy Cross School",
    "primary_color": "Royal",
    "secondary_color": "White",
    "state": "AK",
    "timezone": "America/Anchorage",
    "updated_at": "2012-07-07T22:46:30Z",
    "zip": "99602"
  },
  {
    "address": "PO Box 90",
    "city": "McGarth",
    "county": "Yukon-Koyukuk Census Area",
    "created_at": "2012-01-04T20:13:22Z",
    "id": 2410,
    "latitude": "62.970152",
    "longitude": "-155.664393",
    "mascot": null,
    "name": "Nikolai School",
    "primary_color": null,
    "secondary_color": null,
    "state": "AK",
    "timezone": "America/Anchorage",
    "updated_at": "2012-07-07T22:46:31Z",
    "zip": "99627"
  },
  {
    "address": "53 Main St",
    "city": "Shageluk",
    "county": "Yukon-Koyukuk Census Area",
    "created_at": "2012-01-04T20:13:22Z",
    "id": 2411,
    "latitude": "62.654975",
    "longitude": "-159.532159",
    "mascot": "Wolverines",
    "name": "Innoko River School",
    "primary_color": "Gray",
    "secondary_color": "Royal",
    "state": "AK",
    "timezone": "America/Anchorage",
    "updated_at": "2012-07-07T22:46:31Z",
    "zip": "99665"
  },
  {
    "address": "PO Box TCT",
    "city": "Takotna",
    "county": "Yukon-Koyukuk Census Area",
    "created_at": "2012-01-04T20:13:22Z",
    "id": 2412,
    "latitude": "62.984487",
    "longitude": "-156.070215",
    "mascot": null,
    "name": "Takotna School",
    "primary_color": "Red",
    "secondary_color": "Black",
    "state": "AK",
    "timezone": "America/Anchorage",
    "updated_at": "2012-07-07T22:46:32Z",
    "zip": "99675"
  },
  {
    "address": "3rd St",
    "city": "Allakaket",
    "county": "Yukon-Koyukuk Census Area",
    "created_at": "2012-01-04T20:13:22Z",
    "id": 2413,
    "latitude": "66.562918",
    "longitude": "-152.657408",
    "mascot": null,
    "name": "Allakaket School",
    "primary_color": "Gold",
    "secondary_color": "Royal",
    "state": "AK",
    "timezone": "America/Anchorage",
    "updated_at": "2012-07-07T22:46:33Z",
    "zip": "99720"
  },
  {
    "address": "155 Elliot Hwy",
    "city": "Huslia",
    "county": "Yukon-Koyukuk Census Area",
    "created_at": "2012-01-04T20:13:22Z",
    "id": 2414,
    "latitude": "65.700747",
    "longitude": "-156.388246",
    "mascot": "Hustlers",
    "name": "Jimmy Huntington School",
    "primary_color": "Gold",
    "secondary_color": "Maroon",
    "state": "AK",
    "timezone": "America/Anchorage",
    "updated_at": "2012-07-07T22:46:34Z",
    "zip": "99746"
  },
  {
    "address": "101 Riverfront Rd",
    "city": "Fairbanks",
    "county": "Yukon-Koyukuk Census Area",
    "created_at": "2012-01-04T20:13:22Z",
    "id": 2415,
    "latitude": "64.323582",
    "longitude": "-158.729603",
    "mascot": "Wildcats",
    "name": "Kaltag School",
    "primary_color": "Gold",
    "secondary_color": "Purple",
    "state": "AK",
    "timezone": "America/Anchorage",
    "updated_at": "2012-07-07T22:46:34Z",
    "zip": "99748"
  },
  {
    "address": "100 Main Street",
    "city": "Koyukuk",
    "county": "Yukon-Koyukuk Census Area",
    "created_at": "2012-01-04T20:13:22Z",
    "id": 2416,
    "latitude": "64.880842",
    "longitude": "-157.704741",
    "mascot": "Koyukuk Raiders",
    "name": "Ella B Vernetti School",
    "primary_color": "Gold",
    "secondary_color": "Royal",
    "state": "AK",
    "timezone": "America/Anchorage",
    "updated_at": "2012-07-07T22:46:35Z",
    "zip": "99754"
  },
  {
    "address": "Mile 155 Elliot Hwy",
    "city": "Manly Hot Springs",
    "county": "Yukon-Koyukuk Census Area",
    "created_at": "2012-01-04T20:13:22Z",
    "id": 2417,
    "latitude": "65.085231",
    "longitude": "-150.715327",
    "mascot": null,
    "name": "Manley Hot Springs Gladys Dart School",
    "primary_color": "Gray",
    "secondary_color": "Black",
    "state": "AK",
    "timezone": "America/Anchorage",
    "updated_at": "2012-07-07T22:46:36Z",
    "zip": "99756"
  },
  {
    "address": "Laker One St",
    "city": "Minto",
    "county": "Yukon-Koyukuk Census Area",
    "created_at": "2012-01-04T20:13:22Z",
    "id": 2418,
    "latitude": "65.198675",
    "longitude": "-149.529756",
    "mascot": null,
    "name": "Minto School",
    "primary_color": "Gold",
    "secondary_color": "Black",
    "state": "AK",
    "timezone": "America/Anchorage",
    "updated_at": "2012-07-07T22:46:38Z",
    "zip": "99758"
  },
  {
    "address": "1 Education Dr",
    "city": "Ruby",
    "county": "Yukon-Koyukuk Census Area",
    "created_at": "2012-01-04T20:13:22Z",
    "id": 2419,
    "latitude": "64.711698",
    "longitude": "-155.493452",
    "mascot": "Ravens",
    "name": "Merreline A Kangas School",
    "primary_color": "Gold",
    "secondary_color": "Black",
    "state": "AK",
    "timezone": "America/Anchorage",
    "updated_at": "2012-07-07T22:46:38Z",
    "zip": "99768"
  },
  {
    "address": "PO Box KBC",
    "city": "Fort Yukon",
    "county": "Yukon-Koyukuk Census Area",
    "created_at": "2012-01-04T20:13:22Z",
    "id": 2420,
    "latitude": "66.563708",
    "longitude": "-145.241035",
    "mascot": null,
    "name": "Birch Creek School",
    "primary_color": null,
    "secondary_color": null,
    "state": "AK",
    "timezone": "America/Anchorage",
    "updated_at": "2012-07-07T22:46:39Z",
    "zip": "99740"
  },
  {
    "address": "PO Box 58",
    "city": "Chalkyitsik",
    "county": "Yukon-Koyukuk Census Area",
    "created_at": "2012-01-04T20:13:22Z",
    "id": 2421,
    "latitude": "66.650427",
    "longitude": "-143.737892",
    "mascot": null,
    "name": "Tsuk Taih School",
    "primary_color": "Royal",
    "secondary_color": "White",
    "state": "AK",
    "timezone": "America/Anchorage",
    "updated_at": "2012-07-07T22:46:40Z",
    "zip": "99788"
  },
  {
    "address": "General Delivery",
    "city": "Rampart",
    "county": "Yukon-Koyukuk Census Area",
    "created_at": "2012-01-04T20:13:22Z",
    "id": 2422,
    "latitude": "65.506310",
    "longitude": "-150.169497",
    "mascot": null,
    "name": "Rampart School",
    "primary_color": null,
    "secondary_color": null,
    "state": "AK",
    "timezone": "America/Anchorage",
    "updated_at": "2012-07-07T22:46:40Z",
    "zip": "99767"
  },
  {
    "address": "General Delivery",
    "city": "Stevens Village",
    "county": "Yukon-Koyukuk Census Area",
    "created_at": "2012-01-04T20:13:22Z",
    "id": 2423,
    "latitude": "66.004375",
    "longitude": "-149.091434",
    "mascot": "Eagles",
    "name": "Stevens Village School",
    "primary_color": null,
    "secondary_color": null,
    "state": "AK",
    "timezone": "America/Anchorage",
    "updated_at": "2012-07-07T22:46:41Z",
    "zip": "99774"
  },
  {
    "address": "PO Box 39",
    "city": "Venetie",
    "county": "Yukon-Koyukuk Census Area",
    "created_at": "2012-01-04T20:13:22Z",
    "id": 2424,
    "latitude": "66.982518",
    "longitude": "-146.333453",
    "mascot": "Wolves",
    "name": "John Feredson School",
    "primary_color": "Gray",
    "secondary_color": "Black",
    "state": "AK",
    "timezone": "America/Anchorage",
    "updated_at": "2012-07-07T22:46:42Z",
    "zip": "99781"
  },
  {
    "address": "General Delivery",
    "city": "Beaver",
    "county": "Yukon-Koyukuk Census Area",
    "created_at": "2012-01-04T20:13:22Z",
    "id": 2425,
    "latitude": "66.359025",
    "longitude": "-147.395789",
    "mascot": "Grizzlies",
    "name": "Beaver Cruikshank School",
    "primary_color": null,
    "secondary_color": null,
    "state": "AK",
    "timezone": "America/Anchorage",
    "updated_at": "2012-07-07T22:46:42Z",
    "zip": "99724"
  },
  {
    "address": "116 W 1st",
    "city": "Anderson",
    "county": "Denali Borough",
    "created_at": "2012-01-04T20:13:22Z",
    "id": 2426,
    "latitude": "64.343615",
    "longitude": "-149.175387",
    "mascot": "Grizzlies",
    "name": "Anderson Village School",
    "primary_color": "Gold",
    "secondary_color": "Purple",
    "state": "AK",
    "timezone": "America/Anchorage",
    "updated_at": "2012-07-07T22:46:43Z",
    "zip": "99744"
  },
  {
    "address": "Mile Post 210 Parks High",
    "city": "Cantwell",
    "county": "Denali Borough",
    "created_at": "2012-01-04T20:13:22Z",
    "id": 2427,
    "latitude": "63.646110",
    "longitude": "-148.802839",
    "mascot": "Hawks",
    "name": "Cantwell School",
    "primary_color": "Black",
    "secondary_color": "White",
    "state": "AK",
    "timezone": "America/Anchorage",
    "updated_at": "2012-07-07T22:46:44Z",
    "zip": "99729"
  },
  {
    "address": "400 Suntrana Street",
    "city": "Healy",
    "county": "Denali Borough",
    "created_at": "2012-01-04T20:13:22Z",
    "id": 2428,
    "latitude": "63.873474",
    "longitude": "-149.018286",
    "mascot": "Vikings",
    "name": "Tri Valley School",
    "primary_color": "Gold",
    "secondary_color": "Royal",
    "state": "AK",
    "timezone": "America/Anchorage",
    "updated_at": "2012-07-07T22:46:45Z",
    "zip": "99743"
  },
  {
    "address": "PO Box 2276",
    "city": "Delta Junction",
    "county": "Southeast Fairbanks Census Area",
    "created_at": "2012-01-04T20:13:22Z",
    "id": 2429,
    "latitude": "64.078320",
    "longitude": "-145.655084",
    "mascot": null,
    "name": "Dot Lake School",
    "primary_color": "Royal",
    "secondary_color": "White",
    "state": "AK",
    "timezone": "America/Anchorage",
    "updated_at": "2012-07-07T22:46:46Z",
    "zip": "99737"
  },
  {
    "address": "168 3rd Avenue",
    "city": "Eagle",
    "county": "Southeast Fairbanks Census Area",
    "created_at": "2012-01-04T20:13:22Z",
    "id": 2430,
    "latitude": "64.788140",
    "longitude": "-141.206944",
    "mascot": null,
    "name": "Eagle Community School",
    "primary_color": "Gold",
    "secondary_color": "Royal",
    "state": "AK",
    "timezone": "America/Anchorage",
    "updated_at": "2012-07-07T22:46:47Z",
    "zip": "99738"
  },
  {
    "address": "John Summar Dr",
    "city": "Tok",
    "county": "Southeast Fairbanks Census Area",
    "created_at": "2012-01-04T20:13:22Z",
    "id": 2431,
    "latitude": "64.787680",
    "longitude": "-141.202609",
    "mascot": "Wolverines",
    "name": "Tok School",
    "primary_color": "Red",
    "secondary_color": "Navy",
    "state": "AK",
    "timezone": "America/Anchorage",
    "updated_at": "2012-07-07T22:46:47Z",
    "zip": "99780"
  },
  {
    "address": "Mile 33 1/2 Tok Hwy",
    "city": "Gakona",
    "county": "Valdez-Cordova Census Area",
    "created_at": "2012-01-04T20:13:22Z",
    "id": 2432,
    "latitude": "62.632248",
    "longitude": "-143.742252",
    "mascot": "Knights",
    "name": "Chistochina School",
    "primary_color": "Red",
    "secondary_color": "Black",
    "state": "AK",
    "timezone": "America/Anchorage",
    "updated_at": "2012-07-07T22:46:48Z",
    "zip": "99586"
  },
  {
    "address": "HC 60",
    "city": "Copper Center",
    "county": "Valdez-Cordova Census Area",
    "created_at": "2012-01-04T20:13:22Z",
    "id": 2433,
    "latitude": "61.723327",
    "longitude": "-144.896655",
    "mascot": "Hawks",
    "name": "Kenny Lake School",
    "primary_color": "Gold",
    "secondary_color": "Royal",
    "state": "AK",
    "timezone": "America/Anchorage",
    "updated_at": "2012-07-07T22:46:49Z",
    "zip": "99573"
  },
  {
    "address": "Mile 1 Nabesna Rd",
    "city": "Slana",
    "county": "Valdez-Cordova Census Area",
    "created_at": "2012-01-04T20:13:22Z",
    "id": 2434,
    "latitude": "62.808150",
    "longitude": "-143.739659",
    "mascot": "Knights",
    "name": "Slana School",
    "primary_color": "Columbia Blue",
    "secondary_color": "Black",
    "state": "AK",
    "timezone": "America/Anchorage",
    "updated_at": "2012-07-07T22:46:49Z",
    "zip": "99586"
  },
  {
    "address": "1 Quarter Mile Airport Rd",
    "city": "Gustavus",
    "county": "Hoonah-Angoon Census Area",
    "created_at": "2012-01-04T20:13:22Z",
    "id": 2435,
    "latitude": "58.421670",
    "longitude": "-135.739131",
    "mascot": "Foxes",
    "name": "Gustavus School",
    "primary_color": "Red",
    "secondary_color": "Black",
    "state": "AK",
    "timezone": "America/Juneau",
    "updated_at": "2012-07-07T22:46:50Z",
    "zip": "99826"
  },
  {
    "address": "PO Box 62",
    "city": "Tenakee Springs",
    "county": "Hoonah-Angoon Census Area",
    "created_at": "2012-01-04T20:13:22Z",
    "id": 2436,
    "latitude": "57.776890",
    "longitude": "-135.205749",
    "mascot": null,
    "name": "Tenakee Springs School",
    "primary_color": "Red",
    "secondary_color": "Black",
    "state": "AK",
    "timezone": "America/Juneau",
    "updated_at": "2012-07-07T22:46:51Z",
    "zip": "99841"
  },
  {
    "address": "PO Box B",
    "city": "Ketchikan",
    "county": "Prince of Wales-Outer Ketchikan Census Area",
    "created_at": "2012-01-04T20:13:22Z",
    "id": 2437,
    "latitude": "55.940969",
    "longitude": "-133.229032",
    "mascot": null,
    "name": "J R Gildersleeve School",
    "primary_color": null,
    "secondary_color": null,
    "state": "AK",
    "timezone": "America/Sitka",
    "updated_at": "2012-07-07T22:46:52Z",
    "zip": "99950"
  },
  {
    "address": "Box KXA",
    "city": "Kasaan",
    "county": "Prince of Wales-Outer Ketchikan Census Area",
    "created_at": "2012-01-04T20:13:22Z",
    "id": 2438,
    "latitude": "56.296573",
    "longitude": "-133.614617",
    "mascot": null,
    "name": "Kasaan School",
    "primary_color": null,
    "secondary_color": null,
    "state": "AK",
    "timezone": "America/Sitka",
    "updated_at": "2012-07-07T22:46:53Z",
    "zip": "99950"
  },
  {
    "address": "100 Main St",
    "city": "Port Alexander",
    "county": "Petersburg Census Area",
    "created_at": "2012-01-04T20:13:22Z",
    "id": 2439,
    "latitude": "56.250503",
    "longitude": "-134.646479",
    "mascot": "Eagles",
    "name": "Port Alexander School",
    "primary_color": "Red",
    "secondary_color": "Black",
    "state": "AK",
    "timezone": "America/Juneau",
    "updated_at": "2012-07-07T22:46:53Z",
    "zip": "99836"
  },
  {
    "address": "PO Box 18002",
    "city": "Coffman Cove",
    "county": "Prince of Wales-Outer Ketchikan Census Area",
    "created_at": "2012-01-04T20:13:22Z",
    "id": 2440,
    "latitude": "56.011754",
    "longitude": "-132.826818",
    "mascot": null,
    "name": "Howard Valentine School",
    "primary_color": "Navy",
    "secondary_color": "White",
    "state": "AK",
    "timezone": "America/Metlakatla",
    "updated_at": "2012-07-07T22:46:54Z",
    "zip": "99918"
  },
  {
    "address": "PO Box 17001",
    "city": "Ketchikan",
    "county": "Prince of Wales-Outer Ketchikan Census Area",
    "created_at": "2012-01-04T20:13:22Z",
    "id": 2441,
    "latitude": "55.940969",
    "longitude": "-133.229032",
    "mascot": null,
    "name": "Edna Bay School",
    "primary_color": "Red",
    "secondary_color": "Black",
    "state": "AK",
    "timezone": "America/Sitka",
    "updated_at": "2012-07-07T22:46:55Z",
    "zip": "99950"
  },
  {
    "address": "PO Box 167",
    "city": "Tatitlek",
    "county": "Valdez-Cordova Census Area",
    "created_at": "2012-01-04T20:13:22Z",
    "id": 2442,
    "latitude": "60.876650",
    "longitude": "-146.687359",
    "mascot": "Tatitlek Cubs",
    "name": "Tatitlek Community School",
    "primary_color": "Gold",
    "secondary_color": "Royal",
    "state": "AK",
    "timezone": "America/Anchorage",
    "updated_at": "2012-07-07T22:46:56Z",
    "zip": "99677"
  },
  {
    "address": "PO Box 638",
    "city": "Whittier",
    "county": "Valdez-Cordova Census Area",
    "created_at": "2012-01-04T20:13:23Z",
    "id": 2443,
    "latitude": "60.774482",
    "longitude": "-148.668089",
    "mascot": "Eagles",
    "name": "Whittier Community School",
    "primary_color": "Kelly Green",
    "secondary_color": "White",
    "state": "AK",
    "timezone": "America/Anchorage",
    "updated_at": "2012-07-07T22:46:57Z",
    "zip": "99693"
  },
  {
    "address": "PO Box 8030",
    "city": "Chenega Bay",
    "county": "Valdez-Cordova Census Area",
    "created_at": "2012-01-04T20:13:23Z",
    "id": 2444,
    "latitude": "60.493749",
    "longitude": "-145.460181",
    "mascot": "Bears",
    "name": "Chenega Bay School",
    "primary_color": "Royal",
    "secondary_color": "White",
    "state": "AK",
    "timezone": "America/Anchorage",
    "updated_at": "2012-07-07T22:46:58Z",
    "zip": "99574"
  },
  {
    "address": "PO Box 237",
    "city": "Akiak",
    "county": "Bethel Census Area",
    "created_at": "2012-01-04T20:13:23Z",
    "id": 2445,
    "latitude": "60.920890",
    "longitude": "-161.225929",
    "mascot": "Thunderbolts",
    "name": "Akiak Schools",
    "primary_color": "Gold",
    "secondary_color": "Maroon",
    "state": "AK",
    "timezone": "America/Anchorage",
    "updated_at": "2012-07-07T22:46:58Z",
    "zip": "99552"
  },
  {
    "address": "Main St",
    "city": "Akiachak",
    "county": "Bethel Census Area",
    "created_at": "2012-01-04T20:13:23Z",
    "id": 2446,
    "latitude": "60.900700",
    "longitude": "-161.423696",
    "mascot": "Huskies",
    "name": "Moses Peter Memorial High School",
    "primary_color": "Royal",
    "secondary_color": "White",
    "state": "AK",
    "timezone": "America/Anchorage",
    "updated_at": "2012-07-07T22:46:59Z",
    "zip": "99551"
  },
  {
    "address": "1 Phillip Rd",
    "city": "Tuluksak",
    "county": "Bethel Census Area",
    "created_at": "2012-01-04T20:13:23Z",
    "id": 2447,
    "latitude": "61.102506",
    "longitude": "-160.961945",
    "mascot": "Wolverines",
    "name": "Tuluksak High School",
    "primary_color": "Navy",
    "secondary_color": "White",
    "state": "AK",
    "timezone": "America/Anchorage",
    "updated_at": "2012-07-07T22:47:00Z",
    "zip": "99679"
  },
  {
    "address": "12101 Brayton Dr",
    "city": "Anchorage",
    "county": "Municipality of Anchorage",
    "created_at": "2012-01-04T20:13:23Z",
    "id": 2448,
    "latitude": "61.109904",
    "longitude": "-149.851159",
    "mascot": "Rams",
    "name": "Banner Christian Academy",
    "primary_color": "Maroon",
    "secondary_color": "White",
    "state": "AK",
    "timezone": "America/Anchorage",
    "updated_at": "2012-07-07T22:47:01Z",
    "zip": "99507"
  },
  {
    "address": "46188 Sterling Hwy",
    "city": "Soldotna",
    "county": "Kenai Peninsula Borough",
    "created_at": "2012-01-04T20:13:23Z",
    "id": 2449,
    "latitude": "60.457139",
    "longitude": "-151.097908",
    "mascot": "Panthers",
    "name": "Skyview High School",
    "primary_color": "Purple",
    "secondary_color": "White",
    "state": "AK",
    "timezone": "America/Anchorage",
    "updated_at": "2012-07-07T22:47:02Z",
    "zip": "99669"
  },
  {
    "address": "4515 Campbell Air Strip Rd",
    "city": "Anchorage",
    "county": "Municipality of Anchorage",
    "created_at": "2012-01-04T20:13:23Z",
    "id": 2450,
    "latitude": "61.179268",
    "longitude": "-149.763099",
    "mascot": "Ravens",
    "name": "Benson Secondary School",
    "primary_color": "Teal",
    "secondary_color": "Black",
    "state": "AK",
    "timezone": "America/Anchorage",
    "updated_at": "2012-07-07T22:47:03Z",
    "zip": "99507"
  },
  {
    "address": "190 Casonoff St",
    "city": "Kiana",
    "county": "Northwest Arctic Borough",
    "created_at": "2012-01-04T20:13:23Z",
    "id": 2451,
    "latitude": "66.972425",
    "longitude": "-160.434524",
    "mascot": "Lynx",
    "name": "Kiana High School",
    "primary_color": "Gold",
    "secondary_color": "Red",
    "state": "AK",
    "timezone": "America/Anchorage",
    "updated_at": "2012-07-07T22:47:04Z",
    "zip": "99749"
  },
  {
    "address": "1 School Rd",
    "city": "Fort Yukon",
    "county": "Yukon-Koyukuk Census Area",
    "created_at": "2012-01-04T20:13:23Z",
    "id": 2452,
    "latitude": "66.457926",
    "longitude": "-145.506184",
    "mascot": "Eagles",
    "name": "Fort Yukon School",
    "primary_color": "Royal",
    "secondary_color": "White",
    "state": "AK",
    "timezone": "America/Anchorage",
    "updated_at": "2012-07-07T22:47:04Z",
    "zip": "99740"
  },
  {
    "address": "152 Park Ave",
    "city": "Soldotna",
    "county": "Kenai Peninsula Borough",
    "created_at": "2012-01-04T20:13:23Z",
    "id": 2453,
    "latitude": "60.491134",
    "longitude": "-151.068850",
    "mascot": null,
    "name": "Kachemek Selo School",
    "primary_color": null,
    "secondary_color": null,
    "state": "AK",
    "timezone": "America/Anchorage",
    "updated_at": "2012-07-07T22:47:05Z",
    "zip": "99669"
  },
  {
    "address": "2931 Baranof Ave",
    "city": "Ketchikan",
    "county": "Ketchikan Gateway Borough",
    "created_at": "2012-01-04T20:13:23Z",
    "id": 2454,
    "latitude": "55.354465",
    "longitude": "-131.681334",
    "mascot": null,
    "name": "Correspondence Studies",
    "primary_color": "Royal",
    "secondary_color": "White",
    "state": "AK",
    "timezone": "America/Sitka",
    "updated_at": "2012-07-07T22:47:06Z",
    "zip": "99901"
  },
  {
    "address": "410 E 56th St",
    "city": "Anchorage",
    "county": "Municipality of Anchorage",
    "created_at": "2012-01-04T20:13:23Z",
    "id": 2455,
    "latitude": "61.170004",
    "longitude": "-149.875820",
    "mascot": null,
    "name": "Save High School",
    "primary_color": "Gray",
    "secondary_color": "Columbia Blue",
    "state": "AK",
    "timezone": "America/Anchorage",
    "updated_at": "2012-07-07T22:47:07Z",
    "zip": "99518"
  },
  {
    "address": "425 C St",
    "city": "Anchorage",
    "county": "Municipality of Anchorage",
    "created_at": "2012-01-04T20:13:23Z",
    "id": 2456,
    "latitude": "61.218249",
    "longitude": "-149.887352",
    "mascot": "Griffins",
    "name": "AVAIL, CIS, INC.",
    "primary_color": "Purple",
    "secondary_color": "Black",
    "state": "AK",
    "timezone": "America/Anchorage",
    "updated_at": "2012-07-07T22:47:07Z",
    "zip": "99501"
  },
  {
    "address": "1444 E Dowling St",
    "city": "Anchorage",
    "county": "Municipality of Anchorage",
    "created_at": "2012-01-04T20:13:23Z",
    "id": 2457,
    "latitude": "61.166318",
    "longitude": "-149.854531",
    "mascot": "Wolves",
    "name": "Polaris School",
    "primary_color": "Gray",
    "secondary_color": "Kelly Green",
    "state": "AK",
    "timezone": "America/Anchorage",
    "updated_at": "2012-07-07T22:47:08Z",
    "zip": "99507"
  },
  {
    "address": "11247 Frontage Rd",
    "city": "Kenai",
    "county": "Kenai Peninsula Borough",
    "created_at": "2012-01-04T20:13:23Z",
    "id": 2458,
    "latitude": "60.554200",
    "longitude": "-151.259829",
    "mascot": "Snowy Owls",
    "name": "Kenai Alternative High School",
    "primary_color": "Royal",
    "secondary_color": "Gold",
    "state": "AK",
    "timezone": "America/Anchorage",
    "updated_at": "2012-07-07T22:47:08Z",
    "zip": "99611"
  },
  {
    "address": "PO Box 15007",
    "city": "Fritz Creek",
    "county": "Kenai Peninsula Borough",
    "created_at": "2012-01-04T20:13:23Z",
    "id": 2459,
    "latitude": "59.673260",
    "longitude": "-151.446879",
    "mascot": "Roadrunners",
    "name": "Kachemak Selo School",
    "primary_color": "Royal",
    "secondary_color": "White",
    "state": "AK",
    "timezone": "America/Anchorage",
    "updated_at": "2012-07-07T22:47:09Z",
    "zip": "99603"
  },
  {
    "address": "722 Mill Bay Rd",
    "city": "Kodiak",
    "county": "Kodiak Island Borough",
    "created_at": "2012-01-04T20:13:23Z",
    "id": 2460,
    "latitude": "57.793846",
    "longitude": "-152.398973",
    "mascot": "Bears",
    "name": "Kodiak High School",
    "primary_color": "Gold",
    "secondary_color": "Royal",
    "state": "AK",
    "timezone": "America/Anchorage",
    "updated_at": "2012-07-07T22:47:10Z",
    "zip": "99615"
  },
  {
    "address": "PO Box 509",
    "city": "Kodiak",
    "county": "Kodiak Island Borough",
    "created_at": "2012-01-04T20:13:23Z",
    "id": 2461,
    "latitude": "57.746277",
    "longitude": "-152.494598",
    "mascot": null,
    "name": "Big Sandy Lake School",
    "primary_color": "Purple",
    "secondary_color": "White",
    "state": "AK",
    "timezone": "America/Anchorage",
    "updated_at": "2012-07-07T22:47:11Z",
    "zip": "99615"
  },
  {
    "address": "Po Box 3153",
    "city": "Palmer",
    "county": "Matanuska-Susitna Borough",
    "created_at": "2012-01-04T20:13:23Z",
    "id": 2462,
    "latitude": "61.615140",
    "longitude": "-149.217389",
    "mascot": null,
    "name": "Danger Bay School",
    "primary_color": null,
    "secondary_color": null,
    "state": "AK",
    "timezone": "America/Anchorage",
    "updated_at": "2012-07-07T22:47:11Z",
    "zip": "99645"
  },
  {
    "address": "9550 Colony School Dr",
    "city": "Palmer",
    "county": "Matanuska-Susitna Borough",
    "created_at": "2012-01-04T20:13:23Z",
    "id": 2463,
    "latitude": "61.610150",
    "longitude": "-149.212816",
    "mascot": "Knights",
    "name": "Colony High School",
    "primary_color": "Kelly Green",
    "secondary_color": "Black",
    "state": "AK",
    "timezone": "America/Anchorage",
    "updated_at": "2012-07-07T22:47:12Z",
    "zip": "99645"
  },
  {
    "address": "520 5th Ave",
    "city": "Fairbanks",
    "county": "Fairbanks North Star Borough",
    "created_at": "2012-01-04T20:13:23Z",
    "id": 2464,
    "latitude": "64.841907",
    "longitude": "-147.717711",
    "mascot": null,
    "name": "Fairbanks Correspondence School",
    "primary_color": null,
    "secondary_color": null,
    "state": "AK",
    "timezone": "America/Anchorage",
    "updated_at": "2012-07-07T22:47:12Z",
    "zip": "99701"
  },
  {
    "address": "303 Moore Way",
    "city": "Nome",
    "county": "Nome Census Area",
    "created_at": "2012-01-04T20:13:23Z",
    "id": 2465,
    "latitude": "64.497663",
    "longitude": "-165.397371",
    "mascot": null,
    "name": "Leonard Seppala Alternative School",
    "primary_color": null,
    "secondary_color": null,
    "state": "AK",
    "timezone": "America/Nome",
    "updated_at": "2012-07-07T22:47:13Z",
    "zip": "99762"
  },
  {
    "address": "1684 Okpik St",
    "city": "Barrow",
    "county": "North Slope Borough",
    "created_at": "2012-01-04T20:13:23Z",
    "id": 2466,
    "latitude": "71.288690",
    "longitude": "-156.769115",
    "mascot": "Whalers",
    "name": "Barrow High School",
    "primary_color": "Gold",
    "secondary_color": "Royal",
    "state": "AK",
    "timezone": "America/Anchorage",
    "updated_at": "2012-07-07T22:47:14Z",
    "zip": "99723"
  },
  {
    "address": "1 Dixon Circle",
    "city": "Saint Mary's",
    "county": "Wade Hampton Census Area",
    "created_at": "2012-01-04T20:13:23Z",
    "id": 2467,
    "latitude": "62.056105",
    "longitude": "-163.176054",
    "mascot": "Eagles",
    "name": "Saint Mary's School",
    "primary_color": "Red",
    "secondary_color": "White",
    "state": "AK",
    "timezone": "America/Nome",
    "updated_at": "2012-07-07T22:47:14Z",
    "zip": "99658"
  },
  {
    "address": "101 Curry St",
    "city": "Kotlik",
    "county": "Wade Hampton Census Area",
    "created_at": "2012-01-04T20:13:23Z",
    "id": 2468,
    "latitude": "63.032925",
    "longitude": "-163.555839",
    "mascot": "Falcons",
    "name": "Kotlik School",
    "primary_color": "Gold",
    "secondary_color": "Maroon",
    "state": "AK",
    "timezone": "America/Nome",
    "updated_at": "2012-07-07T22:47:15Z",
    "zip": "99620"
  },
  {
    "address": "101 Pike St",
    "city": "Kasigluk",
    "county": "Bethel Census Area",
    "created_at": "2012-01-04T20:13:23Z",
    "id": 2469,
    "latitude": "60.895248",
    "longitude": "-162.517175",
    "mascot": "Grizzlies",
    "name": "Akiuk Memorial School",
    "primary_color": "Gray",
    "secondary_color": "White",
    "state": "AK",
    "timezone": "America/Nome",
    "updated_at": "2012-07-07T22:47:15Z",
    "zip": "99609"
  },
  {
    "address": "PO Box 49",
    "city": "Arctic Village",
    "county": "Yukon-Koyukuk Census Area",
    "created_at": "2012-01-04T20:13:23Z",
    "id": 2470,
    "latitude": "67.210320",
    "longitude": "-145.798908",
    "mascot": null,
    "name": "Arctic Village School",
    "primary_color": null,
    "secondary_color": null,
    "state": "AK",
    "timezone": "America/Anchorage",
    "updated_at": "2012-07-07T22:47:16Z",
    "zip": "99722"
  },
  {
    "address": "Healy Indian Reservation",
    "city": "Delta Junction",
    "county": "Southeast Fairbanks Census Area",
    "created_at": "2012-01-04T20:13:23Z",
    "id": 2471,
    "latitude": "64.046610",
    "longitude": "-145.735934",
    "mascot": null,
    "name": "Healy Lake School",
    "primary_color": "Teal",
    "secondary_color": "Purple",
    "state": "AK",
    "timezone": "America/Anchorage",
    "updated_at": "2012-07-07T22:47:17Z",
    "zip": "99737"
  },
  {
    "address": "PO Box WWP",
    "city": "Ketchikan",
    "county": "Prince of Wales-Outer Ketchikan Census Area",
    "created_at": "2012-01-04T20:13:23Z",
    "id": 2472,
    "latitude": "56.296573",
    "longitude": "-133.614617",
    "mascot": "Whales",
    "name": "Whale Pass School",
    "primary_color": "Teal",
    "secondary_color": "Purple",
    "state": "AK",
    "timezone": "America/Sitka",
    "updated_at": "2012-07-07T22:47:18Z",
    "zip": "99950"
  },
  {
    "address": "PO Box HYL",
    "city": "Hollis",
    "county": "Prince of Wales-Outer Ketchikan Census Area",
    "created_at": "2012-01-04T20:13:23Z",
    "id": 2473,
    "latitude": "56.296573",
    "longitude": "-133.614617",
    "mascot": null,
    "name": "Hollis School",
    "primary_color": null,
    "secondary_color": null,
    "state": "AK",
    "timezone": "America/Sitka",
    "updated_at": "2012-07-07T22:47:18Z",
    "zip": "99950"
  },
  {
    "address": "PO Box NKI",
    "city": "Ketchikan",
    "county": "Ketchikan Gateway Borough",
    "created_at": "2012-01-04T20:13:23Z",
    "id": 2474,
    "latitude": "55.342140",
    "longitude": "-131.647854",
    "mascot": "Wildcats",
    "name": "Naukati School",
    "primary_color": "Teal",
    "secondary_color": "Purple",
    "state": "AK",
    "timezone": "America/Sitka",
    "updated_at": "2012-07-07T22:47:19Z",
    "zip": "99901"
  },
  {
    "address": "Pouch K",
    "city": "Ketchikan",
    "county": "Prince of Wales-Outer Ketchikan Census Area",
    "created_at": "2012-01-04T20:13:23Z",
    "id": 2475,
    "latitude": "55.940969",
    "longitude": "-133.229032",
    "mascot": null,
    "name": "Polk Inlet School",
    "primary_color": null,
    "secondary_color": null,
    "state": "AK",
    "timezone": "America/Sitka",
    "updated_at": "2012-07-07T22:47:19Z",
    "zip": "99950"
  },
  {
    "address": "1010 W. Fireweed Lane",
    "city": "Anchorage",
    "county": "Municipality of Anchorage",
    "created_at": "2012-01-04T20:13:23Z",
    "id": 2476,
    "latitude": "61.198810",
    "longitude": "-149.901566",
    "mascot": "Knights",
    "name": "Holy Rosary Academy",
    "primary_color": "Kelly Green",
    "secondary_color": "White",
    "state": "AK",
    "timezone": "America/Anchorage",
    "updated_at": "2012-07-07T22:47:20Z",
    "zip": "99503"
  },
  {
    "address": "601 Loftus Rd",
    "city": "Fairbanks",
    "county": "Fairbanks North Star Borough",
    "created_at": "2012-01-04T20:13:23Z",
    "id": 2477,
    "latitude": "64.845929",
    "longitude": "-147.844021",
    "mascot": "Suns",
    "name": "Effie Kokrine Charter",
    "primary_color": "Royal",
    "secondary_color": "White",
    "state": "AK",
    "timezone": "America/Anchorage",
    "updated_at": "2012-07-07T22:47:21Z",
    "zip": "99709"
  },
  {
    "address": "8110 Jewel Lake Rd Bldg D",
    "city": "Anchorage",
    "county": "Municipality of Anchorage",
    "created_at": "2012-01-04T20:13:23Z",
    "id": 2478,
    "latitude": "61.147331",
    "longitude": "-149.951912",
    "mascot": "Archangels",
    "name": "Lumen Christi High School",
    "primary_color": "Navy",
    "secondary_color": "Gray",
    "state": "AK",
    "timezone": "America/Anchorage",
    "updated_at": "2012-07-07T22:47:22Z",
    "zip": "99502"
  },
  {
    "address": "2508 Blueberry Ln",
    "city": "Anchorage",
    "county": "Municipality of Anchorage",
    "created_at": "2012-01-04T20:13:23Z",
    "id": 2479,
    "latitude": "61.197834",
    "longitude": "-149.892582",
    "mascot": "Stellar Jays",
    "name": "Stellar Secondary School",
    "primary_color": "Royal",
    "secondary_color": "Hunter Green",
    "state": "AK",
    "timezone": "America/Anchorage",
    "updated_at": "2012-07-07T22:47:22Z",
    "zip": "99501"
  },
  {
    "address": "Box 270",
    "city": "Homer",
    "county": "Kenai Peninsula Borough",
    "created_at": "2012-01-04T20:13:23Z",
    "id": 2480,
    "latitude": "59.673260",
    "longitude": "-151.446879",
    "mascot": null,
    "name": "Homer Flex Alternative High School",
    "primary_color": "Maroon",
    "secondary_color": "Black",
    "state": "AK",
    "timezone": "America/Anchorage",
    "updated_at": "2012-07-07T22:47:23Z",
    "zip": "99603"
  },
  {
    "address": "1775 W Parks Hwy",
    "city": "Wasilla",
    "county": "Matanuska-Susitna Borough",
    "created_at": "2012-01-04T20:13:23Z",
    "id": 2481,
    "latitude": "61.579369",
    "longitude": "-149.494421",
    "mascot": "Wolves",
    "name": "Burchell High School",
    "primary_color": "Gray",
    "secondary_color": "Columbia Blue",
    "state": "AK",
    "timezone": "America/Anchorage",
    "updated_at": "2012-07-07T22:47:24Z",
    "zip": "99654"
  },
  {
    "address": "General Delivery",
    "city": "Portage Creek",
    "county": "Dillingham Census Area",
    "created_at": "2012-01-04T20:13:23Z",
    "id": 2482,
    "latitude": "59.039794",
    "longitude": "-158.462390",
    "mascot": null,
    "name": "Portage Creek School",
    "primary_color": "Royal",
    "secondary_color": "White",
    "state": "AK",
    "timezone": "America/Anchorage",
    "updated_at": "2012-07-07T22:47:24Z",
    "zip": "99576"
  },
  {
    "address": "725 26th Ave #202",
    "city": "Fairbanks",
    "county": "Fairbanks North Star Borough",
    "created_at": "2012-01-04T20:13:23Z",
    "id": 2483,
    "latitude": "64.823402",
    "longitude": "-147.716706",
    "mascot": null,
    "name": "Career Education Center",
    "primary_color": null,
    "secondary_color": null,
    "state": "AK",
    "timezone": "America/Anchorage",
    "updated_at": "2012-07-07T22:47:25Z",
    "zip": "99701"
  },
  {
    "address": "550 S Bragaw St",
    "city": "Anchorage",
    "county": "Municipality of Anchorage",
    "created_at": "2012-01-04T20:13:23Z",
    "id": 2484,
    "latitude": "61.217366",
    "longitude": "-149.808406",
    "mascot": "Panthers",
    "name": "Pacific Northern Academy",
    "primary_color": "Gold",
    "secondary_color": "Kelly Green",
    "state": "AK",
    "timezone": "America/Anchorage",
    "updated_at": "2012-07-07T22:47:26Z",
    "zip": "99508"
  },
  {
    "address": "100 School Road, Lower",
    "city": "Craig",
    "county": "Prince of Wales-Outer Ketchikan Census Area",
    "created_at": "2012-01-04T20:13:23Z",
    "id": 2485,
    "latitude": "55.475025",
    "longitude": "-133.150569",
    "mascot": null,
    "name": "PACE Learning Center",
    "primary_color": null,
    "secondary_color": null,
    "state": "AK",
    "timezone": "America/Metlakatla",
    "updated_at": "2012-07-07T22:47:27Z",
    "zip": "99921"
  },
  {
    "address": "1664 N Clearwater Ave",
    "city": "Delta Junction",
    "county": "Southeast Fairbanks Census Area",
    "created_at": "2012-01-04T20:13:23Z",
    "id": 2486,
    "latitude": "64.043416",
    "longitude": "-145.713084",
    "mascot": null,
    "name": "Delta Cyber School",
    "primary_color": null,
    "secondary_color": null,
    "state": "AK",
    "timezone": "America/Anchorage",
    "updated_at": "2012-07-07T22:47:27Z",
    "zip": "99737"
  },
  {
    "address": "2001 Palmer-Wasilla Hwy",
    "city": "Wasilla",
    "county": "Matanuska-Susitna Borough",
    "created_at": "2012-01-04T20:13:23Z",
    "id": 2487,
    "latitude": "61.580734",
    "longitude": "-149.399028",
    "mascot": null,
    "name": "Wasilla Lake Christian School",
    "primary_color": null,
    "secondary_color": null,
    "state": "AK",
    "timezone": "America/Anchorage",
    "updated_at": "2012-07-07T22:47:28Z",
    "zip": "99654"
  },
  {
    "address": "13400 Elmore Rd",
    "city": "Anchorage",
    "county": "Municipality of Anchorage",
    "created_at": "2012-01-04T20:13:23Z",
    "id": 2488,
    "latitude": "61.099824",
    "longitude": "-149.804167",
    "mascot": "Wolverines",
    "name": "South Anchorage High School",
    "primary_color": "Black",
    "secondary_color": "Gold",
    "state": "AK",
    "timezone": "America/Anchorage",
    "updated_at": "2012-07-07T22:47:28Z",
    "zip": "99516"
  },
  {
    "address": "501 N Gulkana St",
    "city": "Palmer",
    "county": "Matanuska-Susitna Borough",
    "created_at": "2012-01-04T20:13:23Z",
    "id": 2489,
    "latitude": "61.611602",
    "longitude": "-149.103172",
    "mascot": null,
    "name": "Twindly Bridge Charter School",
    "primary_color": null,
    "secondary_color": null,
    "state": "AK",
    "timezone": "America/Anchorage",
    "updated_at": "2012-07-07T22:47:29Z",
    "zip": "99654"
  },
  {
    "address": "100 Panther Way",
    "city": "Craig",
    "county": "Prince of Wales-Outer Ketchikan Census Area",
    "created_at": "2012-01-04T20:13:23Z",
    "id": 2490,
    "latitude": "55.482667",
    "longitude": "-133.123916",
    "mascot": "Panthers",
    "name": "Craig High School",
    "primary_color": "Kelly Green",
    "secondary_color": "Gold",
    "state": "AK",
    "timezone": "America/Metlakatla",
    "updated_at": "2012-07-07T22:47:30Z",
    "zip": "99921"
  }
]