[
  {
    "address": "19 School St",
    "city": "North Stratford",
    "county": "Coos County",
    "created_at": "2012-01-04T20:16:00Z",
    "id": 15591,
    "latitude": "44.749757",
    "longitude": "-71.627165",
    "mascot": "Lions",
    "name": "Stratford Public School",
    "primary_color": "Royal",
    "secondary_color": "White",
    "state": "NH",
    "timezone": "America/New_York",
    "updated_at": "2012-07-08T00:28:44Z",
    "zip": "03590"
  },
  {
    "address": "12 Rocky Hill Rd",
    "city": "Somersworth",
    "county": "Strafford County",
    "created_at": "2012-01-04T20:16:00Z",
    "id": 15592,
    "latitude": "43.265857",
    "longitude": "-70.875185",
    "mascot": "Warriors",
    "name": "Southeastern New Hampshire Christian",
    "primary_color": "Red",
    "secondary_color": "White",
    "state": "NH",
    "timezone": "America/New_York",
    "updated_at": "2012-07-08T00:28:44Z",
    "zip": "03878"
  },
  {
    "address": "1386 Meredith Center Rd",
    "city": "Laconia",
    "county": "Belknap County",
    "created_at": "2012-01-04T20:16:00Z",
    "id": 15593,
    "latitude": "43.599895",
    "longitude": "-71.518632",
    "mascot": "Crusaders",
    "name": "Laconia Christian School",
    "primary_color": "Royal",
    "secondary_color": "White",
    "state": "NH",
    "timezone": "America/New_York",
    "updated_at": "2012-07-08T00:28:44Z",
    "zip": "03246"
  },
  {
    "address": "27 Wallace Rd",
    "city": "Goffstown",
    "county": "Hillsborough County",
    "created_at": "2012-01-04T20:16:00Z",
    "id": 15594,
    "latitude": "43.011853",
    "longitude": "-71.584577",
    "mascot": "Bears",
    "name": "Goffstown Area High School",
    "primary_color": "Maroon",
    "secondary_color": "White",
    "state": "NH",
    "timezone": "America/New_York",
    "updated_at": "2012-07-08T00:28:44Z",
    "zip": "03045"
  },
  {
    "address": "15 Central School Rd",
    "city": "New Boston",
    "county": "Hillsborough County",
    "created_at": "2012-01-04T20:16:00Z",
    "id": 15595,
    "latitude": "42.979071",
    "longitude": "-71.689354",
    "mascot": "Bobcats",
    "name": "New Boston Central School",
    "primary_color": "Gold",
    "secondary_color": "Royal",
    "state": "NH",
    "timezone": "America/New_York",
    "updated_at": "2012-07-08T00:28:45Z",
    "zip": "03070"
  },
  {
    "address": "20 Seaborne Drive ",
    "city": "Dover",
    "county": "Strafford County",
    "created_at": "2012-01-04T20:16:00Z",
    "id": 15596,
    "latitude": "43.160419",
    "longitude": "-70.862029",
    "mascot": "Eagles",
    "name": "Portsmouth Christian Academy",
    "primary_color": "Gray",
    "secondary_color": "Maroon",
    "state": "NH",
    "timezone": "America/New_York",
    "updated_at": "2012-07-08T00:28:45Z",
    "zip": "03820"
  },
  {
    "address": "23 Oneida St",
    "city": "Pittsfield",
    "county": "Merrimack County",
    "created_at": "2012-01-04T20:16:00Z",
    "id": 15597,
    "latitude": "43.303259",
    "longitude": "-71.317635",
    "mascot": "Panthers",
    "name": "Pittsfield Middle High School",
    "primary_color": "Red",
    "secondary_color": "Royal",
    "state": "NH",
    "timezone": "America/New_York",
    "updated_at": "2012-07-08T00:28:45Z",
    "zip": "03263"
  },
  {
    "address": "145 Hampstead Rd",
    "city": "Derry",
    "county": "Rockingham County",
    "created_at": "2012-01-04T20:16:00Z",
    "id": 15598,
    "latitude": "42.897974",
    "longitude": "-71.268902",
    "mascot": "Eagles",
    "name": "Calvary Christian School",
    "primary_color": "Royal",
    "secondary_color": "White",
    "state": "NH",
    "timezone": "America/New_York",
    "updated_at": "2012-07-08T00:28:45Z",
    "zip": "03038"
  },
  {
    "address": "117 Elm St",
    "city": "Nashua",
    "county": "Hillsborough County",
    "created_at": "2012-01-04T20:16:00Z",
    "id": 15599,
    "latitude": "42.753063",
    "longitude": "-71.463410",
    "mascot": "Eagles",
    "name": "Elm Street Junior High School",
    "primary_color": "Red",
    "secondary_color": "White",
    "state": "NH",
    "timezone": "America/New_York",
    "updated_at": "2012-07-08T00:28:46Z",
    "zip": "03060"
  },
  {
    "address": "176 Main St",
    "city": "Conway",
    "county": "Carroll County",
    "created_at": "2012-01-04T20:16:00Z",
    "id": 15600,
    "latitude": "43.979394",
    "longitude": "-71.110920",
    "mascot": "Eagles",
    "name": "A Crosby Kennett Junior Senior High",
    "primary_color": "Black",
    "secondary_color": "White",
    "state": "NH",
    "timezone": "America/New_York",
    "updated_at": "2012-07-08T00:28:46Z",
    "zip": "03818"
  },
  {
    "address": "43 Arch St",
    "city": "Keene",
    "county": "Cheshire County",
    "created_at": "2012-01-04T20:16:00Z",
    "id": 15601,
    "latitude": "42.938728",
    "longitude": "-72.312523",
    "mascot": "Blackbirds",
    "name": "Keene High School",
    "primary_color": "Orange",
    "secondary_color": "Black",
    "state": "NH",
    "timezone": "America/New_York",
    "updated_at": "2012-07-08T00:28:46Z",
    "zip": "03431"
  },
  {
    "address": "580 Old Homestead Hwy",
    "city": "Swanzey",
    "county": "Cheshire County",
    "created_at": "2012-01-04T20:16:00Z",
    "id": 15602,
    "latitude": "42.875248",
    "longitude": "-72.279455",
    "mascot": "Huskies",
    "name": "Monadnock Regional High School",
    "primary_color": "Hunter Green",
    "secondary_color": "White",
    "state": "NH",
    "timezone": "America/New_York",
    "updated_at": "2012-07-08T00:28:47Z",
    "zip": "03446"
  },
  {
    "address": "550 Willard St",
    "city": "Berlin",
    "county": "Coos County",
    "created_at": "2012-01-04T20:16:00Z",
    "id": 15603,
    "latitude": "44.480980",
    "longitude": "-71.187692",
    "mascot": "Mountaineers",
    "name": "Berlin High School",
    "primary_color": "Red",
    "secondary_color": "Black",
    "state": "NH",
    "timezone": "America/New_York",
    "updated_at": "2012-07-08T00:28:47Z",
    "zip": "03570"
  },
  {
    "address": "127 Regional Rd",
    "city": "Whitefield",
    "county": "Coos County",
    "created_at": "2012-01-04T20:16:00Z",
    "id": 15604,
    "latitude": "44.414189",
    "longitude": "-71.598153",
    "mascot": "Spartans",
    "name": "White Mountains Regional High School",
    "primary_color": "Navy",
    "secondary_color": "White",
    "state": "NH",
    "timezone": "America/New_York",
    "updated_at": "2012-07-08T00:28:47Z",
    "zip": "03598"
  },
  {
    "address": "86 Old Ward Bridge Rd",
    "city": "Plymouth",
    "county": "Grafton County",
    "created_at": "2012-01-04T20:16:00Z",
    "id": 15605,
    "latitude": "43.763731",
    "longitude": "-71.702569",
    "mascot": "Bobcats",
    "name": "Plymouth Regional High School",
    "primary_color": "Royal",
    "secondary_color": "White",
    "state": "NH",
    "timezone": "America/New_York",
    "updated_at": "2012-07-08T00:28:47Z",
    "zip": "03264"
  },
  {
    "address": "RR 1 Box 168 A",
    "city": "West Canaan",
    "county": "Grafton County",
    "created_at": "2012-01-04T20:16:00Z",
    "id": 15606,
    "latitude": "43.645227",
    "longitude": "-72.008302",
    "mascot": "Panthers",
    "name": "Mascoma Valley Regional High School",
    "primary_color": "Purple",
    "secondary_color": "Gold",
    "state": "NH",
    "timezone": "America/New_York",
    "updated_at": "2012-07-08T00:28:48Z",
    "zip": "03741"
  },
  {
    "address": "100 West St",
    "city": "Milford",
    "county": "Hillsborough County",
    "created_at": "2012-01-04T20:16:00Z",
    "id": 15607,
    "latitude": "42.829233",
    "longitude": "-71.660674",
    "mascot": "Spartans",
    "name": "Milford High School",
    "primary_color": "Royal",
    "secondary_color": "White",
    "state": "NH",
    "timezone": "America/New_York",
    "updated_at": "2012-07-08T00:28:48Z",
    "zip": "03055"
  },
  {
    "address": "175 Turnpike Rd",
    "city": "New Ipswich",
    "county": "Hillsborough County",
    "created_at": "2012-01-04T20:16:00Z",
    "id": 15608,
    "latitude": "42.744771",
    "longitude": "-71.819809",
    "mascot": "Vikings",
    "name": "Mascenic Regional High School",
    "primary_color": "Red",
    "secondary_color": "Royal",
    "state": "NH",
    "timezone": "America/New_York",
    "updated_at": "2012-07-08T00:28:48Z",
    "zip": "03071"
  },
  {
    "address": "115 Central St",
    "city": "Franklin",
    "county": "Merrimack County",
    "created_at": "2012-01-04T20:16:00Z",
    "id": 15609,
    "latitude": "43.441302",
    "longitude": "-71.653895",
    "mascot": "Tornados",
    "name": "Franklin High School",
    "primary_color": "Gold",
    "secondary_color": "Royal",
    "state": "NH",
    "timezone": "America/New_York",
    "updated_at": "2012-07-08T00:28:48Z",
    "zip": "03235"
  },
  {
    "address": "106 Village St",
    "city": "Penacook",
    "county": "Merrimack County",
    "created_at": "2012-01-04T20:16:00Z",
    "id": 15610,
    "latitude": "43.272423",
    "longitude": "-71.592789",
    "mascot": "Indians",
    "name": "Merrimack Valley High School",
    "primary_color": "Navy",
    "secondary_color": "White",
    "state": "NH",
    "timezone": "America/New_York",
    "updated_at": "2012-07-08T00:28:49Z",
    "zip": "03303"
  },
  {
    "address": "295 Mammoth Rd",
    "city": "Londonderry",
    "county": "Rockingham County",
    "created_at": "2012-01-04T20:16:00Z",
    "id": 15611,
    "latitude": "42.870810",
    "longitude": "-71.377066",
    "mascot": "Lancers",
    "name": "Londonderry High School",
    "primary_color": "Royal",
    "secondary_color": "White",
    "state": "NH",
    "timezone": "America/New_York",
    "updated_at": "2012-07-08T00:28:49Z",
    "zip": "03053"
  },
  {
    "address": "11 Memorial Dr",
    "city": "Somersworth",
    "county": "Strafford County",
    "created_at": "2012-01-04T20:16:00Z",
    "id": 15612,
    "latitude": "43.255603",
    "longitude": "-70.870496",
    "mascot": null,
    "name": "Somersworth High School",
    "primary_color": "Royal",
    "secondary_color": "White",
    "state": "NH",
    "timezone": "America/New_York",
    "updated_at": "2012-07-08T00:28:49Z",
    "zip": "03878"
  },
  {
    "address": "245 N Main St",
    "city": "Newport",
    "county": "Sullivan County",
    "created_at": "2012-01-04T20:16:00Z",
    "id": 15613,
    "latitude": "43.374654",
    "longitude": "-72.178752",
    "mascot": "Tigers",
    "name": "Newport Middle High School",
    "primary_color": "Black",
    "secondary_color": "Orange",
    "state": "NH",
    "timezone": "America/New_York",
    "updated_at": "2012-07-08T00:28:50Z",
    "zip": "03773"
  },
  {
    "address": "121 Cobble Hill Rd",
    "city": "Swanzey",
    "county": "Cheshire County",
    "created_at": "2012-01-04T20:16:00Z",
    "id": 15614,
    "latitude": "42.854792",
    "longitude": "-72.379077",
    "mascot": "Crusaders",
    "name": "Community Christian School",
    "primary_color": "Red",
    "secondary_color": "White",
    "state": "NH",
    "timezone": "America/New_York",
    "updated_at": "2012-07-08T00:28:50Z",
    "zip": "03469"
  },
  {
    "address": "78 Litchfield Rd",
    "city": "Londonderry",
    "county": "Rockingham County",
    "created_at": "2012-01-04T20:16:00Z",
    "id": 15615,
    "latitude": "42.896969",
    "longitude": "-71.408634",
    "mascot": "Crusaders",
    "name": "Victory Baptist School",
    "primary_color": "Kelly Green",
    "secondary_color": "White",
    "state": "NH",
    "timezone": "America/New_York",
    "updated_at": "2012-07-08T00:28:50Z",
    "zip": "03053"
  },
  {
    "address": "132 Titus Ave",
    "city": "Manchester",
    "county": "Hillsborough County",
    "created_at": "2012-01-04T20:16:00Z",
    "id": 15616,
    "latitude": "42.960698",
    "longitude": "-71.457917",
    "mascot": "Lions",
    "name": "Mount Zion Christian School",
    "primary_color": "Gold",
    "secondary_color": "Navy",
    "state": "NH",
    "timezone": "America/New_York",
    "updated_at": "2012-07-08T00:28:50Z",
    "zip": "03103"
  },
  {
    "address": "184 Hancock Rd",
    "city": "Peterborough",
    "county": "Hillsborough County",
    "created_at": "2012-01-04T20:16:00Z",
    "id": 15617,
    "latitude": "42.911860",
    "longitude": "-71.938406",
    "mascot": "Cougars",
    "name": "ConVal High School",
    "primary_color": "Gold",
    "secondary_color": "Royal",
    "state": "NH",
    "timezone": "America/New_York",
    "updated_at": "2012-07-08T00:28:51Z",
    "zip": "03458"
  },
  {
    "address": "194 Lund Rd",
    "city": "Nashua",
    "county": "Hillsborough County",
    "created_at": "2012-01-04T20:16:00Z",
    "id": 15618,
    "latitude": "42.737588",
    "longitude": "-71.476132",
    "mascot": "Cardinals",
    "name": "Bishop Guertin High School",
    "primary_color": "Gold",
    "secondary_color": "Hunter Green",
    "state": "NH",
    "timezone": "America/New_York",
    "updated_at": "2012-07-08T00:28:51Z",
    "zip": "03060"
  },
  {
    "address": "581 Bridge St",
    "city": "Manchester",
    "county": "Hillsborough County",
    "created_at": "2012-01-04T20:16:00Z",
    "id": 15619,
    "latitude": "42.997593",
    "longitude": "-71.433195",
    "mascot": "Pioneers",
    "name": "Trinity High School",
    "primary_color": "Royal",
    "secondary_color": "Red",
    "state": "NH",
    "timezone": "America/New_York",
    "updated_at": "2012-07-08T00:28:51Z",
    "zip": "03104"
  },
  {
    "address": "6 Bartlett Ave",
    "city": "Nashua",
    "county": "Hillsborough County",
    "created_at": "2012-01-04T20:16:00Z",
    "id": 15620,
    "latitude": "42.777097",
    "longitude": "-71.466574",
    "mascot": "Wildcats",
    "name": "Nashua Catholic Junior High School",
    "primary_color": "Gray",
    "secondary_color": "Maroon",
    "state": "NH",
    "timezone": "America/New_York",
    "updated_at": "2012-07-08T00:28:51Z",
    "zip": "03060"
  },
  {
    "address": "25 Columbus Ave",
    "city": "Concord",
    "county": "Merrimack County",
    "created_at": "2012-01-04T20:16:00Z",
    "id": 15621,
    "latitude": "43.210427",
    "longitude": "-71.554919",
    "mascot": "Giants",
    "name": "Bishop Brady High School",
    "primary_color": "Gold",
    "secondary_color": "Hunter Green",
    "state": "NH",
    "timezone": "America/New_York",
    "updated_at": "2012-07-08T00:28:52Z",
    "zip": "03301"
  },
  {
    "address": "197 Dover Point Rd",
    "city": "Dover",
    "county": "Strafford County",
    "created_at": "2012-01-04T20:16:00Z",
    "id": 15622,
    "latitude": "43.152122",
    "longitude": "-70.840152",
    "mascot": "Saint Thomas Saints",
    "name": "Saint Thomas Aquinas High School",
    "primary_color": "Royal",
    "secondary_color": "White",
    "state": "NH",
    "timezone": "America/New_York",
    "updated_at": "2012-07-08T00:28:52Z",
    "zip": "03820"
  },
  {
    "address": "80 Academy Dr",
    "city": "Wolfeboro",
    "county": "Carroll County",
    "created_at": "2012-01-04T20:16:00Z",
    "id": 15623,
    "latitude": "43.581836",
    "longitude": "-71.208840",
    "mascot": "Bobcats",
    "name": "Brewster Academy",
    "primary_color": "Columbia Blue",
    "secondary_color": "Maroon",
    "state": "NH",
    "timezone": "America/New_York",
    "updated_at": "2012-07-08T00:28:52Z",
    "zip": "03894"
  },
  {
    "address": "18 Leahman Way",
    "city": "Dublin",
    "county": "Cheshire County",
    "created_at": "2012-01-04T20:16:00Z",
    "id": 15624,
    "latitude": "42.908727",
    "longitude": "-72.062662",
    "mascot": null,
    "name": "Dublin School",
    "primary_color": "Maroon",
    "secondary_color": "Royal",
    "state": "NH",
    "timezone": "America/New_York",
    "updated_at": "2012-07-08T00:28:52Z",
    "zip": "03444"
  },
  {
    "address": "13 Mount Gilboa Rd",
    "city": "Westmoreland",
    "county": "Cheshire County",
    "created_at": "2012-01-04T20:16:00Z",
    "id": 15625,
    "latitude": "42.996992",
    "longitude": "-72.387906",
    "mascot": null,
    "name": "Pioneer Junior Academy",
    "primary_color": "Red",
    "secondary_color": "White",
    "state": "NH",
    "timezone": "America/New_York",
    "updated_at": "2012-07-08T00:28:53Z",
    "zip": "03467"
  },
  {
    "address": "122 Hampshire Rd",
    "city": "Rindge",
    "county": "Cheshire County",
    "created_at": "2012-01-04T20:16:00Z",
    "id": 15626,
    "latitude": "42.735587",
    "longitude": "-71.947166",
    "mascot": null,
    "name": "Hampshire Country School",
    "primary_color": null,
    "secondary_color": null,
    "state": "NH",
    "timezone": "America/New_York",
    "updated_at": "2012-07-08T00:28:53Z",
    "zip": "03461"
  },
  {
    "address": "106 Page Rd",
    "city": "Dublin",
    "county": "Cheshire County",
    "created_at": "2012-01-04T20:16:00Z",
    "id": 15627,
    "latitude": "42.879293",
    "longitude": "-72.036596",
    "mascot": "Stags",
    "name": "Dublin Christian Academy",
    "primary_color": "Navy",
    "secondary_color": "Gold",
    "state": "NH",
    "timezone": "America/New_York",
    "updated_at": "2012-07-08T00:28:53Z",
    "zip": "03444"
  },
  {
    "address": "91 Maple Ave",
    "city": "Keene",
    "county": "Cheshire County",
    "created_at": "2012-01-04T20:16:00Z",
    "id": 15628,
    "latitude": "42.952731",
    "longitude": "-72.318766",
    "mascot": null,
    "name": "Cedarcrest School",
    "primary_color": "Hunter Green",
    "secondary_color": "White",
    "state": "NH",
    "timezone": "America/New_York",
    "updated_at": "2012-07-08T00:28:53Z",
    "zip": "03431"
  },
  {
    "address": "108 Main St",
    "city": "Gorham",
    "county": "Coos County",
    "created_at": "2012-01-04T20:16:00Z",
    "id": 15629,
    "latitude": "44.389038",
    "longitude": "-71.176821",
    "mascot": null,
    "name": "Community Baptist School",
    "primary_color": null,
    "secondary_color": null,
    "state": "NH",
    "timezone": "America/New_York",
    "updated_at": "2012-07-08T00:28:54Z",
    "zip": "03581"
  },
  {
    "address": "PO Box 297",
    "city": "Gorham",
    "county": "Coos County",
    "created_at": "2012-01-04T20:16:00Z",
    "id": 15630,
    "latitude": "44.390437",
    "longitude": "-71.181865",
    "mascot": null,
    "name": "Berlin Gorham Christian Academy",
    "primary_color": null,
    "secondary_color": null,
    "state": "NH",
    "timezone": "America/New_York",
    "updated_at": "2012-07-08T00:28:54Z",
    "zip": "03581"
  },
  {
    "address": "8 Bridge St",
    "city": "Colebrook",
    "county": "Coos County",
    "created_at": "2012-01-04T20:16:00Z",
    "id": 15631,
    "latitude": "44.894991",
    "longitude": "-71.497601",
    "mascot": null,
    "name": "Community Baptist Christian School",
    "primary_color": null,
    "secondary_color": null,
    "state": "NH",
    "timezone": "America/New_York",
    "updated_at": "2012-07-08T00:28:54Z",
    "zip": "03576"
  },
  {
    "address": "555 Rt 3",
    "city": "Twin Mountain",
    "county": "Coos County",
    "created_at": "2012-01-04T20:16:00Z",
    "id": 15632,
    "latitude": "44.281957",
    "longitude": "-71.547332",
    "mascot": null,
    "name": "Twin Mountain Christian Academy",
    "primary_color": null,
    "secondary_color": null,
    "state": "NH",
    "timezone": "America/New_York",
    "updated_at": "2012-07-08T00:28:55Z",
    "zip": "03595"
  },
  {
    "address": "RR 2 Box 58",
    "city": "Canaan",
    "county": "Grafton County",
    "created_at": "2012-01-04T20:16:00Z",
    "id": 15633,
    "latitude": "43.642764",
    "longitude": "-72.008263",
    "mascot": "Cougars",
    "name": "Cardigan Mountain School",
    "primary_color": "Hunter Green",
    "secondary_color": "White",
    "state": "NH",
    "timezone": "America/New_York",
    "updated_at": "2012-07-08T00:28:55Z",
    "zip": "03741"
  },
  {
    "address": "371 W Farm Rd",
    "city": "Bethleham",
    "county": "Grafton County",
    "created_at": "2012-01-04T20:16:00Z",
    "id": 15634,
    "latitude": "44.278618",
    "longitude": "-71.751681",
    "mascot": null,
    "name": "The White Mountain School",
    "primary_color": "Columbia Blue",
    "secondary_color": "White",
    "state": "NH",
    "timezone": "America/New_York",
    "updated_at": "2012-07-08T00:28:55Z",
    "zip": "03574"
  },
  {
    "address": "115 Yeaton Rd",
    "city": "Plymouth",
    "county": "Grafton County",
    "created_at": "2012-01-04T20:16:00Z",
    "id": 15635,
    "latitude": "43.764180",
    "longitude": "-71.751876",
    "mascot": "Eagles",
    "name": "Calvary Christian School",
    "primary_color": "Navy",
    "secondary_color": "White",
    "state": "NH",
    "timezone": "America/New_York",
    "updated_at": "2012-07-08T00:28:56Z",
    "zip": "03264"
  },
  {
    "address": "407 N Main",
    "city": "West Lebanon",
    "county": "Grafton County",
    "created_at": "2012-01-04T20:16:00Z",
    "id": 15636,
    "latitude": "43.685971",
    "longitude": "-72.293350",
    "mascot": null,
    "name": "Dartmouth Area Christian School",
    "primary_color": null,
    "secondary_color": null,
    "state": "NH",
    "timezone": "America/New_York",
    "updated_at": "2012-07-08T00:28:56Z",
    "zip": "03784"
  },
  {
    "address": "1977 Mt Moosilauke Hwy",
    "city": "Pike",
    "county": "Grafton County",
    "created_at": "2012-01-04T20:16:00Z",
    "id": 15637,
    "latitude": "44.029176",
    "longitude": "-71.992904",
    "mascot": null,
    "name": "Pike School",
    "primary_color": "Hunter Green",
    "secondary_color": "White",
    "state": "NH",
    "timezone": "America/New_York",
    "updated_at": "2012-07-08T00:28:56Z",
    "zip": "03780"
  },
  {
    "address": "1 Mammoth Rd.",
    "city": "Manchester",
    "county": "Hillsborough County",
    "created_at": "2012-01-04T20:16:00Z",
    "id": 15638,
    "latitude": "42.974304",
    "longitude": "-71.427742",
    "mascot": "Jaguars",
    "name": "Robert B Jolicoeor School",
    "primary_color": "Royal",
    "secondary_color": "White",
    "state": "NH",
    "timezone": "America/New_York",
    "updated_at": "2012-07-08T00:28:56Z",
    "zip": "03109"
  },
  {
    "address": "360 Middle Hancock Rd",
    "city": "Peterborough",
    "county": "Hillsborough County",
    "created_at": "2012-01-04T20:16:00Z",
    "id": 15639,
    "latitude": "42.922334",
    "longitude": "-71.964595",
    "mascot": null,
    "name": "Well School",
    "primary_color": "Navy",
    "secondary_color": "White",
    "state": "NH",
    "timezone": "America/New_York",
    "updated_at": "2012-07-08T00:28:56Z",
    "zip": "03458"
  },
  {
    "address": "2108  River Rd",
    "city": "Manchester",
    "county": "Hillsborough County",
    "created_at": "2012-01-04T20:16:00Z",
    "id": 15640,
    "latitude": "43.034471",
    "longitude": "-71.459871",
    "mascot": "Cougars",
    "name": "Derryfield School",
    "primary_color": "Maroon",
    "secondary_color": "White",
    "state": "NH",
    "timezone": "America/New_York",
    "updated_at": "2012-07-08T00:28:57Z",
    "zip": "03104"
  },
  {
    "address": "273 Elm St",
    "city": "Milford",
    "county": "Hillsborough County",
    "created_at": "2012-01-04T20:16:00Z",
    "id": 15641,
    "latitude": "42.839283",
    "longitude": "-71.670719",
    "mascot": null,
    "name": "Milford Christian Academy",
    "primary_color": "Gold",
    "secondary_color": "Maroon",
    "state": "NH",
    "timezone": "America/New_York",
    "updated_at": "2012-07-08T00:28:57Z",
    "zip": "03055"
  },
  {
    "address": "20 Main St",
    "city": "Exeter",
    "county": "Rockingham County",
    "created_at": "2012-01-04T20:16:00Z",
    "id": 15642,
    "latitude": "42.981465",
    "longitude": "-70.952339",
    "mascot": "Lions",
    "name": "Phillips Exeter Academy",
    "primary_color": "Red",
    "secondary_color": "White",
    "state": "NH",
    "timezone": "America/New_York",
    "updated_at": "2012-07-08T00:28:57Z",
    "zip": "03833"
  },
  {
    "address": "19 N Main St",
    "city": "Derry",
    "county": "Rockingham County",
    "created_at": "2012-01-04T20:16:01Z",
    "id": 15643,
    "latitude": "42.895513",
    "longitude": "-71.314416",
    "mascot": "Rocket Ships",
    "name": "Pinkerton Academy",
    "primary_color": "Red",
    "secondary_color": "White",
    "state": "NH",
    "timezone": "America/New_York",
    "updated_at": "2012-07-08T00:28:58Z",
    "zip": "03038"
  },
  {
    "address": "17 Heaton St",
    "city": "Rochester",
    "county": "Strafford County",
    "created_at": "2012-01-04T20:16:01Z",
    "id": 15644,
    "latitude": "43.305174",
    "longitude": "-70.969977",
    "mascot": "Lighthouses",
    "name": "Lighthouse Christian Academy",
    "primary_color": "Gold",
    "secondary_color": "Royal",
    "state": "NH",
    "timezone": "America/New_York",
    "updated_at": "2012-07-08T00:28:58Z",
    "zip": "03866"
  },
  {
    "address": "150 W High St",
    "city": "Somersworth",
    "county": "Strafford County",
    "created_at": "2012-01-04T20:16:01Z",
    "id": 15645,
    "latitude": "43.260929",
    "longitude": "-70.890680",
    "mascot": "Eagles",
    "name": "Tri City Christian Academy",
    "primary_color": "Royal",
    "secondary_color": "Yellow",
    "state": "NH",
    "timezone": "America/New_York",
    "updated_at": "2012-07-08T00:28:58Z",
    "zip": "03878"
  },
  {
    "address": "1 Main St",
    "city": "New Hampton",
    "county": "Belknap County",
    "created_at": "2012-01-04T20:16:01Z",
    "id": 15646,
    "latitude": "43.607165",
    "longitude": "-71.657797",
    "mascot": "Huskies",
    "name": "New Hampton School",
    "primary_color": "Kelly Green",
    "secondary_color": "White",
    "state": "NH",
    "timezone": "America/New_York",
    "updated_at": "2012-07-08T00:28:58Z",
    "zip": "03256"
  },
  {
    "address": "19 Ashram",
    "city": "Sanbornton",
    "county": "Belknap County",
    "created_at": "2012-01-04T20:16:01Z",
    "id": 15647,
    "latitude": "43.523755",
    "longitude": "-71.652782",
    "mascot": null,
    "name": "Sant Bani School",
    "primary_color": "Gray",
    "secondary_color": "Navy",
    "state": "NH",
    "timezone": "America/New_York",
    "updated_at": "2012-07-08T00:28:59Z",
    "zip": "03269"
  },
  {
    "address": "30 School St",
    "city": "Tilton",
    "county": "Belknap County",
    "created_at": "2012-01-04T20:16:01Z",
    "id": 15648,
    "latitude": "43.444297",
    "longitude": "-71.588744",
    "mascot": "Rams",
    "name": "Tilton School",
    "primary_color": "Gold",
    "secondary_color": "Black",
    "state": "NH",
    "timezone": "America/New_York",
    "updated_at": "2012-07-08T00:28:59Z",
    "zip": "03276"
  },
  {
    "address": "31 Lindsay Ct",
    "city": "Laconia",
    "county": "Belknap County",
    "created_at": "2012-01-04T20:16:01Z",
    "id": 15649,
    "latitude": "43.520388",
    "longitude": "-71.471813",
    "mascot": "Blue Knights",
    "name": "Lake Region Christian School",
    "primary_color": "Navy",
    "secondary_color": "White",
    "state": "NH",
    "timezone": "America/New_York",
    "updated_at": "2012-07-08T00:28:59Z",
    "zip": "03246"
  },
  {
    "address": "Plymouth St",
    "city": "Center Harbor",
    "county": "Belknap County",
    "created_at": "2012-01-04T20:16:01Z",
    "id": 15650,
    "latitude": "43.706770",
    "longitude": "-71.463489",
    "mascot": null,
    "name": "Immaculate Conception School",
    "primary_color": null,
    "secondary_color": null,
    "state": "NH",
    "timezone": "America/New_York",
    "updated_at": "2012-07-08T00:28:59Z",
    "zip": "03226"
  },
  {
    "address": "56 Thomas Rd",
    "city": "Rindge",
    "county": "Cheshire County",
    "created_at": "2012-01-04T20:16:01Z",
    "id": 15651,
    "latitude": "42.747789",
    "longitude": "-72.045801",
    "mascot": null,
    "name": "The Meeting School",
    "primary_color": null,
    "secondary_color": null,
    "state": "NH",
    "timezone": "America/New_York",
    "updated_at": "2012-07-08T00:29:00Z",
    "zip": "03461"
  },
  {
    "address": "136 Aldworth Manor Rd",
    "city": "Harrisville",
    "county": "Cheshire County",
    "created_at": "2012-01-04T20:16:01Z",
    "id": 15652,
    "latitude": "42.946883",
    "longitude": "-72.111427",
    "mascot": null,
    "name": "Grace Mountain Missionary Academy",
    "primary_color": "Fuchsia",
    "secondary_color": "White",
    "state": "NH",
    "timezone": "America/New_York",
    "updated_at": "2012-07-08T00:29:00Z",
    "zip": "03450"
  },
  {
    "address": "Church St",
    "city": "Canaan",
    "county": "Grafton County",
    "created_at": "2012-01-04T20:16:01Z",
    "id": 15653,
    "latitude": "43.646501",
    "longitude": "-72.013996",
    "mascot": null,
    "name": "Canaan Christian School",
    "primary_color": "Royal",
    "secondary_color": "White",
    "state": "NH",
    "timezone": "America/New_York",
    "updated_at": "2012-07-08T00:29:00Z",
    "zip": "03741"
  },
  {
    "address": "423 Abbot Hill Rd",
    "city": "Wilton",
    "county": "Hillsborough County",
    "created_at": "2012-01-04T20:16:01Z",
    "id": 15654,
    "latitude": "42.814960",
    "longitude": "-71.739793",
    "mascot": null,
    "name": "High Mowing Waldorf School",
    "primary_color": "Hunter Green",
    "secondary_color": "Gray",
    "state": "NH",
    "timezone": "America/New_York",
    "updated_at": "2012-07-08T00:29:00Z",
    "zip": "03086"
  },
  {
    "address": "205 Manchester St",
    "city": "Nashua",
    "county": "Hillsborough County",
    "created_at": "2012-01-04T20:16:01Z",
    "id": 15655,
    "latitude": "42.782597",
    "longitude": "-71.478395",
    "mascot": null,
    "name": "Christian Bible Church Academy",
    "primary_color": "Maroon",
    "secondary_color": "White",
    "state": "NH",
    "timezone": "America/New_York",
    "updated_at": "2012-07-08T00:29:01Z",
    "zip": "03064"
  },
  {
    "address": "204 Main St",
    "city": "Andover",
    "county": "Merrimack County",
    "created_at": "2012-01-04T20:16:01Z",
    "id": 15656,
    "latitude": "43.436706",
    "longitude": "-71.823268",
    "mascot": "Proctor Pride",
    "name": "Proctor Academy",
    "primary_color": "Hunter Green",
    "secondary_color": "White",
    "state": "NH",
    "timezone": "America/New_York",
    "updated_at": "2012-07-08T00:29:01Z",
    "zip": "03216"
  },
  {
    "address": "325 Pleasant St",
    "city": "Concord",
    "county": "Merrimack County",
    "created_at": "2012-01-04T20:16:01Z",
    "id": 15657,
    "latitude": "43.197813",
    "longitude": "-71.568140",
    "mascot": "Pelicans",
    "name": "Saint Paul's School",
    "primary_color": "Red",
    "secondary_color": "White",
    "state": "NH",
    "timezone": "America/New_York",
    "updated_at": "2012-07-08T00:29:01Z",
    "zip": "03301"
  },
  {
    "address": "450 N State St",
    "city": "Concord",
    "county": "Merrimack County",
    "created_at": "2012-01-04T20:16:01Z",
    "id": 15658,
    "latitude": "43.242002",
    "longitude": "-71.569178",
    "mascot": null,
    "name": "Second Start",
    "primary_color": "Royal",
    "secondary_color": "White",
    "state": "NH",
    "timezone": "America/New_York",
    "updated_at": "2012-07-08T00:29:01Z",
    "zip": "03301"
  },
  {
    "address": "389 Pembroke St",
    "city": "Pembroke",
    "county": "Merrimack County",
    "created_at": "2012-01-04T20:16:01Z",
    "id": 15659,
    "latitude": "43.157591",
    "longitude": "-71.467914",
    "mascot": "Mustangs",
    "name": "Montessori Learning Center Green Valley",
    "primary_color": "Royal",
    "secondary_color": "White",
    "state": "NH",
    "timezone": "America/New_York",
    "updated_at": "2012-07-08T00:29:02Z",
    "zip": "03275"
  },
  {
    "address": "80 Clinton St",
    "city": "Concord",
    "county": "Merrimack County",
    "created_at": "2012-01-04T20:16:01Z",
    "id": 15660,
    "latitude": "43.190783",
    "longitude": "-71.548853",
    "mascot": null,
    "name": "Trinity Christian School",
    "primary_color": "Gray",
    "secondary_color": "Royal",
    "state": "NH",
    "timezone": "America/New_York",
    "updated_at": "2012-07-08T00:29:02Z",
    "zip": "03301"
  },
  {
    "address": "907 1st New Hampshire Tnpk",
    "city": "Northwood",
    "county": "Rockingham County",
    "created_at": "2012-01-04T20:16:01Z",
    "id": 15661,
    "latitude": "43.218346",
    "longitude": "-71.210951",
    "mascot": "Comanches",
    "name": "Coe Brown Northwood Academy",
    "primary_color": "Red",
    "secondary_color": "White",
    "state": "NH",
    "timezone": "America/New_York",
    "updated_at": "2012-07-08T00:29:02Z",
    "zip": "03261"
  },
  {
    "address": "302 Mammoth Rd",
    "city": "Londonderry",
    "county": "Rockingham County",
    "created_at": "2012-01-04T20:16:01Z",
    "id": 15662,
    "latitude": "42.873097",
    "longitude": "-71.378212",
    "mascot": null,
    "name": "Zion Christian Fellowship",
    "primary_color": null,
    "secondary_color": null,
    "state": "NH",
    "timezone": "America/New_York",
    "updated_at": "2012-07-08T00:29:03Z",
    "zip": "03053"
  },
  {
    "address": "1247 Washington Rd",
    "city": "Rye",
    "county": "Rockingham County",
    "created_at": "2012-01-04T20:16:01Z",
    "id": 15663,
    "latitude": "43.004731",
    "longitude": "-70.805662",
    "mascot": null,
    "name": "Learning Skills Academy",
    "primary_color": null,
    "secondary_color": null,
    "state": "NH",
    "timezone": "America/New_York",
    "updated_at": "2012-07-08T00:29:03Z",
    "zip": "03870"
  },
  {
    "address": "57 Main St",
    "city": "Meriden",
    "county": "Sullivan County",
    "created_at": "2012-01-04T20:16:01Z",
    "id": 15664,
    "latitude": "43.545791",
    "longitude": "-72.256847",
    "mascot": "Wildcats",
    "name": "Kimball Union Academy",
    "primary_color": "Orange",
    "secondary_color": "Black",
    "state": "NH",
    "timezone": "America/New_York",
    "updated_at": "2012-07-08T00:29:03Z",
    "zip": "03770"
  },
  {
    "address": "97 Maple Ave",
    "city": "Claremont",
    "county": "Sullivan County",
    "created_at": "2012-01-04T20:16:01Z",
    "id": 15665,
    "latitude": "43.364310",
    "longitude": "-72.356219",
    "mascot": "Cougars",
    "name": "Claremont Christian Academy",
    "primary_color": "Red",
    "secondary_color": "White",
    "state": "NH",
    "timezone": "America/New_York",
    "updated_at": "2012-07-08T00:29:03Z",
    "zip": "03743"
  },
  {
    "address": "345 Union Ave",
    "city": "Laconia",
    "county": "Belknap County",
    "created_at": "2012-01-04T20:16:01Z",
    "id": 15666,
    "latitude": "43.534546",
    "longitude": "-71.463191",
    "mascot": "Sachems",
    "name": "Laconia High School",
    "primary_color": "Red",
    "secondary_color": "White",
    "state": "NH",
    "timezone": "America/New_York",
    "updated_at": "2012-07-08T00:29:04Z",
    "zip": "03246"
  },
  {
    "address": "255 Seavey Rd",
    "city": "Belmont",
    "county": "Belknap County",
    "created_at": "2012-01-04T20:16:01Z",
    "id": 15667,
    "latitude": "43.452241",
    "longitude": "-71.480591",
    "mascot": "Raiders",
    "name": "Belmont High School",
    "primary_color": "Red",
    "secondary_color": "White",
    "state": "NH",
    "timezone": "America/New_York",
    "updated_at": "2012-07-08T00:29:04Z",
    "zip": "03220"
  },
  {
    "address": "88 Alvah Wilson Rd",
    "city": "Laconia",
    "county": "Belknap County",
    "created_at": "2012-01-04T20:16:01Z",
    "id": 15668,
    "latitude": "43.528070",
    "longitude": "-71.468944",
    "mascot": "Eagles",
    "name": "Gilford High School",
    "primary_color": "Gold",
    "secondary_color": "Royal",
    "state": "NH",
    "timezone": "America/New_York",
    "updated_at": "2012-07-08T00:29:04Z",
    "zip": "03246"
  },
  {
    "address": "1 Laker Ln",
    "city": "Meredith",
    "county": "Belknap County",
    "created_at": "2012-01-04T20:16:01Z",
    "id": 15669,
    "latitude": "43.665648",
    "longitude": "-71.490356",
    "mascot": null,
    "name": "Inter-Lakes High School",
    "primary_color": "Royal",
    "secondary_color": "White",
    "state": "NH",
    "timezone": "America/New_York",
    "updated_at": "2012-07-08T00:29:04Z",
    "zip": "03253"
  },
  {
    "address": "41 School St",
    "city": "Alton",
    "county": "Belknap County",
    "created_at": "2012-01-04T20:16:01Z",
    "id": 15670,
    "latitude": "43.453770",
    "longitude": "-71.222266",
    "mascot": "Apaches",
    "name": "Alton Central School",
    "primary_color": "Royal",
    "secondary_color": "White",
    "state": "NH",
    "timezone": "America/New_York",
    "updated_at": "2012-07-08T00:29:05Z",
    "zip": "03809"
  },
  {
    "address": "396 S Main St",
    "city": "Wolfeboro",
    "county": "Carroll County",
    "created_at": "2012-01-04T20:16:01Z",
    "id": 15671,
    "latitude": "43.575145",
    "longitude": "-71.190618",
    "mascot": "Knights",
    "name": "Kingswood Regional Senior High School",
    "primary_color": "Kelly Green",
    "secondary_color": "White",
    "state": "NH",
    "timezone": "America/New_York",
    "updated_at": "2012-07-08T00:29:05Z",
    "zip": "03894"
  },
  {
    "address": "25 Blake Rd",
    "city": "Moultonborough",
    "county": "Carroll County",
    "created_at": "2012-01-04T20:16:01Z",
    "id": 15672,
    "latitude": "43.748988",
    "longitude": "-71.398253",
    "mascot": "Panthers",
    "name": "Moultonborough Academy",
    "primary_color": "Red",
    "secondary_color": "Black",
    "state": "NH",
    "timezone": "America/New_York",
    "updated_at": "2012-07-08T00:29:05Z",
    "zip": "03254"
  },
  {
    "address": "49 School St",
    "city": "Hinsdale",
    "county": "Cheshire County",
    "created_at": "2012-01-04T20:16:01Z",
    "id": 15673,
    "latitude": "42.783076",
    "longitude": "-72.499759",
    "mascot": "Pacers",
    "name": "Hinsdale High School",
    "primary_color": "Navy",
    "secondary_color": "White",
    "state": "NH",
    "timezone": "America/New_York",
    "updated_at": "2012-07-08T00:29:05Z",
    "zip": "03451"
  },
  {
    "address": "3 Conant Way",
    "city": "Jaffrey",
    "county": "Cheshire County",
    "created_at": "2012-01-04T20:16:01Z",
    "id": 15674,
    "latitude": "42.811434",
    "longitude": "-72.018441",
    "mascot": "Orioles",
    "name": "Conant High School",
    "primary_color": "Orange",
    "secondary_color": "Black",
    "state": "NH",
    "timezone": "America/New_York",
    "updated_at": "2012-07-08T00:29:06Z",
    "zip": "03452"
  },
  {
    "address": "85 Parker St",
    "city": "Winchester",
    "county": "Cheshire County",
    "created_at": "2012-01-04T20:16:01Z",
    "id": 15675,
    "latitude": "42.769033",
    "longitude": "-72.378194",
    "mascot": "Tigers",
    "name": "Thayer Middle & High School",
    "primary_color": "Orange",
    "secondary_color": "Black",
    "state": "NH",
    "timezone": "America/New_York",
    "updated_at": "2012-07-08T00:29:06Z",
    "zip": "03470"
  },
  {
    "address": "134 FMRHS Rd",
    "city": "Langdon",
    "county": "Cheshire County",
    "created_at": "2012-01-04T20:16:01Z",
    "id": 15676,
    "latitude": "43.150748",
    "longitude": "-72.364580",
    "mascot": "Wildcats",
    "name": "Fall Mountain Regional High School",
    "primary_color": "Maroon",
    "secondary_color": "White",
    "state": "NH",
    "timezone": "America/New_York",
    "updated_at": "2012-07-08T00:29:06Z",
    "zip": "03602"
  },
  {
    "address": "1 Academy St",
    "city": "Colebrook",
    "county": "Coos County",
    "created_at": "2012-01-04T20:16:01Z",
    "id": 15677,
    "latitude": "44.894214",
    "longitude": "-71.495107",
    "mascot": "Mohawks",
    "name": "Colebrook Academy",
    "primary_color": "Hunter Green",
    "secondary_color": "White",
    "state": "NH",
    "timezone": "America/New_York",
    "updated_at": "2012-07-08T00:29:06Z",
    "zip": "03576"
  },
  {
    "address": "120 Main St",
    "city": "Gorham",
    "county": "Coos County",
    "created_at": "2012-01-04T20:16:01Z",
    "id": 15678,
    "latitude": "44.389425",
    "longitude": "-71.178341",
    "mascot": "Huskies",
    "name": "Gorham Middle High School",
    "primary_color": "Royal",
    "secondary_color": "White",
    "state": "NH",
    "timezone": "America/New_York",
    "updated_at": "2012-07-08T00:29:07Z",
    "zip": "03581"
  },
  {
    "address": "65 State St",
    "city": "Groveton",
    "county": "Coos County",
    "created_at": "2012-01-04T20:16:01Z",
    "id": 15679,
    "latitude": "44.599906",
    "longitude": "-71.516337",
    "mascot": "Eagles",
    "name": "Groveton High School",
    "primary_color": "Gray",
    "secondary_color": "Purple",
    "state": "NH",
    "timezone": "America/New_York",
    "updated_at": "2012-07-08T00:29:07Z",
    "zip": "03582"
  },
  {
    "address": "12 School St",
    "city": "Pittsburg",
    "county": "Coos County",
    "created_at": "2012-01-04T20:16:01Z",
    "id": 15680,
    "latitude": "45.051710",
    "longitude": "-71.392910",
    "mascot": "Panthers",
    "name": "Pittsburg School",
    "primary_color": "Maroon",
    "secondary_color": "White",
    "state": "NH",
    "timezone": "America/New_York",
    "updated_at": "2012-07-08T00:29:07Z",
    "zip": "03592"
  },
  {
    "address": "9 High St",
    "city": "Woodsville",
    "county": "Grafton County",
    "created_at": "2012-01-04T20:16:01Z",
    "id": 15681,
    "latitude": "44.145378",
    "longitude": "-72.035010",
    "mascot": "Engineers",
    "name": "Woodsville High School",
    "primary_color": "Hunter Green",
    "secondary_color": "White",
    "state": "NH",
    "timezone": "America/New_York",
    "updated_at": "2012-07-08T00:29:07Z",
    "zip": "03785"
  },
  {
    "address": "195 Hanover St",
    "city": "Lebanon",
    "county": "Grafton County",
    "created_at": "2012-01-04T20:16:01Z",
    "id": 15682,
    "latitude": "43.652666",
    "longitude": "-72.252241",
    "mascot": "Vikings",
    "name": "Lebanon High School",
    "primary_color": "Maroon",
    "secondary_color": "White",
    "state": "NH",
    "timezone": "America/New_York",
    "updated_at": "2012-07-08T00:29:08Z",
    "zip": "03766"
  },
  {
    "address": "75 Learning Dr",
    "city": "Grantham",
    "county": "Sullivan County",
    "created_at": "2012-01-04T20:16:01Z",
    "id": 15683,
    "latitude": "43.491814",
    "longitude": "-72.132977",
    "mascot": "Blue Jays",
    "name": "Grantham Village School",
    "primary_color": "Royal",
    "secondary_color": "White",
    "state": "NH",
    "timezone": "America/New_York",
    "updated_at": "2012-07-08T00:29:08Z",
    "zip": "03753"
  },
  {
    "address": "25 Highland Ave",
    "city": "Lisbon",
    "county": "Grafton County",
    "created_at": "2012-01-04T20:16:01Z",
    "id": 15684,
    "latitude": "44.214317",
    "longitude": "-71.916948",
    "mascot": "Panthers",
    "name": "Lisbon Regional School",
    "primary_color": "Orange",
    "secondary_color": "Black",
    "state": "NH",
    "timezone": "America/New_York",
    "updated_at": "2012-07-08T00:29:08Z",
    "zip": "03585"
  },
  {
    "address": "105 School St",
    "city": "Littleton",
    "county": "Grafton County",
    "created_at": "2012-01-04T20:16:01Z",
    "id": 15685,
    "latitude": "44.309876",
    "longitude": "-71.772631",
    "mascot": "Crusaders",
    "name": "Littleton Senior High School",
    "primary_color": "Maroon",
    "secondary_color": "White",
    "state": "NH",
    "timezone": "America/New_York",
    "updated_at": "2012-07-08T00:29:08Z",
    "zip": "03561"
  },
  {
    "address": "2972 Route 25A",
    "city": "Orford",
    "county": "Grafton County",
    "created_at": "2012-01-04T20:16:01Z",
    "id": 15686,
    "latitude": "43.898829",
    "longitude": "-72.138524",
    "mascot": "Raptors",
    "name": "Rivendell Academy",
    "primary_color": "Royal",
    "secondary_color": "Hunter Green",
    "state": "NH",
    "timezone": "America/New_York",
    "updated_at": "2012-07-08T00:29:09Z",
    "zip": "03777"
  },
  {
    "address": "41 Lebanon St",
    "city": "Hanover",
    "county": "Grafton County",
    "created_at": "2012-01-04T20:16:01Z",
    "id": 15687,
    "latitude": "43.701039",
    "longitude": "-72.286012",
    "mascot": "Maurauders",
    "name": "Hanover High School",
    "primary_color": "Maroon",
    "secondary_color": "White",
    "state": "NH",
    "timezone": "America/New_York",
    "updated_at": "2012-07-08T00:29:09Z",
    "zip": "03755"
  },
  {
    "address": "72 Lin Wood Dr",
    "city": "Lincoln",
    "county": "Grafton County",
    "created_at": "2012-01-04T20:16:01Z",
    "id": 15688,
    "latitude": "44.060670",
    "longitude": "-71.616077",
    "mascot": "Lumberjacks",
    "name": "Lin Wood Public School",
    "primary_color": "Red",
    "secondary_color": "White",
    "state": "NH",
    "timezone": "America/New_York",
    "updated_at": "2012-07-08T00:29:09Z",
    "zip": "03251"
  },
  {
    "address": "150 Newfound Rd",
    "city": "Bristol",
    "county": "Grafton County",
    "created_at": "2012-01-04T20:16:01Z",
    "id": 15689,
    "latitude": "43.606588",
    "longitude": "-71.678363",
    "mascot": "Bears",
    "name": "Newfound Regional High School",
    "primary_color": "Hunter Green",
    "secondary_color": "White",
    "state": "NH",
    "timezone": "America/New_York",
    "updated_at": "2012-07-08T00:29:09Z",
    "zip": "03222"
  },
  {
    "address": "691 Profile Rd",
    "city": "Bethlehem",
    "county": "Grafton County",
    "created_at": "2012-01-04T20:16:01Z",
    "id": 15690,
    "latitude": "44.265101",
    "longitude": "-71.745552",
    "mascot": "Patriots",
    "name": "Profile Junior Senior High School",
    "primary_color": "Red",
    "secondary_color": "Royal",
    "state": "NH",
    "timezone": "America/New_York",
    "updated_at": "2012-07-08T00:29:10Z",
    "zip": "03574"
  },
  {
    "address": "207 Lowell St",
    "city": "Manchester",
    "county": "Hillsborough County",
    "created_at": "2012-01-04T20:16:01Z",
    "id": 15691,
    "latitude": "42.993545",
    "longitude": "-71.454105",
    "mascot": null,
    "name": "Manchester Central High School",
    "primary_color": "Hunter Green",
    "secondary_color": "White",
    "state": "NH",
    "timezone": "America/New_York",
    "updated_at": "2012-07-08T00:29:10Z",
    "zip": "03104"
  },
  {
    "address": "1 Crusader Way",
    "city": "Manchester",
    "county": "Hillsborough County",
    "created_at": "2012-01-04T20:16:01Z",
    "id": 15692,
    "latitude": "42.964768",
    "longitude": "-71.434460",
    "mascot": "Crusaders",
    "name": "Manchester Memorial High School",
    "primary_color": "Red",
    "secondary_color": "Navy",
    "state": "NH",
    "timezone": "America/New_York",
    "updated_at": "2012-07-08T00:29:10Z",
    "zip": "03103"
  },
  {
    "address": "9 Notre Dame Ave",
    "city": "Manchester",
    "county": "Hillsborough County",
    "created_at": "2012-01-04T20:16:01Z",
    "id": 15693,
    "latitude": "42.985746",
    "longitude": "-71.475227",
    "mascot": "Blue Knights",
    "name": "Manchester High School West",
    "primary_color": "Royal",
    "secondary_color": "White",
    "state": "NH",
    "timezone": "America/New_York",
    "updated_at": "2012-07-08T00:29:10Z",
    "zip": "03102"
  },
  {
    "address": "530 S Porter St",
    "city": "Manchester",
    "county": "Hillsborough County",
    "created_at": "2012-01-04T20:16:01Z",
    "id": 15694,
    "latitude": "42.963794",
    "longitude": "-71.433599",
    "mascot": null,
    "name": "Manchester School Of Technology",
    "primary_color": "Royal",
    "secondary_color": "Gold",
    "state": "NH",
    "timezone": "America/New_York",
    "updated_at": "2012-07-08T00:29:11Z",
    "zip": "03103"
  },
  {
    "address": "12 Hillcat Dr",
    "city": "Hillsboro",
    "county": "Hillsborough County",
    "created_at": "2012-01-04T20:16:01Z",
    "id": 15695,
    "latitude": "43.117862",
    "longitude": "-71.903919",
    "mascot": "Hillcats",
    "name": "Hillsboro-Deering High School",
    "primary_color": "Red",
    "secondary_color": "White",
    "state": "NH",
    "timezone": "America/New_York",
    "updated_at": "2012-07-08T00:29:11Z",
    "zip": "03244"
  },
  {
    "address": "24 Cavalier Ct",
    "city": "Hollis",
    "county": "Hillsborough County",
    "created_at": "2012-01-04T20:16:01Z",
    "id": 15696,
    "latitude": "42.735475",
    "longitude": "-71.591797",
    "mascot": "Cavaliers",
    "name": "Hollis-Brookline High School",
    "primary_color": "Royal",
    "secondary_color": "White",
    "state": "NH",
    "timezone": "America/New_York",
    "updated_at": "2012-07-08T00:29:11Z",
    "zip": "03049"
  },
  {
    "address": "200 Derry Rd",
    "city": "Hudson",
    "county": "Hillsborough County",
    "created_at": "2012-01-04T20:16:01Z",
    "id": 15697,
    "latitude": "42.793741",
    "longitude": "-71.437319",
    "mascot": "Broncos",
    "name": "Alvirne High School",
    "primary_color": "Gold",
    "secondary_color": "Maroon",
    "state": "NH",
    "timezone": "America/New_York",
    "updated_at": "2012-07-08T00:29:11Z",
    "zip": "03051"
  },
  {
    "address": "38 McElwain St",
    "city": "Merrimack",
    "county": "Hillsborough County",
    "created_at": "2012-01-04T20:16:01Z",
    "id": 15698,
    "latitude": "42.862363",
    "longitude": "-71.498166",
    "mascot": "Tomahawks",
    "name": "Merrimack High School",
    "primary_color": "Royal",
    "secondary_color": "White",
    "state": "NH",
    "timezone": "America/New_York",
    "updated_at": "2012-07-08T00:29:12Z",
    "zip": "03054"
  },
  {
    "address": "85 Marsh Rd",
    "city": "Pelham",
    "county": "Hillsborough County",
    "created_at": "2012-01-04T20:16:01Z",
    "id": 15699,
    "latitude": "42.723329",
    "longitude": "-71.332847",
    "mascot": "Pythons",
    "name": "Pelham High School",
    "primary_color": "Royal",
    "secondary_color": "Gray",
    "state": "NH",
    "timezone": "America/New_York",
    "updated_at": "2012-07-08T00:29:12Z",
    "zip": "03076"
  },
  {
    "address": "27 Cleveland St",
    "city": "Nashua",
    "county": "Hillsborough County",
    "created_at": "2012-01-04T20:16:01Z",
    "id": 15700,
    "latitude": "42.744469",
    "longitude": "-71.472409",
    "mascot": "Falcons",
    "name": "Fairgrounds Junior High School",
    "primary_color": "Kelly Green",
    "secondary_color": "White",
    "state": "NH",
    "timezone": "America/New_York",
    "updated_at": "2012-07-08T00:29:12Z",
    "zip": "03060"
  },
  {
    "address": "207 Manchester St",
    "city": "Nashua",
    "county": "Hillsborough County",
    "created_at": "2012-01-04T20:16:01Z",
    "id": 15701,
    "latitude": "42.783098",
    "longitude": "-71.478656",
    "mascot": "Raiders",
    "name": "Pennichuck Junior High School",
    "primary_color": "Royal",
    "secondary_color": "White",
    "state": "NH",
    "timezone": "America/New_York",
    "updated_at": "2012-07-08T00:29:12Z",
    "zip": "03060"
  },
  {
    "address": "36 Riverside Dr",
    "city": "Nashua",
    "county": "Hillsborough County",
    "created_at": "2012-01-04T20:16:01Z",
    "id": 15702,
    "latitude": "42.729493",
    "longitude": "-71.532531",
    "mascot": null,
    "name": "Nashua Senior High School",
    "primary_color": "Purple",
    "secondary_color": "White",
    "state": "NH",
    "timezone": "America/New_York",
    "updated_at": "2012-07-08T00:29:13Z",
    "zip": "03062"
  },
  {
    "address": "57 School Rd",
    "city": "Wilton",
    "county": "Hillsborough County",
    "created_at": "2012-01-04T20:16:01Z",
    "id": 15703,
    "latitude": "42.845929",
    "longitude": "-71.743924",
    "mascot": "Warriors",
    "name": "Wilton-Lyndeborough Junior Senior High",
    "primary_color": "Maroon",
    "secondary_color": "White",
    "state": "NH",
    "timezone": "America/New_York",
    "updated_at": "2012-07-08T00:29:13Z",
    "zip": "03086"
  },
  {
    "address": "618 N Stark Hwy",
    "city": "Weare",
    "county": "Hillsborough County",
    "created_at": "2012-01-04T20:16:01Z",
    "id": 15704,
    "latitude": "43.128150",
    "longitude": "-71.760901",
    "mascot": "Generals",
    "name": "John Stark Regional High School",
    "primary_color": "Red",
    "secondary_color": "Royal",
    "state": "NH",
    "timezone": "America/New_York",
    "updated_at": "2012-07-08T00:29:13Z",
    "zip": "03281"
  },
  {
    "address": "435 W Main St",
    "city": "Tilton",
    "county": "Belknap County",
    "created_at": "2012-01-04T20:16:01Z",
    "id": 15705,
    "latitude": "43.443162",
    "longitude": "-71.604803",
    "mascot": "Bears",
    "name": "Winnisquam Regional High School",
    "primary_color": "Royal",
    "secondary_color": "White",
    "state": "NH",
    "timezone": "America/New_York",
    "updated_at": "2012-07-08T00:29:13Z",
    "zip": "03276"
  },
  {
    "address": "170 Warren St",
    "city": "Concord",
    "county": "Merrimack County",
    "created_at": "2012-01-04T20:16:01Z",
    "id": 15706,
    "latitude": "43.199781",
    "longitude": "-71.550330",
    "mascot": "Crimson Tide",
    "name": "Concord High School",
    "primary_color": "Maroon",
    "secondary_color": "White",
    "state": "NH",
    "timezone": "America/New_York",
    "updated_at": "2012-07-08T00:29:13Z",
    "zip": "03301"
  },
  {
    "address": "297 Park Ave",
    "city": "Contoocook",
    "county": "Merrimack County",
    "created_at": "2012-01-04T20:16:01Z",
    "id": 15707,
    "latitude": "43.230376",
    "longitude": "-71.718061",
    "mascot": "Hawks",
    "name": "Hopkinton High School",
    "primary_color": "Hunter Green",
    "secondary_color": "White",
    "state": "NH",
    "timezone": "America/New_York",
    "updated_at": "2012-07-08T00:29:14Z",
    "zip": "03229"
  },
  {
    "address": "209 Academy Rd",
    "city": "Suncook",
    "county": "Merrimack County",
    "created_at": "2012-01-04T20:16:01Z",
    "id": 15708,
    "latitude": "43.146947",
    "longitude": "-71.454943",
    "mascot": "Spartans",
    "name": "Pembroke Academy",
    "primary_color": "Hunter Green",
    "secondary_color": "White",
    "state": "NH",
    "timezone": "America/New_York",
    "updated_at": "2012-07-08T00:29:14Z",
    "zip": "03275"
  },
  {
    "address": "267 Pembroke St",
    "city": "Suncook",
    "county": "Merrimack County",
    "created_at": "2012-01-04T20:16:01Z",
    "id": 15709,
    "latitude": "43.144757",
    "longitude": "-71.455747",
    "mascot": null,
    "name": "Alternative High School",
    "primary_color": null,
    "secondary_color": null,
    "state": "NH",
    "timezone": "America/New_York",
    "updated_at": "2012-07-08T00:29:14Z",
    "zip": "03275"
  },
  {
    "address": "457 North Road",
    "city": "North Sutton",
    "county": "Merrimack County",
    "created_at": "2012-01-04T20:16:01Z",
    "id": 15710,
    "latitude": "43.347961",
    "longitude": "-71.906358",
    "mascot": "Cougars",
    "name": "Kearsarge Regional High School",
    "primary_color": "Gold",
    "secondary_color": "Royal",
    "state": "NH",
    "timezone": "America/New_York",
    "updated_at": "2012-07-08T00:29:15Z",
    "zip": "03260"
  },
  {
    "address": "50 Alumni Cr",
    "city": "Portsmouth",
    "county": "Rockingham County",
    "created_at": "2012-01-04T20:16:01Z",
    "id": 15711,
    "latitude": "43.059762",
    "longitude": "-70.766005",
    "mascot": "Clippers",
    "name": "Portsmouth High School",
    "primary_color": "Gold",
    "secondary_color": "Maroon",
    "state": "NH",
    "timezone": "America/New_York",
    "updated_at": "2012-07-08T00:29:15Z",
    "zip": "03801"
  },
  {
    "address": "21 Prospect",
    "city": "Epping",
    "county": "Rockingham County",
    "created_at": "2012-01-04T20:16:01Z",
    "id": 15712,
    "latitude": "43.043938",
    "longitude": "-71.073638",
    "mascot": "Blue Devils",
    "name": "Epping Middle High School",
    "primary_color": "Royal",
    "secondary_color": "White",
    "state": "NH",
    "timezone": "America/New_York",
    "updated_at": "2012-07-08T00:29:15Z",
    "zip": "03042"
  },
  {
    "address": "30 Linden St",
    "city": "Exeter",
    "county": "Rockingham County",
    "created_at": "2012-01-04T20:16:01Z",
    "id": 15713,
    "latitude": "42.975928",
    "longitude": "-70.956570",
    "mascot": "Blue Hawks",
    "name": "Exeter High School",
    "primary_color": "Navy",
    "secondary_color": "Gray",
    "state": "NH",
    "timezone": "America/New_York",
    "updated_at": "2012-07-08T00:29:15Z",
    "zip": "03833"
  },
  {
    "address": "44 Geremonty Drive",
    "city": "Salem",
    "county": "Rockingham County",
    "created_at": "2012-01-04T20:16:01Z",
    "id": 15714,
    "latitude": "42.780599",
    "longitude": "-71.210031",
    "mascot": "Blue Devils",
    "name": "Salem High School",
    "primary_color": "Royal",
    "secondary_color": "White",
    "state": "NH",
    "timezone": "America/New_York",
    "updated_at": "2012-07-08T00:29:16Z",
    "zip": "03079"
  },
  {
    "address": "1 Alumni Dr",
    "city": "Hampton",
    "county": "Rockingham County",
    "created_at": "2012-01-04T20:16:01Z",
    "id": 15715,
    "latitude": "42.932697",
    "longitude": "-70.834782",
    "mascot": "Warriors",
    "name": "Winnacunnet High School",
    "primary_color": "Royal",
    "secondary_color": "White",
    "state": "NH",
    "timezone": "America/New_York",
    "updated_at": "2012-07-08T00:29:16Z",
    "zip": "03842"
  },
  {
    "address": "17 Danville Road",
    "city": "Kingston",
    "county": "Rockingham County",
    "created_at": "2012-01-04T20:16:01Z",
    "id": 15716,
    "latitude": "42.911995",
    "longitude": "-71.070456",
    "mascot": "Indians",
    "name": "Sanborn Regional High School",
    "primary_color": "Gray",
    "secondary_color": "Royal",
    "state": "NH",
    "timezone": "America/New_York",
    "updated_at": "2012-07-08T00:29:16Z",
    "zip": "03848"
  },
  {
    "address": "36 Greenough Rd",
    "city": "Plaistow",
    "county": "Rockingham County",
    "created_at": "2012-01-04T20:16:01Z",
    "id": 15717,
    "latitude": "42.844409",
    "longitude": "-71.115456",
    "mascot": "Owls",
    "name": "Timberlane Regional High School",
    "primary_color": "Maroon",
    "secondary_color": "White",
    "state": "NH",
    "timezone": "America/New_York",
    "updated_at": "2012-07-08T00:29:16Z",
    "zip": "03865"
  },
  {
    "address": "45 Harriman Hill Rd",
    "city": "Raymond",
    "county": "Rockingham County",
    "created_at": "2012-01-04T20:16:01Z",
    "id": 15718,
    "latitude": "43.048559",
    "longitude": "-71.179817",
    "mascot": "Rams",
    "name": "Raymond High School",
    "primary_color": "Kelly Green",
    "secondary_color": "White",
    "state": "NH",
    "timezone": "America/New_York",
    "updated_at": "2012-07-08T00:29:17Z",
    "zip": "03077"
  },
  {
    "address": "1 Thayer Dr",
    "city": "Farmington",
    "county": "Strafford County",
    "created_at": "2012-01-04T20:16:01Z",
    "id": 15719,
    "latitude": "43.392194",
    "longitude": "-71.075239",
    "mascot": "Tigers",
    "name": "Farmington High School",
    "primary_color": "Orange",
    "secondary_color": "Black",
    "state": "NH",
    "timezone": "America/New_York",
    "updated_at": "2012-07-08T00:29:17Z",
    "zip": "03835"
  },
  {
    "address": "22 Elm St",
    "city": "Milton",
    "county": "Strafford County",
    "created_at": "2012-01-04T20:16:01Z",
    "id": 15720,
    "latitude": "43.407363",
    "longitude": "-70.991973",
    "mascot": "Rams",
    "name": "Nute High School",
    "primary_color": "Gold",
    "secondary_color": "Purple",
    "state": "NH",
    "timezone": "America/New_York",
    "updated_at": "2012-07-08T00:29:17Z",
    "zip": "03851"
  },
  {
    "address": "55 Coe Dr",
    "city": "Durham",
    "county": "Strafford County",
    "created_at": "2012-01-04T20:16:01Z",
    "id": 15721,
    "latitude": "43.139735",
    "longitude": "-70.916186",
    "mascot": "Bobcats",
    "name": "Oyster River High School",
    "primary_color": "Royal",
    "secondary_color": "White",
    "state": "NH",
    "timezone": "America/New_York",
    "updated_at": "2012-07-08T00:29:17Z",
    "zip": "03824"
  },
  {
    "address": "25 Alumni Dr",
    "city": "Dover",
    "county": "Strafford County",
    "created_at": "2012-01-04T20:16:01Z",
    "id": 15722,
    "latitude": "43.176381",
    "longitude": "-70.887872",
    "mascot": "Green Wave",
    "name": "Dover High School",
    "primary_color": "Hunter Green",
    "secondary_color": "White",
    "state": "NH",
    "timezone": "America/New_York",
    "updated_at": "2012-07-08T00:29:18Z",
    "zip": "03820"
  },
  {
    "address": "22 Atkinson St",
    "city": "Dover",
    "county": "Strafford County",
    "created_at": "2012-01-04T20:16:01Z",
    "id": 15723,
    "latitude": "43.193324",
    "longitude": "-70.877656",
    "mascot": null,
    "name": "Dover Adult Learning Center",
    "primary_color": null,
    "secondary_color": null,
    "state": "NH",
    "timezone": "America/New_York",
    "updated_at": "2012-07-08T00:29:18Z",
    "zip": "03820"
  },
  {
    "address": "130 Wakefield St",
    "city": "Rochester",
    "county": "Strafford County",
    "created_at": "2012-01-04T20:16:01Z",
    "id": 15724,
    "latitude": "43.312565",
    "longitude": "-70.977516",
    "mascot": "Red Raiders",
    "name": "Spaulding High School",
    "primary_color": "Red",
    "secondary_color": "White",
    "state": "NH",
    "timezone": "America/New_York",
    "updated_at": "2012-07-08T00:29:18Z",
    "zip": "03867"
  },
  {
    "address": "150 Wakefield St",
    "city": "Rochester",
    "county": "Strafford County",
    "created_at": "2012-01-04T20:16:01Z",
    "id": 15725,
    "latitude": "43.314867",
    "longitude": "-70.977494",
    "mascot": null,
    "name": "Bud Carlson Alternative School",
    "primary_color": null,
    "secondary_color": null,
    "state": "NH",
    "timezone": "America/New_York",
    "updated_at": "2012-07-08T00:29:19Z",
    "zip": "03867"
  },
  {
    "address": "175 Broad St",
    "city": "Claremont",
    "county": "Sullivan County",
    "created_at": "2012-01-04T20:16:01Z",
    "id": 15726,
    "latitude": "43.369151",
    "longitude": "-72.336531",
    "mascot": "Cardinals",
    "name": "Stevens High School",
    "primary_color": "Red",
    "secondary_color": "Black",
    "state": "NH",
    "timezone": "America/New_York",
    "updated_at": "2012-07-08T00:29:19Z",
    "zip": "03743"
  },
  {
    "address": "10 North Rd",
    "city": "Sunapee",
    "county": "Sullivan County",
    "created_at": "2012-01-04T20:16:01Z",
    "id": 15727,
    "latitude": "43.387097",
    "longitude": "-72.097192",
    "mascot": "Geese",
    "name": "Sunapee Middle High School",
    "primary_color": "White",
    "secondary_color": "Hunter Green",
    "state": "NH",
    "timezone": "America/New_York",
    "updated_at": "2012-07-08T00:29:19Z",
    "zip": "03782"
  },
  {
    "address": "1234 N River Rd",
    "city": "Manchester",
    "county": "Hillsborough County",
    "created_at": "2012-01-04T20:16:01Z",
    "id": 15728,
    "latitude": "43.024005",
    "longitude": "-71.469870",
    "mascot": "Sailboats",
    "name": "Stark House School",
    "primary_color": "Royal",
    "secondary_color": "Columbia Blue",
    "state": "NH",
    "timezone": "America/New_York",
    "updated_at": "2012-07-08T00:29:19Z",
    "zip": "03104"
  },
  {
    "address": "1164 Bunker Hill Rd",
    "city": "South Tamworth",
    "county": "Carroll County",
    "created_at": "2012-01-04T20:16:01Z",
    "id": 15729,
    "latitude": "43.833327",
    "longitude": "-71.327473",
    "mascot": null,
    "name": "Sandwich Community School",
    "primary_color": "Purple",
    "secondary_color": "Hunter Green",
    "state": "NH",
    "timezone": "America/New_York",
    "updated_at": "2012-07-08T00:29:20Z",
    "zip": "03883"
  },
  {
    "address": "213 S Main St",
    "city": "Newmarket",
    "county": "Rockingham County",
    "created_at": "2012-01-04T20:16:01Z",
    "id": 15730,
    "latitude": "43.075123",
    "longitude": "-70.945199",
    "mascot": "Mules",
    "name": "Newmarket Junior Senior High School",
    "primary_color": "Red",
    "secondary_color": "Black",
    "state": "NH",
    "timezone": "America/New_York",
    "updated_at": "2012-07-08T00:29:20Z",
    "zip": "03857"
  },
  {
    "address": "10 Vine St",
    "city": "Claremont",
    "county": "Sullivan County",
    "created_at": "2012-01-04T20:16:01Z",
    "id": 15731,
    "latitude": "43.377456",
    "longitude": "-72.347488",
    "mascot": null,
    "name": "Greater Claremont Christian School",
    "primary_color": "Gray",
    "secondary_color": "Maroon",
    "state": "NH",
    "timezone": "America/New_York",
    "updated_at": "2012-07-08T00:29:20Z",
    "zip": "03743"
  },
  {
    "address": "412 Boston Post Rd",
    "city": "Amherst",
    "county": "Hillsborough County",
    "created_at": "2012-01-04T20:16:01Z",
    "id": 15732,
    "latitude": "42.823689",
    "longitude": "-71.582489",
    "mascot": "Sabers",
    "name": "Souhegan High School",
    "primary_color": "Gold",
    "secondary_color": "Black",
    "state": "NH",
    "timezone": "America/New_York",
    "updated_at": "2012-07-08T00:29:20Z",
    "zip": "03031"
  },
  {
    "address": "32 White Rock Hill Rd",
    "city": "Bow",
    "county": "Merrimack County",
    "created_at": "2012-01-04T20:16:01Z",
    "id": 15733,
    "latitude": "43.152214",
    "longitude": "-71.543295",
    "mascot": "Falcons",
    "name": "Bow High School",
    "primary_color": "Royal",
    "secondary_color": "Gold",
    "state": "NH",
    "timezone": "America/New_York",
    "updated_at": "2012-07-08T00:29:21Z",
    "zip": "03304"
  },
  {
    "address": "34 Franklin St",
    "city": "Nashua",
    "county": "Hillsborough County",
    "created_at": "2012-01-04T20:16:01Z",
    "id": 15734,
    "latitude": "42.763545",
    "longitude": "-71.469031",
    "mascot": "Eagles",
    "name": "Nashua Christian Academy",
    "primary_color": "Teal",
    "secondary_color": "Black",
    "state": "NH",
    "timezone": "America/New_York",
    "updated_at": "2012-07-08T00:29:21Z",
    "zip": "03060"
  },
  {
    "address": "PO Box 60 College Rd",
    "city": "Rindge",
    "county": "Cheshire County",
    "created_at": "2012-01-04T20:16:01Z",
    "id": 15735,
    "latitude": "42.755298",
    "longitude": "-72.005812",
    "mascot": "Ravens",
    "name": "Franklin Pierce College",
    "primary_color": "Red",
    "secondary_color": "Gray",
    "state": "NH",
    "timezone": "America/New_York",
    "updated_at": "2012-07-08T00:29:21Z",
    "zip": "03461"
  },
  {
    "address": "101 Highwatch Rd",
    "city": "Ossipee",
    "county": "Carroll County",
    "created_at": "2012-01-04T20:16:01Z",
    "id": 15736,
    "latitude": "43.753943",
    "longitude": "-71.176028",
    "mascot": null,
    "name": "Lakeview School",
    "primary_color": null,
    "secondary_color": null,
    "state": "NH",
    "timezone": "America/New_York",
    "updated_at": "2012-07-08T00:29:21Z",
    "zip": "03814"
  },
  {
    "address": "242 Derry Rd Rt 102",
    "city": "Litchfield",
    "county": "Hillsborough County",
    "created_at": "2012-01-04T20:16:01Z",
    "id": 15737,
    "latitude": "42.803768",
    "longitude": "-71.431244",
    "mascot": null,
    "name": "Tabernacle Christian School",
    "primary_color": null,
    "secondary_color": null,
    "state": "NH",
    "timezone": "America/New_York",
    "updated_at": "2012-07-08T00:29:22Z",
    "zip": "03052"
  }
]