[
  {
    "address": "20264 Blachly Grange Rd",
    "city": "Blachly",
    "county": "Lane County",
    "created_at": "2012-01-04T20:16:55Z",
    "id": 19824,
    "latitude": "44.195777",
    "longitude": "-123.545974",
    "mascot": "Lakers",
    "name": "Triangle Lake School",
    "primary_color": "Gold",
    "secondary_color": "Kelly Green",
    "state": "OR",
    "timezone": "America/Los_Angeles",
    "updated_at": "2012-07-08T00:54:00Z",
    "zip": "97412"
  },
  {
    "address": "675 SW Rimrock Dr",
    "city": "Redmond",
    "county": "Deschutes County",
    "created_at": "2012-01-04T20:16:55Z",
    "id": 19825,
    "latitude": "44.270753",
    "longitude": "-121.190395",
    "mascot": "Panthers",
    "name": "Redmond High School",
    "primary_color": "Gold",
    "secondary_color": "Maroon",
    "state": "OR",
    "timezone": "America/Los_Angeles",
    "updated_at": "2012-07-08T00:54:00Z",
    "zip": "97756"
  },
  {
    "address": "651 Murphy Creek Rd",
    "city": "Grants Pass",
    "county": "Josephine County",
    "created_at": "2012-01-04T20:16:55Z",
    "id": 19826,
    "latitude": "42.326513",
    "longitude": "-123.341803",
    "mascot": "Mustangs",
    "name": "Hidden Valley High School",
    "primary_color": "Orange",
    "secondary_color": "Columbia Blue",
    "state": "OR",
    "timezone": "America/Los_Angeles",
    "updated_at": "2012-07-08T00:54:00Z",
    "zip": "97527"
  },
  {
    "address": "649 Crater Lake Ave",
    "city": "Medford",
    "county": "Jackson County",
    "created_at": "2012-01-04T20:16:55Z",
    "id": 19827,
    "latitude": "42.335521",
    "longitude": "-122.861843",
    "mascot": "Vikings",
    "name": "Grace Christian School",
    "primary_color": "Purple",
    "secondary_color": "White",
    "state": "OR",
    "timezone": "America/Los_Angeles",
    "updated_at": "2012-07-08T00:54:01Z",
    "zip": "97504"
  },
  {
    "address": "200 Silver Ln",
    "city": "Eugene",
    "county": "Lane County",
    "created_at": "2012-01-04T20:16:55Z",
    "id": 19828,
    "latitude": "44.095583",
    "longitude": "-123.131970",
    "mascot": "Highlanders",
    "name": "North Eugene High School",
    "primary_color": "Red",
    "secondary_color": "White",
    "state": "OR",
    "timezone": "America/Los_Angeles",
    "updated_at": "2012-07-08T00:54:01Z",
    "zip": "97404"
  },
  {
    "address": "1653 NW Troost St",
    "city": "Roseburg",
    "county": "Douglas County",
    "created_at": "2012-01-04T20:16:55Z",
    "id": 19829,
    "latitude": "43.228764",
    "longitude": "-123.386813",
    "mascot": "Rockets",
    "name": "Roseburg Junior Academy",
    "primary_color": "Maroon",
    "secondary_color": "White",
    "state": "OR",
    "timezone": "America/Los_Angeles",
    "updated_at": "2012-07-08T00:54:01Z",
    "zip": "97470"
  },
  {
    "address": "26505 SE Kelso Rd",
    "city": "Boring",
    "county": "Clackamas County",
    "created_at": "2012-01-04T20:16:55Z",
    "id": 19830,
    "latitude": "45.418038",
    "longitude": "-122.390267",
    "mascot": null,
    "name": "Hood View Junior Academy",
    "primary_color": "Royal",
    "secondary_color": "White",
    "state": "OR",
    "timezone": "America/Los_Angeles",
    "updated_at": "2012-07-08T00:54:01Z",
    "zip": "97009"
  },
  {
    "address": "14251 SE Rust Way",
    "city": "Boring",
    "county": "Clackamas County",
    "created_at": "2012-01-04T20:16:55Z",
    "id": 19831,
    "latitude": "45.432506",
    "longitude": "-122.345373",
    "mascot": "Eagles",
    "name": "Damascus Christian School",
    "primary_color": "Gold",
    "secondary_color": "Maroon",
    "state": "OR",
    "timezone": "America/Los_Angeles",
    "updated_at": "2012-07-08T00:54:02Z",
    "zip": "97009"
  },
  {
    "address": "3285 SE Rood Bridge Rd",
    "city": "Hillsboro",
    "county": "Washington County",
    "created_at": "2012-01-04T20:16:55Z",
    "id": 19832,
    "latitude": "45.495231",
    "longitude": "-122.953226",
    "mascot": "Spartans",
    "name": "Hillsboro High School",
    "primary_color": "Royal",
    "secondary_color": "White",
    "state": "OR",
    "timezone": "America/Los_Angeles",
    "updated_at": "2012-07-08T00:54:02Z",
    "zip": "97123"
  },
  {
    "address": "501 Bassett St",
    "city": "Jordan Valley",
    "county": "Malheur County",
    "created_at": "2012-01-04T20:16:55Z",
    "id": 19833,
    "latitude": "42.977244",
    "longitude": "-117.053099",
    "mascot": "Mustangs",
    "name": "Jordan Valley School",
    "primary_color": "Red",
    "secondary_color": "Royal Blue",
    "state": "OR",
    "timezone": "America/Boise",
    "updated_at": "2012-07-08T00:54:02Z",
    "zip": "97910"
  },
  {
    "address": "600 S 1st St",
    "city": "Hermiston",
    "county": "Umatilla County",
    "created_at": "2012-01-04T20:16:55Z",
    "id": 19834,
    "latitude": "45.836891",
    "longitude": "-119.290323",
    "mascot": "Bulldogs",
    "name": "Hermiston High School",
    "primary_color": "Gold",
    "secondary_color": "Purple",
    "state": "OR",
    "timezone": "America/Los_Angeles",
    "updated_at": "2012-07-08T00:54:03Z",
    "zip": "97838"
  },
  {
    "address": "540 S Main",
    "city": "Union",
    "county": "Union County",
    "created_at": "2012-01-04T20:16:55Z",
    "id": 19835,
    "latitude": "45.206080",
    "longitude": "-117.865525",
    "mascot": "Bobcats",
    "name": "Union School District 5",
    "primary_color": "Red",
    "secondary_color": "White",
    "state": "OR",
    "timezone": "America/Los_Angeles",
    "updated_at": "2012-07-08T00:54:03Z",
    "zip": "97883"
  },
  {
    "address": "33700 SE High School Way",
    "city": "Scappoose",
    "county": "Columbia County",
    "created_at": "2012-01-04T20:16:55Z",
    "id": 19836,
    "latitude": "45.748857",
    "longitude": "-122.872625",
    "mascot": "Indians",
    "name": "Scappoose High School",
    "primary_color": "Orange",
    "secondary_color": "Black",
    "state": "OR",
    "timezone": "America/Los_Angeles",
    "updated_at": "2012-07-08T00:54:03Z",
    "zip": "97056"
  },
  {
    "address": "6th & Easter Ave",
    "city": "Imbler",
    "county": "Union County",
    "created_at": "2012-01-04T20:16:55Z",
    "id": 19837,
    "latitude": "45.458084",
    "longitude": "-117.962639",
    "mascot": "Panthers",
    "name": "Imbler Junior Senior High School",
    "primary_color": "Orange",
    "secondary_color": "Black",
    "state": "OR",
    "timezone": "America/Los_Angeles",
    "updated_at": "2012-07-08T00:54:04Z",
    "zip": "97841"
  },
  {
    "address": "6741 Monument Dr",
    "city": "Grants Pass",
    "county": "Josephine County",
    "created_at": "2012-01-04T20:16:55Z",
    "id": 19838,
    "latitude": "42.518135",
    "longitude": "-123.380101",
    "mascot": "Knights",
    "name": "North Valley High School",
    "primary_color": "Gold",
    "secondary_color": "Maroon",
    "state": "OR",
    "timezone": "America/Los_Angeles",
    "updated_at": "2012-07-08T00:54:04Z",
    "zip": "97526"
  },
  {
    "address": "830 NE 9th",
    "city": "Grants Pass",
    "county": "Josephine County",
    "created_at": "2012-01-04T20:16:55Z",
    "id": 19839,
    "latitude": "42.444015",
    "longitude": "-123.317530",
    "mascot": "Cavemen",
    "name": "Grants Pass High School",
    "primary_color": "Royal",
    "secondary_color": "White",
    "state": "OR",
    "timezone": "America/Los_Angeles",
    "updated_at": "2012-07-08T00:54:04Z",
    "zip": "97526"
  },
  {
    "address": "1700 S 5th St",
    "city": "Lebanon",
    "county": "Linn County",
    "created_at": "2012-01-04T20:16:55Z",
    "id": 19840,
    "latitude": "44.529963",
    "longitude": "-122.912685",
    "mascot": "Warriors",
    "name": "Lebanon High School",
    "primary_color": "Royal",
    "secondary_color": "Red",
    "state": "OR",
    "timezone": "America/Los_Angeles",
    "updated_at": "2012-07-08T00:54:04Z",
    "zip": "97355"
  },
  {
    "address": "1120 N Main St",
    "city": "Stanfield",
    "county": "Umatilla County",
    "created_at": "2012-01-04T20:16:55Z",
    "id": 19841,
    "latitude": "45.789180",
    "longitude": "-119.220937",
    "mascot": "Tigers",
    "name": "Stanfield Secondary School",
    "primary_color": "Gold",
    "secondary_color": "Royal",
    "state": "OR",
    "timezone": "America/Los_Angeles",
    "updated_at": "2012-07-08T00:54:05Z",
    "zip": "97875"
  },
  {
    "address": "2153 NE Vine St",
    "city": "Roseburg",
    "county": "Douglas County",
    "created_at": "2012-01-04T20:16:55Z",
    "id": 19842,
    "latitude": "43.236046",
    "longitude": "-123.347284",
    "mascot": "Pioneers",
    "name": "Joseph Lane Middle School",
    "primary_color": "Red",
    "secondary_color": "White",
    "state": "OR",
    "timezone": "America/Los_Angeles",
    "updated_at": "2012-07-08T00:54:05Z",
    "zip": "97470"
  },
  {
    "address": "850 W Keady Ct",
    "city": "Roseburg",
    "county": "Douglas County",
    "created_at": "2012-01-04T20:16:55Z",
    "id": 19843,
    "latitude": "43.212111",
    "longitude": "-123.370695",
    "mascot": "Generals",
    "name": "John C Fremont Middle School",
    "primary_color": "Royal",
    "secondary_color": "Gold",
    "state": "OR",
    "timezone": "America/Los_Angeles",
    "updated_at": "2012-07-08T00:54:05Z",
    "zip": "97470"
  },
  {
    "address": "201 Mountain View Dr",
    "city": "Gilchrist",
    "county": "Klamath County",
    "created_at": "2012-01-04T20:16:55Z",
    "id": 19844,
    "latitude": "43.414284",
    "longitude": "-121.592822",
    "mascot": "Grizzlies",
    "name": "Gilchrist Schools",
    "primary_color": "Hunter Green",
    "secondary_color": "White",
    "state": "OR",
    "timezone": "America/Los_Angeles",
    "updated_at": "2012-07-08T00:54:06Z",
    "zip": "97737"
  },
  {
    "address": "400 Wm E Williams St",
    "city": "Joseph",
    "county": "Wallowa County",
    "created_at": "2012-01-04T20:16:55Z",
    "id": 19845,
    "latitude": "45.352470",
    "longitude": "-117.225809",
    "mascot": "Eagles",
    "name": "Joseph Middle & High School",
    "primary_color": "Royal",
    "secondary_color": "Gold",
    "state": "OR",
    "timezone": "America/Los_Angeles",
    "updated_at": "2012-07-08T00:54:06Z",
    "zip": "97846"
  },
  {
    "address": "1800 NE Sturdevant Rd",
    "city": "Toledo",
    "county": "Lincoln County",
    "created_at": "2012-01-04T20:16:55Z",
    "id": 19846,
    "latitude": "44.632989",
    "longitude": "-123.923362",
    "mascot": "Boomers",
    "name": "Toledo High School",
    "primary_color": "Gold",
    "secondary_color": "Royal",
    "state": "OR",
    "timezone": "America/Los_Angeles",
    "updated_at": "2012-07-08T00:54:06Z",
    "zip": "97391"
  },
  {
    "address": "3601 W 10th St",
    "city": "The Dalles",
    "county": "Wasco County",
    "created_at": "2012-01-04T20:16:55Z",
    "id": 19847,
    "latitude": "45.625986",
    "longitude": "-121.226946",
    "mascot": "Eagles",
    "name": "Wahtonka 9th Grade Campus ",
    "primary_color": "Gold",
    "secondary_color": "Black",
    "state": "OR",
    "timezone": "America/Los_Angeles",
    "updated_at": "2012-07-08T00:54:06Z",
    "zip": "97058"
  },
  {
    "address": "1600 NW Carden Ave",
    "city": "Pendleton",
    "county": "Umatilla County",
    "created_at": "2012-01-04T20:16:55Z",
    "id": 19848,
    "latitude": "45.673943",
    "longitude": "-118.803252",
    "mascot": "Buckaroos",
    "name": "Pendleton High School",
    "primary_color": "Gold",
    "secondary_color": "Kelly Green",
    "state": "OR",
    "timezone": "America/Los_Angeles",
    "updated_at": "2012-07-08T00:54:07Z",
    "zip": "97801"
  },
  {
    "address": "2260 Longwood Dr",
    "city": "Reedsport",
    "county": "Douglas County",
    "created_at": "2012-01-04T20:16:55Z",
    "id": 19849,
    "latitude": "43.694214",
    "longitude": "-124.124584",
    "mascot": "Braves",
    "name": "Reedsport High School",
    "primary_color": "Red",
    "secondary_color": "Black",
    "state": "OR",
    "timezone": "America/Los_Angeles",
    "updated_at": "2012-07-08T00:54:07Z",
    "zip": "97467"
  },
  {
    "address": "721 SW 4th Ave",
    "city": "Canby",
    "county": "Clackamas County",
    "created_at": "2012-01-04T20:16:55Z",
    "id": 19850,
    "latitude": "45.258010",
    "longitude": "-122.696899",
    "mascot": "Cougars",
    "name": "Canby High School",
    "primary_color": "Gold",
    "secondary_color": "Royal",
    "state": "OR",
    "timezone": "America/Los_Angeles",
    "updated_at": "2012-07-08T00:54:07Z",
    "zip": "97013"
  },
  {
    "address": "413 NE 91st Ave",
    "city": "Portland",
    "county": "Multnomah County",
    "created_at": "2012-01-04T20:16:55Z",
    "id": 19851,
    "latitude": "45.525875",
    "longitude": "-122.570334",
    "mascot": "Knights",
    "name": "Columbia Christian School",
    "primary_color": "Gold",
    "secondary_color": "Black",
    "state": "OR",
    "timezone": "America/Los_Angeles",
    "updated_at": "2012-07-08T00:54:08Z",
    "zip": "97220"
  },
  {
    "address": "9200 NE Fremont",
    "city": "Portland",
    "county": "Multnomah County",
    "created_at": "2012-01-04T20:16:55Z",
    "id": 19852,
    "latitude": "45.548799",
    "longitude": "-122.568945",
    "mascot": "Lions",
    "name": "City Christian School",
    "primary_color": "Gold",
    "secondary_color": "Royal",
    "state": "OR",
    "timezone": "America/Los_Angeles",
    "updated_at": "2012-07-08T00:54:08Z",
    "zip": "97220"
  },
  {
    "address": "324 Milo Dr",
    "city": "Days Creek",
    "county": "Douglas County",
    "created_at": "2012-01-04T20:16:55Z",
    "id": 19853,
    "latitude": "42.934362",
    "longitude": "-123.035862",
    "mascot": "Mustangs",
    "name": "Milo Adventist Academy",
    "primary_color": "Red",
    "secondary_color": "White",
    "state": "OR",
    "timezone": "America/Los_Angeles",
    "updated_at": "2012-07-08T00:54:08Z",
    "zip": "97429"
  },
  {
    "address": "6300 SW Nicol Rd",
    "city": "Portland",
    "county": "Washington County",
    "created_at": "2012-01-04T20:16:55Z",
    "id": 19854,
    "latitude": "45.475051",
    "longitude": "-122.757851",
    "mascot": null,
    "name": "Oregon Episcopal School",
    "primary_color": "Hunter Green",
    "secondary_color": "White",
    "state": "OR",
    "timezone": "America/Los_Angeles",
    "updated_at": "2012-07-08T00:54:08Z",
    "zip": "97223"
  },
  {
    "address": "11999 SE Fuller Rd",
    "city": "Milwaukie",
    "county": "Clackamas County",
    "created_at": "2012-01-04T20:16:55Z",
    "id": 19855,
    "latitude": "45.435958",
    "longitude": "-122.585463",
    "mascot": "Falcons",
    "name": "La Salle High School",
    "primary_color": "Red",
    "secondary_color": "Royal",
    "state": "OR",
    "timezone": "America/Los_Angeles",
    "updated_at": "2012-07-08T00:54:09Z",
    "zip": "97222"
  },
  {
    "address": "19761 S Beavercreek Rd",
    "city": "Oregon City",
    "county": "Clackamas County",
    "created_at": "2012-01-04T20:16:56Z",
    "id": 19856,
    "latitude": "45.321283",
    "longitude": "-122.559800",
    "mascot": "Pioneer Pete",
    "name": "Oregon City High School Moss Campus",
    "primary_color": "Red",
    "secondary_color": "White",
    "state": "OR",
    "timezone": "America/Los_Angeles",
    "updated_at": "2012-07-08T00:54:13Z",
    "zip": "97045"
  },
  {
    "address": "10th & Ingersoll St",
    "city": "Coos Bay",
    "county": "Coos County",
    "created_at": "2012-01-04T20:16:56Z",
    "id": 19857,
    "latitude": "43.359540",
    "longitude": "-124.221839",
    "mascot": "Pirates",
    "name": "Marshfield High School",
    "primary_color": "Gold",
    "secondary_color": "Purple",
    "state": "OR",
    "timezone": "America/Los_Angeles",
    "updated_at": "2012-07-08T00:54:13Z",
    "zip": "97420"
  },
  {
    "address": "2500 East St",
    "city": "Baker City",
    "county": "Baker County",
    "created_at": "2012-01-04T20:16:56Z",
    "id": 19858,
    "latitude": "44.786247",
    "longitude": "-117.836882",
    "mascot": "Bulldogs",
    "name": "Baker Senior High School",
    "primary_color": "Gold",
    "secondary_color": "Purple",
    "state": "OR",
    "timezone": "America/Los_Angeles",
    "updated_at": "2012-07-08T00:54:14Z",
    "zip": "97814"
  },
  {
    "address": "1400 NW Buchanan St.",
    "city": "Corvallis",
    "county": "Benton County",
    "created_at": "2012-01-04T20:16:56Z",
    "id": 19859,
    "latitude": "44.576081",
    "longitude": "-123.268072",
    "mascot": "Spartans",
    "name": "Corvallis High School",
    "primary_color": "Columbia Blue",
    "secondary_color": "White",
    "state": "OR",
    "timezone": "America/Los_Angeles",
    "updated_at": "2012-07-08T00:54:14Z",
    "zip": "97330"
  },
  {
    "address": "19761 S Beavercreek Rd",
    "city": "Oregon City",
    "county": "Clackamas County",
    "created_at": "2012-01-04T20:16:56Z",
    "id": 19860,
    "latitude": "45.321283",
    "longitude": "-122.559800",
    "mascot": "Pioneers",
    "name": "Oregon City High School",
    "primary_color": "Red",
    "secondary_color": "White",
    "state": "OR",
    "timezone": "America/Los_Angeles",
    "updated_at": "2012-07-08T00:54:14Z",
    "zip": "97045"
  },
  {
    "address": "2501 SW Country Club Rd",
    "city": "Lake Oswego",
    "county": "Clackamas County",
    "created_at": "2012-01-04T20:16:56Z",
    "id": 19861,
    "latitude": "45.424897",
    "longitude": "-122.702072",
    "mascot": "Pilots",
    "name": "Lake Oswego High School",
    "primary_color": "Navy",
    "secondary_color": "White",
    "state": "OR",
    "timezone": "America/Los_Angeles",
    "updated_at": "2012-07-08T00:54:15Z",
    "zip": "97034"
  },
  {
    "address": "1235 SW Overlook",
    "city": "Lake Oswego",
    "county": "Clackamas County",
    "created_at": "2012-01-04T20:16:56Z",
    "id": 19862,
    "latitude": "45.396857",
    "longitude": "-122.693847",
    "mascot": null,
    "name": "Lakeridge High School",
    "primary_color": "Columbia Blue",
    "secondary_color": "White",
    "state": "OR",
    "timezone": "America/Los_Angeles",
    "updated_at": "2012-07-08T00:54:15Z",
    "zip": "97034"
  },
  {
    "address": "547 W Chapman Ave",
    "city": "Roseburg",
    "county": "Douglas County",
    "created_at": "2012-01-04T20:16:56Z",
    "id": 19863,
    "latitude": "43.215285",
    "longitude": "-123.352604",
    "mascot": "Indians",
    "name": "Roseburg Senior High School",
    "primary_color": "Orange",
    "secondary_color": "Black",
    "state": "OR",
    "timezone": "America/Los_Angeles",
    "updated_at": "2012-07-08T00:54:15Z",
    "zip": "97470"
  },
  {
    "address": "1381 NW Douglas St",
    "city": "Winston",
    "county": "Douglas County",
    "created_at": "2012-01-04T20:16:56Z",
    "id": 19864,
    "latitude": "43.114541",
    "longitude": "-123.437218",
    "mascot": "Trojans",
    "name": "Douglas High School",
    "primary_color": "Gray",
    "secondary_color": "Red",
    "state": "OR",
    "timezone": "America/Los_Angeles",
    "updated_at": "2012-07-08T00:54:15Z",
    "zip": "97496"
  },
  {
    "address": "815 S Oakdale Ave",
    "city": "Medford",
    "county": "Jackson County",
    "created_at": "2012-01-04T20:16:56Z",
    "id": 19865,
    "latitude": "42.316324",
    "longitude": "-122.874433",
    "mascot": "Panthers",
    "name": "South Medford High School",
    "primary_color": "Gray",
    "secondary_color": "Royal",
    "state": "OR",
    "timezone": "America/Los_Angeles",
    "updated_at": "2012-07-08T00:54:16Z",
    "zip": "97501"
  },
  {
    "address": "1900 North Keene Way Drive",
    "city": "Medford",
    "county": "Jackson County",
    "created_at": "2012-01-04T20:16:56Z",
    "id": 19866,
    "latitude": "42.346602",
    "longitude": "-122.852517",
    "mascot": "Black Tornados",
    "name": "North Medford High School",
    "primary_color": "Red",
    "secondary_color": "Black",
    "state": "OR",
    "timezone": "America/Los_Angeles",
    "updated_at": "2012-07-08T00:54:16Z",
    "zip": "97504"
  },
  {
    "address": "390 SE 10th St",
    "city": "Madras",
    "county": "Jefferson County",
    "created_at": "2012-01-04T20:16:56Z",
    "id": 19867,
    "latitude": "44.631337",
    "longitude": "-121.124506",
    "mascot": "White Buffalos",
    "name": "Madras High School",
    "primary_color": "Royal",
    "secondary_color": "White",
    "state": "OR",
    "timezone": "America/Los_Angeles",
    "updated_at": "2012-07-08T00:54:16Z",
    "zip": "97741"
  },
  {
    "address": "8245 Hwy 39",
    "city": "Klamath Falls",
    "county": "Klamath County",
    "created_at": "2012-01-04T20:16:56Z",
    "id": 19868,
    "latitude": "42.150571",
    "longitude": "-121.698221",
    "mascot": "Hornets",
    "name": "Henley High School",
    "primary_color": "Gold",
    "secondary_color": "Navy",
    "state": "OR",
    "timezone": "America/Los_Angeles",
    "updated_at": "2012-07-08T00:54:17Z",
    "zip": "97603"
  },
  {
    "address": "1300 Monclaire St",
    "city": "Klamath Falls",
    "county": "Klamath County",
    "created_at": "2012-01-04T20:16:56Z",
    "id": 19869,
    "latitude": "42.231137",
    "longitude": "-121.778879",
    "mascot": "Pelicans",
    "name": "Klamath Union High School",
    "primary_color": "Red",
    "secondary_color": "White",
    "state": "OR",
    "timezone": "America/Los_Angeles",
    "updated_at": "2012-07-08T00:54:17Z",
    "zip": "97601"
  },
  {
    "address": "3009 Summers Ln",
    "city": "Klamath Falls",
    "county": "Klamath County",
    "created_at": "2012-01-04T20:16:56Z",
    "id": 19870,
    "latitude": "42.199045",
    "longitude": "-121.737705",
    "mascot": "Vikings",
    "name": "Mazama High School",
    "primary_color": "Royal",
    "secondary_color": "White",
    "state": "OR",
    "timezone": "America/Los_Angeles",
    "updated_at": "2012-07-08T00:54:17Z",
    "zip": "97603"
  },
  {
    "address": "1801 Echo Hollow Rd",
    "city": "Eugene",
    "county": "Lane County",
    "created_at": "2012-01-04T20:16:56Z",
    "id": 19871,
    "latitude": "44.081443",
    "longitude": "-123.168101",
    "mascot": "Wolverines",
    "name": "Willamette High School",
    "primary_color": "Gold",
    "secondary_color": "Maroon",
    "state": "OR",
    "timezone": "America/Los_Angeles",
    "updated_at": "2012-07-08T00:54:17Z",
    "zip": "97402"
  },
  {
    "address": "1850 Bailey Hill Rd",
    "city": "Eugene",
    "county": "Lane County",
    "created_at": "2012-01-04T20:16:56Z",
    "id": 19872,
    "latitude": "44.039936",
    "longitude": "-123.148599",
    "mascot": "Lancers",
    "name": "Winston Churchill High School",
    "primary_color": "Royal",
    "secondary_color": "Red",
    "state": "OR",
    "timezone": "America/Los_Angeles",
    "updated_at": "2012-07-08T00:54:18Z",
    "zip": "97405"
  },
  {
    "address": "322 NE Eads St",
    "city": "Newport",
    "county": "Lincoln County",
    "created_at": "2012-01-04T20:16:56Z",
    "id": 19873,
    "latitude": "44.638346",
    "longitude": "-124.046685",
    "mascot": "Cubs",
    "name": "Newport High School",
    "primary_color": "Royal",
    "secondary_color": "White",
    "state": "OR",
    "timezone": "America/Los_Angeles",
    "updated_at": "2012-07-08T00:54:18Z",
    "zip": "97365"
  },
  {
    "address": "3705 SE Columbus St",
    "city": "Albany",
    "county": "Linn County",
    "created_at": "2012-01-04T20:16:56Z",
    "id": 19874,
    "latitude": "44.607588",
    "longitude": "-123.079577",
    "mascot": null,
    "name": "South Albany High School",
    "primary_color": "Gray",
    "secondary_color": "Red",
    "state": "OR",
    "timezone": "America/Los_Angeles",
    "updated_at": "2012-07-08T00:54:18Z",
    "zip": "97321"
  },
  {
    "address": "1115 W Idaho Ave",
    "city": "Ontario",
    "county": "Malheur County",
    "created_at": "2012-01-04T20:16:56Z",
    "id": 19875,
    "latitude": "44.028492",
    "longitude": "-116.978586",
    "mascot": "Tigers",
    "name": "Ontario High School",
    "primary_color": "Gold",
    "secondary_color": "Red",
    "state": "OR",
    "timezone": "America/Boise",
    "updated_at": "2012-07-08T00:54:19Z",
    "zip": "97914"
  },
  {
    "address": "2440 Lancaster Dr NE",
    "city": "Salem",
    "county": "Marion County",
    "created_at": "2012-01-04T20:16:56Z",
    "id": 19876,
    "latitude": "44.957774",
    "longitude": "-122.983600",
    "mascot": "Royal Scotsmen",
    "name": "McKay High School",
    "primary_color": "Hunter Green",
    "secondary_color": "Black",
    "state": "OR",
    "timezone": "America/Los_Angeles",
    "updated_at": "2012-07-08T00:54:19Z",
    "zip": "97305"
  },
  {
    "address": "595 Chemawa Rd NE",
    "city": "Keizer",
    "county": "Marion County",
    "created_at": "2012-01-04T20:16:56Z",
    "id": 19877,
    "latitude": "44.996897",
    "longitude": "-123.025825",
    "mascot": "Celtics",
    "name": "McNary High School",
    "primary_color": "Royal",
    "secondary_color": "White",
    "state": "OR",
    "timezone": "America/Los_Angeles",
    "updated_at": "2012-07-08T00:54:19Z",
    "zip": "97303"
  },
  {
    "address": "765 14th St NE",
    "city": "Salem",
    "county": "Marion County",
    "created_at": "2012-01-04T20:16:56Z",
    "id": 19878,
    "latitude": "44.943919",
    "longitude": "-123.020484",
    "mascot": "Vikings",
    "name": "North Salem High School",
    "primary_color": "Red",
    "secondary_color": "Black",
    "state": "OR",
    "timezone": "America/Los_Angeles",
    "updated_at": "2012-07-08T00:54:19Z",
    "zip": "97301"
  },
  {
    "address": "2373 Kuebler Blvd S",
    "city": "Salem",
    "county": "Marion County",
    "created_at": "2012-01-04T20:16:56Z",
    "id": 19879,
    "latitude": "44.883325",
    "longitude": "-123.080204",
    "mascot": "Olympians",
    "name": "Sprague High School",
    "primary_color": "Orange",
    "secondary_color": "Brown",
    "state": "OR",
    "timezone": "America/Los_Angeles",
    "updated_at": "2012-07-08T00:54:20Z",
    "zip": "97302"
  },
  {
    "address": "11717 NE Shaver",
    "city": "Portland",
    "county": "Multnomah County",
    "created_at": "2012-01-04T20:16:56Z",
    "id": 19880,
    "latitude": "45.551768",
    "longitude": "-122.541464",
    "mascot": "Broncos",
    "name": "Parkrose High School",
    "primary_color": "Kelly Green",
    "secondary_color": "Black",
    "state": "OR",
    "timezone": "America/Los_Angeles",
    "updated_at": "2012-07-08T00:54:20Z",
    "zip": "97220"
  },
  {
    "address": "3905 SE 91st",
    "city": "Portland",
    "county": "Multnomah County",
    "created_at": "2012-01-04T20:16:56Z",
    "id": 19881,
    "latitude": "45.493738",
    "longitude": "-122.569998",
    "mascot": "Minutemen/Minutemaids",
    "name": "Marshall High School",
    "primary_color": "Red",
    "secondary_color": "White",
    "state": "OR",
    "timezone": "America/Los_Angeles",
    "updated_at": "2012-07-08T00:54:20Z",
    "zip": "97266"
  },
  {
    "address": "5210 N Kerby Ave",
    "city": "Portland",
    "county": "Multnomah County",
    "created_at": "2012-01-04T20:16:56Z",
    "id": 19882,
    "latitude": "45.560046",
    "longitude": "-122.672961",
    "mascot": "Democrat Fighting Donkeys",
    "name": "Jefferson High School",
    "primary_color": "Gold",
    "secondary_color": "Royal",
    "state": "OR",
    "timezone": "America/Los_Angeles",
    "updated_at": "2012-07-08T00:54:20Z",
    "zip": "97217"
  },
  {
    "address": "1600 SW Salmon",
    "city": "Portland",
    "county": "Multnomah County",
    "created_at": "2012-01-04T20:16:56Z",
    "id": 19883,
    "latitude": "45.519640",
    "longitude": "-122.689343",
    "mascot": "Cardinals",
    "name": "Lincoln High School",
    "primary_color": "Red",
    "secondary_color": "White",
    "state": "OR",
    "timezone": "America/Los_Angeles",
    "updated_at": "2012-07-08T00:54:21Z",
    "zip": "97205"
  },
  {
    "address": "5405 SE Woodward",
    "city": "Portland",
    "county": "Multnomah County",
    "created_at": "2012-01-04T20:16:56Z",
    "id": 19884,
    "latitude": "45.501408",
    "longitude": "-122.606913",
    "mascot": "Quakers",
    "name": "Franklin High School",
    "primary_color": "Gray",
    "secondary_color": "Maroon",
    "state": "OR",
    "timezone": "America/Los_Angeles",
    "updated_at": "2012-07-08T00:54:21Z",
    "zip": "97206"
  },
  {
    "address": "901 SE Ash St",
    "city": "Dallas",
    "county": "Polk County",
    "created_at": "2012-01-04T20:16:56Z",
    "id": 19885,
    "latitude": "44.917297",
    "longitude": "-123.304855",
    "mascot": "Dragons",
    "name": "Dallas High School",
    "primary_color": "Black",
    "secondary_color": "Orange",
    "state": "OR",
    "timezone": "America/Los_Angeles",
    "updated_at": "2012-07-08T00:54:21Z",
    "zip": "97338"
  },
  {
    "address": "1530 Monmouth St",
    "city": "Independence",
    "county": "Polk County",
    "created_at": "2012-01-04T20:16:56Z",
    "id": 19886,
    "latitude": "44.851229",
    "longitude": "-123.209660",
    "mascot": "Panthers",
    "name": "Central High School",
    "primary_color": "Red",
    "secondary_color": "Black",
    "state": "OR",
    "timezone": "America/Los_Angeles",
    "updated_at": "2012-07-08T00:54:22Z",
    "zip": "97351"
  },
  {
    "address": "708 K Ave",
    "city": "La Grande",
    "county": "Union County",
    "created_at": "2012-01-04T20:16:56Z",
    "id": 19887,
    "latitude": "45.321162",
    "longitude": "-118.100403",
    "mascot": "Tigers",
    "name": "La Grande High School",
    "primary_color": "Royal",
    "secondary_color": "White",
    "state": "OR",
    "timezone": "America/Los_Angeles",
    "updated_at": "2012-07-08T00:54:22Z",
    "zip": "97850"
  },
  {
    "address": "220 E 10th St",
    "city": "The Dalles",
    "county": "Wasco County",
    "created_at": "2012-01-04T20:16:56Z",
    "id": 19888,
    "latitude": "45.596319",
    "longitude": "-121.186837",
    "mascot": "Indians",
    "name": "The Dalles Wahtonka Union High School",
    "primary_color": "Gray",
    "secondary_color": "Red",
    "state": "OR",
    "timezone": "America/Los_Angeles",
    "updated_at": "2012-07-08T00:54:22Z",
    "zip": "97058"
  },
  {
    "address": "203 N Platt St",
    "city": "Eagle Point",
    "county": "Jackson County",
    "created_at": "2012-01-04T20:16:56Z",
    "id": 19889,
    "latitude": "42.474285",
    "longitude": "-122.803038",
    "mascot": "Eagles",
    "name": "Eagle Point High School",
    "primary_color": "Gold",
    "secondary_color": "Royal",
    "state": "OR",
    "timezone": "America/Los_Angeles",
    "updated_at": "2012-07-08T00:54:22Z",
    "zip": "97524"
  },
  {
    "address": "500 E 4th St",
    "city": "Sutherlin",
    "county": "Douglas County",
    "created_at": "2012-01-04T20:16:56Z",
    "id": 19890,
    "latitude": "43.394400",
    "longitude": "-123.307247",
    "mascot": "Bulldogs",
    "name": "Sutherlin High School",
    "primary_color": "Royal",
    "secondary_color": "White",
    "state": "OR",
    "timezone": "America/Los_Angeles",
    "updated_at": "2012-07-08T00:54:23Z",
    "zip": "97479"
  },
  {
    "address": "250 E 1st St",
    "city": "Canyonville",
    "county": "Douglas County",
    "created_at": "2012-01-04T20:16:56Z",
    "id": 19891,
    "latitude": "42.928804",
    "longitude": "-123.277702",
    "mascot": "Pilots",
    "name": "Canyonville Christian Academy",
    "primary_color": "Gold",
    "secondary_color": "Royal",
    "state": "OR",
    "timezone": "America/Los_Angeles",
    "updated_at": "2012-07-08T00:54:23Z",
    "zip": "97417"
  },
  {
    "address": "4300 12th St",
    "city": "Tillamook",
    "county": "Tillamook County",
    "created_at": "2012-01-04T20:16:56Z",
    "id": 19892,
    "latitude": "45.448715",
    "longitude": "-123.815566",
    "mascot": "Tigers",
    "name": "Tillamook Adventist School",
    "primary_color": "Black",
    "secondary_color": "Teal",
    "state": "OR",
    "timezone": "America/Los_Angeles",
    "updated_at": "2012-07-08T00:54:23Z",
    "zip": "97141"
  },
  {
    "address": "5771 Fruitland Rd NE",
    "city": "Salem",
    "county": "Marion County",
    "created_at": "2012-01-04T20:16:56Z",
    "id": 19893,
    "latitude": "44.940788",
    "longitude": "-122.942673",
    "mascot": null,
    "name": "Livingstone Junior Academy",
    "primary_color": "Royal",
    "secondary_color": "White",
    "state": "OR",
    "timezone": "America/Los_Angeles",
    "updated_at": "2012-07-08T00:54:24Z",
    "zip": "97301"
  },
  {
    "address": "12425 NE San Rafael St",
    "city": "Portland",
    "county": "Multnomah County",
    "created_at": "2012-01-04T20:16:56Z",
    "id": 19894,
    "latitude": "45.537218",
    "longitude": "-122.535297",
    "mascot": "Royals",
    "name": "Portland Christian School",
    "primary_color": "Gold",
    "secondary_color": "Purple",
    "state": "OR",
    "timezone": "America/Los_Angeles",
    "updated_at": "2012-07-08T00:54:24Z",
    "zip": "97230"
  },
  {
    "address": "3121 SW Hailey",
    "city": "Pendleton",
    "county": "Umatilla County",
    "created_at": "2012-01-04T20:16:56Z",
    "id": 19895,
    "latitude": "45.657917",
    "longitude": "-118.817879",
    "mascot": null,
    "name": "Harris Junior Academy",
    "primary_color": "Royal",
    "secondary_color": "White",
    "state": "OR",
    "timezone": "America/Los_Angeles",
    "updated_at": "2012-07-08T00:54:24Z",
    "zip": "97801"
  },
  {
    "address": "21975 SW Baseline Rd",
    "city": "Hillsboro",
    "county": "Washington County",
    "created_at": "2012-01-04T20:16:56Z",
    "id": 19896,
    "latitude": "45.515893",
    "longitude": "-122.903105",
    "mascot": "Eagles",
    "name": "Tualatin Valley Junior Academy",
    "primary_color": "Royal",
    "secondary_color": "White",
    "state": "OR",
    "timezone": "America/Los_Angeles",
    "updated_at": "2012-07-08T00:54:24Z",
    "zip": "97123"
  },
  {
    "address": "47997 W 1st St",
    "city": "Oakridge",
    "county": "Lane County",
    "created_at": "2012-01-04T20:16:56Z",
    "id": 19897,
    "latitude": "43.748097",
    "longitude": "-122.467531",
    "mascot": "Indian Warriors",
    "name": "Oakridge High School",
    "primary_color": "Gold",
    "secondary_color": "Purple",
    "state": "OR",
    "timezone": "America/Los_Angeles",
    "updated_at": "2012-07-08T00:54:25Z",
    "zip": "97463"
  },
  {
    "address": "1825 W Highland Ave",
    "city": "Hermiston",
    "county": "Umatilla County",
    "created_at": "2012-01-04T20:16:56Z",
    "id": 19898,
    "latitude": "45.835325",
    "longitude": "-119.327116",
    "mascot": "Eagles",
    "name": "Hermiston Christian School",
    "primary_color": "Navy",
    "secondary_color": "White",
    "state": "OR",
    "timezone": "America/Los_Angeles",
    "updated_at": "2012-07-08T00:54:25Z",
    "zip": "97838"
  },
  {
    "address": "359 Roberts Creek Rd",
    "city": "Roseburg",
    "county": "Douglas County",
    "created_at": "2012-01-04T20:16:56Z",
    "id": 19899,
    "latitude": "43.142142",
    "longitude": "-123.379831",
    "mascot": "Monarchs",
    "name": "Umpqua Valley Christian School",
    "primary_color": "Gold",
    "secondary_color": "Purple",
    "state": "OR",
    "timezone": "America/Los_Angeles",
    "updated_at": "2012-07-08T00:54:25Z",
    "zip": "97470"
  },
  {
    "address": "9015 De Jong Rd",
    "city": "Sheridan",
    "county": "Polk County",
    "created_at": "2012-01-04T20:16:56Z",
    "id": 19900,
    "latitude": "45.065035",
    "longitude": "-123.321697",
    "mascot": null,
    "name": "West Valley Academy",
    "primary_color": "Maroon",
    "secondary_color": "White",
    "state": "OR",
    "timezone": "America/Los_Angeles",
    "updated_at": "2012-07-08T00:54:25Z",
    "zip": "97378"
  },
  {
    "address": "31498 S Fifth St",
    "city": "Lebanon",
    "county": "Linn County",
    "created_at": "2012-01-04T20:16:56Z",
    "id": 19901,
    "latitude": "44.504290",
    "longitude": "-122.915154",
    "mascot": "Eagles",
    "name": "East Linn Christian Academy",
    "primary_color": "Gray",
    "secondary_color": "Royal",
    "state": "OR",
    "timezone": "America/Los_Angeles",
    "updated_at": "2012-07-08T00:54:26Z",
    "zip": "97355"
  },
  {
    "address": "16975 S Hwy 211",
    "city": "Molalla",
    "county": "Clackamas County",
    "created_at": "2012-01-04T20:16:56Z",
    "id": 19902,
    "latitude": "45.171078",
    "longitude": "-122.517766",
    "mascot": "Cougars",
    "name": "The Country Christian School",
    "primary_color": "Gold",
    "secondary_color": "Royal",
    "state": "OR",
    "timezone": "America/Los_Angeles",
    "updated_at": "2012-07-08T00:54:26Z",
    "zip": "97038"
  },
  {
    "address": "3131 NE Diamond Lake Blvd",
    "city": "Roseburg",
    "county": "Douglas County",
    "created_at": "2012-01-04T20:16:56Z",
    "id": 19903,
    "latitude": "43.212972",
    "longitude": "-123.310402",
    "mascot": "Phoenix Birds",
    "name": "Phoenix School Of Roseburg",
    "primary_color": "Red",
    "secondary_color": "Black",
    "state": "OR",
    "timezone": "America/Los_Angeles",
    "updated_at": "2012-07-08T00:54:26Z",
    "zip": "97470"
  },
  {
    "address": "6460 Glen Echo",
    "city": "Gladstone",
    "county": "Clackamas County",
    "created_at": "2012-01-04T20:16:56Z",
    "id": 19904,
    "latitude": "45.390707",
    "longitude": "-122.597279",
    "mascot": "Eagles",
    "name": "Grace Christian School",
    "primary_color": "Navy",
    "secondary_color": "Gold",
    "state": "OR",
    "timezone": "America/Los_Angeles",
    "updated_at": "2012-07-08T00:54:27Z",
    "zip": "97027"
  },
  {
    "address": "160 Mill Creek Dr",
    "city": "Prospect",
    "county": "Jackson County",
    "created_at": "2012-01-04T20:16:56Z",
    "id": 19905,
    "latitude": "42.754669",
    "longitude": "-122.488602",
    "mascot": "Cougars",
    "name": "Prospect School",
    "primary_color": "Navy",
    "secondary_color": "White",
    "state": "OR",
    "timezone": "America/Los_Angeles",
    "updated_at": "2012-07-08T00:54:27Z",
    "zip": "97536"
  },
  {
    "address": "600 Gerome St",
    "city": "Echo",
    "county": "Umatilla County",
    "created_at": "2012-01-04T20:16:56Z",
    "id": 19906,
    "latitude": "45.740393",
    "longitude": "-119.190536",
    "mascot": "Cougars",
    "name": "Echo School",
    "primary_color": "Columbia Blue",
    "secondary_color": "White",
    "state": "OR",
    "timezone": "America/Los_Angeles",
    "updated_at": "2012-07-08T00:54:27Z",
    "zip": "97826"
  },
  {
    "address": "57566 Fort Rock Road",
    "city": "Silver Lake",
    "county": "Lake County",
    "created_at": "2012-01-04T20:16:56Z",
    "id": 19907,
    "latitude": "43.245117",
    "longitude": "-120.898314",
    "mascot": "Cowboys",
    "name": "North Lake School",
    "primary_color": "Red",
    "secondary_color": "Black",
    "state": "OR",
    "timezone": "America/Los_Angeles",
    "updated_at": "2012-07-08T00:54:27Z",
    "zip": "97638"
  },
  {
    "address": "1500 SE 96th Ave",
    "city": "Portland",
    "county": "Multnomah County",
    "created_at": "2012-01-04T20:16:56Z",
    "id": 19908,
    "latitude": "45.512420",
    "longitude": "-122.564248",
    "mascot": "Cougars",
    "name": "Portland Adventist Academy",
    "primary_color": "Navy",
    "secondary_color": "Gold",
    "state": "OR",
    "timezone": "America/Los_Angeles",
    "updated_at": "2012-07-08T00:54:27Z",
    "zip": "97216"
  },
  {
    "address": "High School Hill Road",
    "city": "Powers",
    "county": "Coos County",
    "created_at": "2012-01-04T20:16:56Z",
    "id": 19909,
    "latitude": "42.880090",
    "longitude": "-124.066912",
    "mascot": "Cruisers",
    "name": "Powers High School",
    "primary_color": "Orange",
    "secondary_color": "Black",
    "state": "OR",
    "timezone": "America/Los_Angeles",
    "updated_at": "2012-07-08T00:54:28Z",
    "zip": "97466"
  },
  {
    "address": "375 E Main St",
    "city": "Long Creek",
    "county": "Grant County",
    "created_at": "2012-01-04T20:16:56Z",
    "id": 19910,
    "latitude": "44.713744",
    "longitude": "-119.102612",
    "mascot": "Mountaineers",
    "name": "Long Creek School",
    "primary_color": "Red",
    "secondary_color": "White",
    "state": "OR",
    "timezone": "America/Los_Angeles",
    "updated_at": "2012-07-08T00:54:28Z",
    "zip": "97856"
  },
  {
    "address": "816 Black Oak Dr",
    "city": "Medford",
    "county": "Jackson County",
    "created_at": "2012-01-04T20:16:56Z",
    "id": 19911,
    "latitude": "42.313702",
    "longitude": "-122.835658",
    "mascot": "Crusaders",
    "name": "Saint Mary's School",
    "primary_color": "Navy",
    "secondary_color": "White",
    "state": "OR",
    "timezone": "America/Los_Angeles",
    "updated_at": "2012-07-08T00:54:28Z",
    "zip": "97504"
  },
  {
    "address": "1900 Kingsley Rd",
    "city": "Eugene",
    "county": "Lane County",
    "created_at": "2012-01-04T20:16:56Z",
    "id": 19912,
    "latitude": "44.085064",
    "longitude": "-123.114384",
    "mascot": "Spartans",
    "name": "Marist High School",
    "primary_color": "Navy",
    "secondary_color": "White",
    "state": "OR",
    "timezone": "America/Los_Angeles",
    "updated_at": "2012-07-08T00:54:29Z",
    "zip": "97401"
  },
  {
    "address": "550 W Regis St",
    "city": "Stayton",
    "county": "Marion County",
    "created_at": "2012-01-04T20:16:56Z",
    "id": 19913,
    "latitude": "44.807947",
    "longitude": "-122.798431",
    "mascot": "Rams",
    "name": "Regis High School",
    "primary_color": "Gold",
    "secondary_color": "Kelly Green",
    "state": "OR",
    "timezone": "America/Los_Angeles",
    "updated_at": "2012-07-08T00:54:29Z",
    "zip": "97383"
  },
  {
    "address": "2401 SE Stark St",
    "city": "Portland",
    "county": "Multnomah County",
    "created_at": "2012-01-04T20:16:56Z",
    "id": 19914,
    "latitude": "45.519328",
    "longitude": "-122.641250",
    "mascot": "Rams",
    "name": "Central Catholic High School",
    "primary_color": "Red",
    "secondary_color": "Gold",
    "state": "OR",
    "timezone": "America/Los_Angeles",
    "updated_at": "2012-07-08T00:54:29Z",
    "zip": "97214"
  },
  {
    "address": "1615 SW 5th Ave",
    "city": "Portland",
    "county": "Multnomah County",
    "created_at": "2012-01-04T20:16:56Z",
    "id": 19915,
    "latitude": "45.512400",
    "longitude": "-122.681044",
    "mascot": null,
    "name": "Saint Mary's Academy",
    "primary_color": "Royal",
    "secondary_color": "White",
    "state": "OR",
    "timezone": "America/Los_Angeles",
    "updated_at": "2012-07-08T00:54:30Z",
    "zip": "97201"
  },
  {
    "address": "9000 SW Beaverton Hillsdale Hwy",
    "city": "Portland",
    "county": "Washington County",
    "created_at": "2012-01-04T20:16:56Z",
    "id": 19916,
    "latitude": "45.486387",
    "longitude": "-122.769580",
    "mascot": "Crusaders",
    "name": "Jesuit High School",
    "primary_color": "Kelly Green",
    "secondary_color": "Gold",
    "state": "OR",
    "timezone": "America/Los_Angeles",
    "updated_at": "2012-07-08T00:54:30Z",
    "zip": "97225"
  },
  {
    "address": "4275 SW 148th Avenue",
    "city": "Beaverton",
    "county": "Washington County",
    "created_at": "2012-01-04T20:16:56Z",
    "id": 19917,
    "latitude": "45.488802",
    "longitude": "-122.828793",
    "mascot": "Valiants",
    "name": "Valley Catholic School",
    "primary_color": "Royal",
    "secondary_color": "White",
    "state": "OR",
    "timezone": "America/Los_Angeles",
    "updated_at": "2012-07-08T00:54:30Z",
    "zip": "97007"
  },
  {
    "address": "930 NE 162nd St",
    "city": "Portland",
    "county": "Multnomah County",
    "created_at": "2012-01-04T20:16:56Z",
    "id": 19918,
    "latitude": "45.529748",
    "longitude": "-122.496132",
    "mascot": "Wolibees",
    "name": "Wynne Watts School",
    "primary_color": "Royal",
    "secondary_color": "Black",
    "state": "OR",
    "timezone": "America/Los_Angeles",
    "updated_at": "2012-07-08T00:54:30Z",
    "zip": "97230"
  },
  {
    "address": "16535 SW Tualatin Valley",
    "city": "Beaverton",
    "county": "Washington County",
    "created_at": "2012-01-04T20:16:56Z",
    "id": 19919,
    "latitude": "45.491678",
    "longitude": "-122.846244",
    "mascot": "Bulldogs",
    "name": "Levi Anderson School",
    "primary_color": "Red",
    "secondary_color": "Black",
    "state": "OR",
    "timezone": "America/Los_Angeles",
    "updated_at": "2012-07-08T00:54:31Z",
    "zip": "97006"
  },
  {
    "address": "18 SW Boundry Ct",
    "city": "Portland",
    "county": "Multnomah County",
    "created_at": "2012-01-04T20:16:56Z",
    "id": 19920,
    "latitude": "45.484492",
    "longitude": "-122.677665",
    "mascot": null,
    "name": "Boys & Girls Aid / Johns Landing School",
    "primary_color": null,
    "secondary_color": null,
    "state": "OR",
    "timezone": "America/Los_Angeles",
    "updated_at": "2012-07-08T00:54:31Z",
    "zip": "97201"
  },
  {
    "address": "3400 SE 26th Ave Rm 120",
    "city": "Portland",
    "county": "Multnomah County",
    "created_at": "2012-01-04T20:16:56Z",
    "id": 19921,
    "latitude": "45.498510",
    "longitude": "-122.639606",
    "mascot": null,
    "name": "Clinton School",
    "primary_color": "Royal",
    "secondary_color": "White",
    "state": "OR",
    "timezone": "America/Los_Angeles",
    "updated_at": "2012-07-08T00:54:31Z",
    "zip": "97202"
  },
  {
    "address": "650 Hwy 7",
    "city": "Baker City",
    "county": "Baker County",
    "created_at": "2012-01-04T20:16:56Z",
    "id": 19922,
    "latitude": "44.765534",
    "longitude": "-117.836584",
    "mascot": "Knights",
    "name": "Agape Christian School",
    "primary_color": "Gray",
    "secondary_color": "Royal",
    "state": "OR",
    "timezone": "America/Los_Angeles",
    "updated_at": "2012-07-08T00:54:32Z",
    "zip": "97814"
  },
  {
    "address": "1947 College St",
    "city": "Philomath",
    "county": "Benton County",
    "created_at": "2012-01-04T20:16:56Z",
    "id": 19923,
    "latitude": "44.541009",
    "longitude": "-123.358126",
    "mascot": "Sentinels",
    "name": "Nazarene Christian School",
    "primary_color": "Royal",
    "secondary_color": "Gray",
    "state": "OR",
    "timezone": "America/Los_Angeles",
    "updated_at": "2012-07-08T00:54:32Z",
    "zip": "97370"
  },
  {
    "address": "5383 S Schneider Rd",
    "city": "Woodburn",
    "county": "Clackamas County",
    "created_at": "2012-01-04T20:16:56Z",
    "id": 19924,
    "latitude": "45.135400",
    "longitude": "-122.752788",
    "mascot": null,
    "name": "Elliott Prairie Christian School",
    "primary_color": null,
    "secondary_color": null,
    "state": "OR",
    "timezone": "America/Los_Angeles",
    "updated_at": "2012-07-08T00:54:32Z",
    "zip": "97071"
  },
  {
    "address": "21155 Tumalo Rd",
    "city": "Bend",
    "county": "Deschutes County",
    "created_at": "2012-01-04T20:16:56Z",
    "id": 19925,
    "latitude": "44.159431",
    "longitude": "-121.265109",
    "mascot": null,
    "name": "Three Sisters SDA School",
    "primary_color": "Royal",
    "secondary_color": "White",
    "state": "OR",
    "timezone": "America/Los_Angeles",
    "updated_at": "2012-07-08T00:54:32Z",
    "zip": "97701"
  },
  {
    "address": "66 SE H St",
    "city": "Madras",
    "county": "Jefferson County",
    "created_at": "2012-01-04T20:16:56Z",
    "id": 19926,
    "latitude": "44.627593",
    "longitude": "-121.128094",
    "mascot": null,
    "name": "Gibson SDA School",
    "primary_color": null,
    "secondary_color": null,
    "state": "OR",
    "timezone": "America/Los_Angeles",
    "updated_at": "2012-07-08T00:54:33Z",
    "zip": "97741"
  },
  {
    "address": "35582 Zephyr Way",
    "city": "Pleasant Hill",
    "county": "Lane County",
    "created_at": "2012-01-04T20:16:56Z",
    "id": 19927,
    "latitude": "43.979943",
    "longitude": "-122.949183",
    "mascot": "Roadrunners",
    "name": "Emerald Christian Academy",
    "primary_color": "Kelly Green",
    "secondary_color": "White",
    "state": "OR",
    "timezone": "America/Los_Angeles",
    "updated_at": "2012-07-08T00:54:33Z",
    "zip": "97455"
  },
  {
    "address": "8825 SW Barnes Rd",
    "city": "Portland",
    "county": "Washington County",
    "created_at": "2012-01-04T20:16:56Z",
    "id": 19928,
    "latitude": "45.508631",
    "longitude": "-122.767736",
    "mascot": "Eagles",
    "name": "Catlin Gabel School",
    "primary_color": "Royal",
    "secondary_color": "White",
    "state": "OR",
    "timezone": "America/Los_Angeles",
    "updated_at": "2012-07-08T00:54:33Z",
    "zip": "97225"
  },
  {
    "address": "3720 Birch St",
    "city": "Baker City",
    "county": "Baker County",
    "created_at": "2012-01-04T20:16:56Z",
    "id": 19929,
    "latitude": "44.792752",
    "longitude": "-117.814601",
    "mascot": "Knights",
    "name": "Baker Valley Christian School",
    "primary_color": "Gray",
    "secondary_color": "Royal",
    "state": "OR",
    "timezone": "America/Los_Angeles",
    "updated_at": "2012-07-08T00:54:34Z",
    "zip": "97814"
  },
  {
    "address": "PO Box 348",
    "city": "Oregon City",
    "county": "Clackamas County",
    "created_at": "2012-01-04T20:16:56Z",
    "id": 19930,
    "latitude": "45.352470",
    "longitude": "-122.597299",
    "mascot": null,
    "name": "Crossroads Alternative School",
    "primary_color": null,
    "secondary_color": null,
    "state": "OR",
    "timezone": "America/Los_Angeles",
    "updated_at": "2012-07-08T00:54:34Z",
    "zip": "97045"
  },
  {
    "address": "1905 N Maple",
    "city": "Canby",
    "county": "Clackamas County",
    "created_at": "2012-01-04T20:16:56Z",
    "id": 19931,
    "latitude": "45.277659",
    "longitude": "-122.686747",
    "mascot": null,
    "name": "First Baptist Church School",
    "primary_color": "Royal",
    "secondary_color": "Gray",
    "state": "OR",
    "timezone": "America/Los_Angeles",
    "updated_at": "2012-07-08T00:54:34Z",
    "zip": "97013"
  },
  {
    "address": "575 S. Main St",
    "city": "Coos Bay",
    "county": "Coos County",
    "created_at": "2012-01-04T20:16:56Z",
    "id": 19932,
    "latitude": "43.385260",
    "longitude": "-124.275792",
    "mascot": "Snarfs",
    "name": "Alternative Youth Activities Inc",
    "primary_color": "Kelly Green",
    "secondary_color": "Black",
    "state": "OR",
    "timezone": "America/Los_Angeles",
    "updated_at": "2012-07-08T00:54:34Z",
    "zip": "97420"
  },
  {
    "address": "48967 Hwy 101",
    "city": "Bandon",
    "county": "Coos County",
    "created_at": "2012-01-04T20:16:56Z",
    "id": 19933,
    "latitude": "43.066013",
    "longitude": "-124.415225",
    "mascot": "Eagles",
    "name": "Bandon Pacific Christian School",
    "primary_color": "Royal",
    "secondary_color": "White",
    "state": "OR",
    "timezone": "America/Los_Angeles",
    "updated_at": "2012-07-08T00:54:35Z",
    "zip": "97411"
  },
  {
    "address": "19741 Baker Rd",
    "city": "Bend",
    "county": "Deschutes County",
    "created_at": "2012-01-04T20:16:56Z",
    "id": 19934,
    "latitude": "43.992238",
    "longitude": "-121.337106",
    "mascot": "Eagles",
    "name": "Morning Star Christian School",
    "primary_color": "Gold",
    "secondary_color": "Royal",
    "state": "OR",
    "timezone": "America/Los_Angeles",
    "updated_at": "2012-07-08T00:54:35Z",
    "zip": "97702"
  },
  {
    "address": "750 NE Alameda",
    "city": "Roseburg",
    "county": "Douglas County",
    "created_at": "2012-01-04T20:16:56Z",
    "id": 19935,
    "latitude": "43.230694",
    "longitude": "-123.346122",
    "mascot": null,
    "name": "Christian Life Academy",
    "primary_color": "Navy",
    "secondary_color": "Hunter Green",
    "state": "OR",
    "timezone": "America/Los_Angeles",
    "updated_at": "2012-07-08T00:54:35Z",
    "zip": "97470"
  },
  {
    "address": "1100 22nd St",
    "city": "Hood River",
    "county": "Hood River County",
    "created_at": "2012-01-04T20:16:56Z",
    "id": 19936,
    "latitude": "45.702615",
    "longitude": "-121.534338",
    "mascot": "Mount Hoods",
    "name": "Mid Columbia Adventist School",
    "primary_color": "Navy",
    "secondary_color": "White",
    "state": "OR",
    "timezone": "America/Los_Angeles",
    "updated_at": "2012-07-08T00:54:36Z",
    "zip": "97031"
  },
  {
    "address": "1889 Belmont Dr",
    "city": "Hood River",
    "county": "Hood River County",
    "created_at": "2012-01-04T20:16:56Z",
    "id": 19937,
    "latitude": "45.699722",
    "longitude": "-121.532293",
    "mascot": "Bears",
    "name": "Horizon Christian School",
    "primary_color": "Navy",
    "secondary_color": "White",
    "state": "OR",
    "timezone": "America/Los_Angeles",
    "updated_at": "2012-07-08T00:54:36Z",
    "zip": "97031"
  },
  {
    "address": "3675 S Stage Rd",
    "city": "Medford",
    "county": "Jackson County",
    "created_at": "2012-01-04T20:16:56Z",
    "id": 19938,
    "latitude": "42.302132",
    "longitude": "-122.925175",
    "mascot": "Hawks",
    "name": "Rogue Valley Adventist School",
    "primary_color": "Maroon",
    "secondary_color": "White",
    "state": "OR",
    "timezone": "America/Los_Angeles",
    "updated_at": "2012-07-08T00:54:36Z",
    "zip": "97501"
  },
  {
    "address": "525 East E St",
    "city": "Jacksonville",
    "county": "Jackson County",
    "created_at": "2012-01-04T20:16:56Z",
    "id": 19939,
    "latitude": "42.315226",
    "longitude": "-122.963557",
    "mascot": "Challengers",
    "name": "Cascade Christian High School",
    "primary_color": "Gold",
    "secondary_color": "Purple",
    "state": "OR",
    "timezone": "America/Los_Angeles",
    "updated_at": "2012-07-08T00:54:36Z",
    "zip": "97530"
  },
  {
    "address": "2250 NW Heidi Ln",
    "city": "Grants Pass",
    "county": "Josephine County",
    "created_at": "2012-01-04T20:16:56Z",
    "id": 19940,
    "latitude": "42.465444",
    "longitude": "-123.330811",
    "mascot": null,
    "name": "Grants Pass SDA School",
    "primary_color": null,
    "secondary_color": null,
    "state": "OR",
    "timezone": "America/Los_Angeles",
    "updated_at": "2012-07-08T00:54:37Z",
    "zip": "97526"
  },
  {
    "address": "5961 New Hope Rd",
    "city": "Grants Pass",
    "county": "Josephine County",
    "created_at": "2012-01-04T20:16:56Z",
    "id": 19941,
    "latitude": "42.358803",
    "longitude": "-123.367065",
    "mascot": "Warriors",
    "name": "New Hope Christian School",
    "primary_color": "Red",
    "secondary_color": "White",
    "state": "OR",
    "timezone": "America/Los_Angeles",
    "updated_at": "2012-07-08T00:54:37Z",
    "zip": "97527"
  },
  {
    "address": "113 S Caves Ave",
    "city": "Cave Junction",
    "county": "Josephine County",
    "created_at": "2012-01-04T20:16:56Z",
    "id": 19942,
    "latitude": "42.166841",
    "longitude": "-123.645098",
    "mascot": "Lions",
    "name": "Community Christian Academy",
    "primary_color": "Royal",
    "secondary_color": "White",
    "state": "OR",
    "timezone": "America/Los_Angeles",
    "updated_at": "2012-07-08T00:54:37Z",
    "zip": "97523"
  },
  {
    "address": "233 SE Rogue River Hwy",
    "city": "Grants Pass",
    "county": "Josephine County",
    "created_at": "2012-01-04T20:16:56Z",
    "id": 19943,
    "latitude": "42.427001",
    "longitude": "-123.331386",
    "mascot": "Eagles",
    "name": "Josephine County Christian School",
    "primary_color": "Gold",
    "secondary_color": "Royal",
    "state": "OR",
    "timezone": "America/Los_Angeles",
    "updated_at": "2012-07-08T00:54:37Z",
    "zip": "97527"
  },
  {
    "address": "1515 Redwood Ave",
    "city": "Grants Pass",
    "county": "Josephine County",
    "created_at": "2012-01-04T20:16:56Z",
    "id": 19944,
    "latitude": "42.422416",
    "longitude": "-123.356779",
    "mascot": null,
    "name": "New Covenant Christian School",
    "primary_color": "Maroon",
    "secondary_color": "White",
    "state": "OR",
    "timezone": "America/Los_Angeles",
    "updated_at": "2012-07-08T00:54:38Z",
    "zip": "97527"
  },
  {
    "address": "5000 Hosanna Way",
    "city": "Klamath Falls",
    "county": "Klamath County",
    "created_at": "2012-01-04T20:16:56Z",
    "id": 19945,
    "latitude": "42.166340",
    "longitude": "-121.722761",
    "mascot": "Lions",
    "name": "Hosanna Christian Academy",
    "primary_color": "Teal",
    "secondary_color": "Black",
    "state": "OR",
    "timezone": "America/Los_Angeles",
    "updated_at": "2012-07-08T00:54:38Z",
    "zip": "97603"
  },
  {
    "address": "77820 Mosby Creek Rd",
    "city": "Cottage Grove",
    "county": "Lane County",
    "created_at": "2012-01-04T20:16:56Z",
    "id": 19946,
    "latitude": "43.774889",
    "longitude": "-122.999184",
    "mascot": "Cougars",
    "name": "South Lane Christian School",
    "primary_color": "Gold",
    "secondary_color": "Kelly Green",
    "state": "OR",
    "timezone": "America/Los_Angeles",
    "updated_at": "2012-07-08T00:54:38Z",
    "zip": "97424"
  },
  {
    "address": "2126 NE Surf Ave",
    "city": "Lincoln City",
    "county": "Lincoln County",
    "created_at": "2012-01-04T20:16:56Z",
    "id": 19947,
    "latitude": "44.980065",
    "longitude": "-124.002148",
    "mascot": "Eagles",
    "name": "Lincoln City SDA School",
    "primary_color": "Royal Blue",
    "secondary_color": "White",
    "state": "OR",
    "timezone": "America/Los_Angeles",
    "updated_at": "2012-07-08T00:54:39Z",
    "zip": "97367"
  },
  {
    "address": "6631 Logsden Rd",
    "city": "Logsden",
    "county": "Lincoln County",
    "created_at": "2012-01-04T20:16:56Z",
    "id": 19948,
    "latitude": "44.740890",
    "longitude": "-123.795399",
    "mascot": null,
    "name": "Logsden Christian School",
    "primary_color": "Royal",
    "secondary_color": "White",
    "state": "OR",
    "timezone": "America/Los_Angeles",
    "updated_at": "2012-07-08T00:54:39Z",
    "zip": "97357"
  },
  {
    "address": "26585 Peoria Rd",
    "city": "Halsey",
    "county": "Linn County",
    "created_at": "2012-01-04T20:16:56Z",
    "id": 19949,
    "latitude": "44.363199",
    "longitude": "-123.195287",
    "mascot": null,
    "name": "Lake Creek Mennonite School",
    "primary_color": null,
    "secondary_color": null,
    "state": "OR",
    "timezone": "America/Los_Angeles",
    "updated_at": "2012-07-08T00:54:39Z",
    "zip": "97348"
  },
  {
    "address": "31630 SE Hwy 34",
    "city": "Tangent",
    "county": "Linn County",
    "created_at": "2012-01-04T20:16:56Z",
    "id": 19950,
    "latitude": "44.560996",
    "longitude": "-123.124755",
    "mascot": null,
    "name": "Central Valley SDA School",
    "primary_color": "Royal",
    "secondary_color": "White",
    "state": "OR",
    "timezone": "America/Los_Angeles",
    "updated_at": "2012-07-08T00:54:39Z",
    "zip": "97389"
  },
  {
    "address": "35100 Goltra Rd SE",
    "city": "Albany",
    "county": "Linn County",
    "created_at": "2012-01-04T20:16:57Z",
    "id": 19951,
    "latitude": "44.599753",
    "longitude": "-123.008156",
    "mascot": "Falcons",
    "name": "Fairview Christian School",
    "primary_color": "Gray",
    "secondary_color": "Navy",
    "state": "OR",
    "timezone": "America/Los_Angeles",
    "updated_at": "2012-07-08T00:54:40Z",
    "zip": "97321"
  },
  {
    "address": "2900 S Main Rd",
    "city": "Lebanon",
    "county": "Linn County",
    "created_at": "2012-01-04T20:16:57Z",
    "id": 19952,
    "latitude": "44.516690",
    "longitude": "-122.907088",
    "mascot": "Panthers",
    "name": "Lebanon Christian School",
    "primary_color": "Red",
    "secondary_color": "Black",
    "state": "OR",
    "timezone": "America/Los_Angeles",
    "updated_at": "2012-07-08T00:54:40Z",
    "zip": "97355"
  },
  {
    "address": "942 Lancaster Dr NE",
    "city": "Salem",
    "county": "Marion County",
    "created_at": "2012-01-04T20:16:57Z",
    "id": 19953,
    "latitude": "44.942498",
    "longitude": "-122.983272",
    "mascot": "Crusaders",
    "name": "Salem Academy High School",
    "primary_color": "Kelly Green",
    "secondary_color": "White",
    "state": "OR",
    "timezone": "America/Los_Angeles",
    "updated_at": "2012-07-08T00:54:40Z",
    "zip": "97301"
  },
  {
    "address": "3030 Center St NE",
    "city": "Salem",
    "county": "Marion County",
    "created_at": "2012-01-04T20:16:57Z",
    "id": 19954,
    "latitude": "44.939852",
    "longitude": "-122.997748",
    "mascot": null,
    "name": "Marion Court School",
    "primary_color": null,
    "secondary_color": null,
    "state": "OR",
    "timezone": "America/Los_Angeles",
    "updated_at": "2012-07-08T00:54:40Z",
    "zip": "97301"
  },
  {
    "address": "9045 Wallace Rd NW",
    "city": "Salem",
    "county": "Polk County",
    "created_at": "2012-01-04T20:16:57Z",
    "id": 19955,
    "latitude": "45.065801",
    "longitude": "-123.074998",
    "mascot": "Pioneers",
    "name": "Western Mennonite High School",
    "primary_color": "Royal",
    "secondary_color": "White",
    "state": "OR",
    "timezone": "America/Los_Angeles",
    "updated_at": "2012-07-08T00:54:41Z",
    "zip": "97304"
  },
  {
    "address": "15002 Jefferson Hwy 99 E",
    "city": "Jefferson",
    "county": "Marion County",
    "created_at": "2012-01-04T20:16:57Z",
    "id": 19956,
    "latitude": "44.738052",
    "longitude": "-123.010281",
    "mascot": null,
    "name": "Jefferson Christian School",
    "primary_color": "Teal",
    "secondary_color": "Black",
    "state": "OR",
    "timezone": "America/Los_Angeles",
    "updated_at": "2012-07-08T00:54:41Z",
    "zip": "97352"
  },
  {
    "address": "3710 N Mississippi St",
    "city": "Portland",
    "county": "Multnomah County",
    "created_at": "2012-01-04T20:16:57Z",
    "id": 19957,
    "latitude": "45.549760",
    "longitude": "-122.675520",
    "mascot": null,
    "name": "Albina Youth Opportunity School",
    "primary_color": null,
    "secondary_color": null,
    "state": "OR",
    "timezone": "America/Los_Angeles",
    "updated_at": "2012-07-08T00:54:41Z",
    "zip": "97227"
  },
  {
    "address": "6651 SW Capitol Hwy",
    "city": "Portland",
    "county": "Multnomah County",
    "created_at": "2012-01-04T20:16:57Z",
    "id": 19958,
    "latitude": "45.476076",
    "longitude": "-122.703756",
    "mascot": null,
    "name": "Portland Jewish Academy",
    "primary_color": "Royal",
    "secondary_color": "White",
    "state": "OR",
    "timezone": "America/Los_Angeles",
    "updated_at": "2012-07-08T00:54:42Z",
    "zip": "97219"
  },
  {
    "address": "4905 Woodstock",
    "city": "Portland",
    "county": "Multnomah County",
    "created_at": "2012-01-04T20:16:57Z",
    "id": 19959,
    "latitude": "45.479188",
    "longitude": "-122.612256",
    "mascot": null,
    "name": "Lents Education Center",
    "primary_color": null,
    "secondary_color": null,
    "state": "OR",
    "timezone": "America/Los_Angeles",
    "updated_at": "2012-07-08T00:54:42Z",
    "zip": "97206"
  },
  {
    "address": "4565 Carman Dr SW",
    "city": "Lake Oswego",
    "county": "Clackamas County",
    "created_at": "2012-01-04T20:16:57Z",
    "id": 19960,
    "latitude": "45.419567",
    "longitude": "-122.723358",
    "mascot": "Eagles",
    "name": "Westside Christian School",
    "primary_color": "Black",
    "secondary_color": "Red",
    "state": "OR",
    "timezone": "America/Los_Angeles",
    "updated_at": "2012-07-08T00:54:42Z",
    "zip": "97035"
  },
  {
    "address": "740 SE 182nd Ave",
    "city": "Portland",
    "county": "Multnomah County",
    "created_at": "2012-01-04T20:16:57Z",
    "id": 19961,
    "latitude": "45.517435",
    "longitude": "-122.475768",
    "mascot": "Fighting Jays",
    "name": "Portland Lutheran School",
    "primary_color": "Royal",
    "secondary_color": "White",
    "state": "OR",
    "timezone": "America/Los_Angeles",
    "updated_at": "2012-07-08T00:54:42Z",
    "zip": "97233"
  },
  {
    "address": "27710 SE Strebin Rd",
    "city": "Troutdale",
    "county": "Multnomah County",
    "created_at": "2012-01-04T20:16:57Z",
    "id": 19962,
    "latitude": "45.506542",
    "longitude": "-122.376264",
    "mascot": "Huskies",
    "name": "Open Door Christian Academy",
    "primary_color": "Royal",
    "secondary_color": "White",
    "state": "OR",
    "timezone": "America/Los_Angeles",
    "updated_at": "2012-07-08T00:54:43Z",
    "zip": "97060"
  },
  {
    "address": "717 N Killingsworth Ct",
    "city": "Portland",
    "county": "Multnomah County",
    "created_at": "2012-01-04T20:16:57Z",
    "id": 19963,
    "latitude": "45.561873",
    "longitude": "-122.674182",
    "mascot": "Panthers",
    "name": "Portland Opportunities Center",
    "primary_color": "Gold",
    "secondary_color": "Royal",
    "state": "OR",
    "timezone": "America/Los_Angeles",
    "updated_at": "2012-07-08T00:54:43Z",
    "zip": "97217"
  },
  {
    "address": "Hwy 22",
    "city": "Independance",
    "county": "Polk County",
    "created_at": "2012-01-04T20:16:57Z",
    "id": 19964,
    "latitude": "44.932860",
    "longitude": "-123.148164",
    "mascot": "Panters",
    "name": "Eola School",
    "primary_color": "Red",
    "secondary_color": "Black",
    "state": "OR",
    "timezone": "America/Los_Angeles",
    "updated_at": "2012-07-08T00:54:43Z",
    "zip": "97351"
  },
  {
    "address": "2107 NW 21st Dr",
    "city": "Pendleton",
    "county": "Umatilla County",
    "created_at": "2012-01-04T20:16:57Z",
    "id": 19965,
    "latitude": "45.678652",
    "longitude": "-118.807252",
    "mascot": "Eagles",
    "name": "Lighthouse Christian Academy",
    "primary_color": "Royal",
    "secondary_color": "White",
    "state": "OR",
    "timezone": "America/Los_Angeles",
    "updated_at": "2012-07-08T00:54:44Z",
    "zip": "97801"
  },
  {
    "address": "6750 SW 198th Ave",
    "city": "Aloha",
    "county": "Washington County",
    "created_at": "2012-01-04T20:16:57Z",
    "id": 19966,
    "latitude": "45.471365",
    "longitude": "-122.881729",
    "mascot": null,
    "name": "Palace Of Praise Academy",
    "primary_color": "Royal",
    "secondary_color": "White",
    "state": "OR",
    "timezone": "America/Los_Angeles",
    "updated_at": "2012-07-08T00:54:44Z",
    "zip": "97007"
  },
  {
    "address": "16860 SW Blanton St",
    "city": "Aloha",
    "county": "Washington County",
    "created_at": "2012-01-04T20:16:57Z",
    "id": 19967,
    "latitude": "45.490376",
    "longitude": "-122.850654",
    "mascot": "Falcons",
    "name": "Faith Bible Christian School",
    "primary_color": "Royal",
    "secondary_color": "White",
    "state": "OR",
    "timezone": "America/Los_Angeles",
    "updated_at": "2012-07-08T00:54:44Z",
    "zip": "97007"
  },
  {
    "address": "11530 SW 72nd St",
    "city": "Portland",
    "county": "Washington County",
    "created_at": "2012-01-04T20:16:57Z",
    "id": 19968,
    "latitude": "45.436701",
    "longitude": "-122.751211",
    "mascot": null,
    "name": "Learning Skills Resource Center",
    "primary_color": null,
    "secondary_color": null,
    "state": "OR",
    "timezone": "America/Los_Angeles",
    "updated_at": "2012-07-08T00:54:44Z",
    "zip": "97223"
  },
  {
    "address": "20950 SW Rock Creek Rd",
    "city": "Sheridan",
    "county": "Yamhill County",
    "created_at": "2012-01-04T20:16:57Z",
    "id": 19969,
    "latitude": "45.108164",
    "longitude": "-123.429420",
    "mascot": "Delphi Dragons",
    "name": "Delphian School",
    "primary_color": "Kelly Green",
    "secondary_color": "White",
    "state": "OR",
    "timezone": "America/Los_Angeles",
    "updated_at": "2012-07-08T00:54:45Z",
    "zip": "97378"
  },
  {
    "address": "3700 Chemawa Rd NE",
    "city": "Salem",
    "county": "Marion County",
    "created_at": "2012-01-04T20:16:57Z",
    "id": 19970,
    "latitude": "45.004503",
    "longitude": "-122.984002",
    "mascot": "Braves",
    "name": "Chemawa BIA High School",
    "primary_color": "Red",
    "secondary_color": "Black",
    "state": "OR",
    "timezone": "America/Los_Angeles",
    "updated_at": "2012-07-08T00:54:45Z",
    "zip": "97305"
  },
  {
    "address": "Hwy 26",
    "city": "Unity",
    "county": "Baker County",
    "created_at": "2012-01-04T20:16:57Z",
    "id": 19971,
    "latitude": "44.448135",
    "longitude": "-118.193784",
    "mascot": "Bulls",
    "name": "Burnt River School",
    "primary_color": "Gold",
    "secondary_color": "Royal",
    "state": "OR",
    "timezone": "America/Los_Angeles",
    "updated_at": "2012-07-08T00:54:45Z",
    "zip": "97884"
  },
  {
    "address": "375A N Main St",
    "city": "Halfway",
    "county": "Baker County",
    "created_at": "2012-01-04T20:16:57Z",
    "id": 19972,
    "latitude": "44.882744",
    "longitude": "-117.114667",
    "mascot": "Spartans",
    "name": "Pine Eagle High School",
    "primary_color": "Red",
    "secondary_color": "White",
    "state": "OR",
    "timezone": "America/Los_Angeles",
    "updated_at": "2012-07-08T00:54:46Z",
    "zip": "97834"
  },
  {
    "address": "301 S 3rd",
    "city": "Alsea",
    "county": "Benton County",
    "created_at": "2012-01-04T20:16:57Z",
    "id": 19973,
    "latitude": "44.380948",
    "longitude": "-123.595511",
    "mascot": "Wolverines",
    "name": "Alsea School",
    "primary_color": "Royal",
    "secondary_color": "White",
    "state": "OR",
    "timezone": "America/Los_Angeles",
    "updated_at": "2012-07-08T00:54:46Z",
    "zip": "97324"
  },
  {
    "address": "4545 NE Hwy 20",
    "city": "Corvallis",
    "county": "Benton County",
    "created_at": "2012-01-04T20:16:57Z",
    "id": 19974,
    "latitude": "44.609499",
    "longitude": "-123.217048",
    "mascot": "Mustangs",
    "name": "Farm Home School",
    "primary_color": "Navy",
    "secondary_color": "White",
    "state": "OR",
    "timezone": "America/Los_Angeles",
    "updated_at": "2012-07-08T00:54:46Z",
    "zip": "97330"
  },
  {
    "address": "4444 NW Highland Dr",
    "city": "Corvallis",
    "county": "Benton County",
    "created_at": "2012-01-04T20:16:57Z",
    "id": 19975,
    "latitude": "44.615360",
    "longitude": "-123.262278",
    "mascot": "Raiders",
    "name": "Crescent Valley High School",
    "primary_color": "Gold",
    "secondary_color": "Red",
    "state": "OR",
    "timezone": "America/Los_Angeles",
    "updated_at": "2012-07-08T00:54:46Z",
    "zip": "97330"
  },
  {
    "address": "365 N 5th",
    "city": "Monroe",
    "county": "Benton County",
    "created_at": "2012-01-04T20:16:57Z",
    "id": 19976,
    "latitude": "44.318947",
    "longitude": "-123.298068",
    "mascot": "Dragons",
    "name": "Monroe Union High School",
    "primary_color": "Orange",
    "secondary_color": "Royal",
    "state": "OR",
    "timezone": "America/Los_Angeles",
    "updated_at": "2012-07-08T00:54:47Z",
    "zip": "97456"
  },
  {
    "address": "2054 Applegate St",
    "city": "Philomath",
    "county": "Benton County",
    "created_at": "2012-01-04T20:16:57Z",
    "id": 19977,
    "latitude": "44.538855",
    "longitude": "-123.356505",
    "mascot": "Warriors",
    "name": "Philomath High School",
    "primary_color": "Gold",
    "secondary_color": "Black",
    "state": "OR",
    "timezone": "America/Los_Angeles",
    "updated_at": "2012-07-08T00:54:47Z",
    "zip": "97370"
  },
  {
    "address": "355 NE 6th Ave",
    "city": "Estacada",
    "county": "Clackamas County",
    "created_at": "2012-01-04T20:16:57Z",
    "id": 19978,
    "latitude": "45.294349",
    "longitude": "-122.332159",
    "mascot": "Rangers",
    "name": "Estacada High School",
    "primary_color": "Kelly Green",
    "secondary_color": "White",
    "state": "OR",
    "timezone": "America/Los_Angeles",
    "updated_at": "2012-07-08T00:54:47Z",
    "zip": "97023"
  },
  {
    "address": "18800 Portland Ave",
    "city": "Gladstone",
    "county": "Clackamas County",
    "created_at": "2012-01-04T20:16:57Z",
    "id": 19979,
    "latitude": "45.387221",
    "longitude": "-122.599183",
    "mascot": "Gladiators",
    "name": "Gladstone High School",
    "primary_color": "Orange",
    "secondary_color": "Black",
    "state": "OR",
    "timezone": "America/Los_Angeles",
    "updated_at": "2012-07-08T00:54:47Z",
    "zip": "97027"
  },
  {
    "address": "357 Francis St",
    "city": "Molalla",
    "county": "Clackamas County",
    "created_at": "2012-01-04T20:16:57Z",
    "id": 19980,
    "latitude": "45.152446",
    "longitude": "-122.569628",
    "mascot": "Indians",
    "name": "Molalla Union High School",
    "primary_color": "Orange",
    "secondary_color": "Black",
    "state": "OR",
    "timezone": "America/Los_Angeles",
    "updated_at": "2012-07-08T00:54:48Z",
    "zip": "97038"
  },
  {
    "address": "17100 SE Bluff Rd",
    "city": "Sandy",
    "county": "Clackamas County",
    "created_at": "2012-01-04T20:16:57Z",
    "id": 19981,
    "latitude": "45.398703",
    "longitude": "-122.270451",
    "mascot": "Pioneers",
    "name": "Sandy High School",
    "primary_color": "Red",
    "secondary_color": "Black",
    "state": "OR",
    "timezone": "America/Los_Angeles",
    "updated_at": "2012-07-08T00:54:48Z",
    "zip": "97055"
  },
  {
    "address": "5464 W A St",
    "city": "West Linn",
    "county": "Clackamas County",
    "created_at": "2012-01-04T20:16:57Z",
    "id": 19982,
    "latitude": "45.363340",
    "longitude": "-122.614665",
    "mascot": "Lions",
    "name": "West Linn High School",
    "primary_color": "Gold",
    "secondary_color": "Kelly Green",
    "state": "OR",
    "timezone": "America/Los_Angeles",
    "updated_at": "2012-07-08T00:54:48Z",
    "zip": "97068"
  },
  {
    "address": "14486 SE 122nd Ave",
    "city": "Clackamas",
    "county": "Clackamas County",
    "created_at": "2012-01-04T20:16:57Z",
    "id": 19983,
    "latitude": "45.418173",
    "longitude": "-122.537993",
    "mascot": "Cavaliers",
    "name": "Clackamas High School",
    "primary_color": "Red",
    "secondary_color": "Black",
    "state": "OR",
    "timezone": "America/Los_Angeles",
    "updated_at": "2012-07-08T00:54:49Z",
    "zip": "97015"
  },
  {
    "address": "11300 SE 23rd Ave",
    "city": "Milwaukie",
    "county": "Clackamas County",
    "created_at": "2012-01-04T20:16:57Z",
    "id": 19984,
    "latitude": "45.442340",
    "longitude": "-122.638334",
    "mascot": "Mustangs",
    "name": "Milwaukie High School",
    "primary_color": "Gold",
    "secondary_color": "Maroon",
    "state": "OR",
    "timezone": "America/Los_Angeles",
    "updated_at": "2012-07-08T00:54:49Z",
    "zip": "97222"
  },
  {
    "address": "4950 SE Roethe Rd",
    "city": "Milwaukie",
    "county": "Clackamas County",
    "created_at": "2012-01-04T20:16:57Z",
    "id": 19985,
    "latitude": "45.402312",
    "longitude": "-122.611811",
    "mascot": "Kingsmen",
    "name": "Rex Putnam High School",
    "primary_color": "Gold",
    "secondary_color": "Hunter Green",
    "state": "OR",
    "timezone": "America/Los_Angeles",
    "updated_at": "2012-07-08T00:54:49Z",
    "zip": "97267"
  },
  {
    "address": "1001 W Marine Dr",
    "city": "Astoria",
    "county": "Clatsop County",
    "created_at": "2012-01-04T20:16:57Z",
    "id": 19986,
    "latitude": "46.174534",
    "longitude": "-123.847697",
    "mascot": "Fishermen",
    "name": "Astoria High School",
    "primary_color": "Gold",
    "secondary_color": "Purple",
    "state": "OR",
    "timezone": "America/Los_Angeles",
    "updated_at": "2012-07-08T00:54:49Z",
    "zip": "97103"
  },
  {
    "address": "83874 Hwy 103",
    "city": "Seaside",
    "county": "Clatsop County",
    "created_at": "2012-01-04T20:16:57Z",
    "id": 19987,
    "latitude": "45.930222",
    "longitude": "-123.498247",
    "mascot": "Blue Jays",
    "name": "Jewell School",
    "primary_color": "Gold",
    "secondary_color": "Royal",
    "state": "OR",
    "timezone": "America/Los_Angeles",
    "updated_at": "2012-07-08T00:54:49Z",
    "zip": "97138"
  },
  {
    "address": "1901 N Holladay Dr",
    "city": "Seaside",
    "county": "Clatsop County",
    "created_at": "2012-01-04T20:16:57Z",
    "id": 19988,
    "latitude": "46.007128",
    "longitude": "-123.917781",
    "mascot": "Seagulls",
    "name": "Seaside High School",
    "primary_color": "Red",
    "secondary_color": "White",
    "state": "OR",
    "timezone": "America/Los_Angeles",
    "updated_at": "2012-07-08T00:54:50Z",
    "zip": "97138"
  },
  {
    "address": "1700 SE Main St",
    "city": "Warrenton",
    "county": "Clatsop County",
    "created_at": "2012-01-04T20:16:57Z",
    "id": 19989,
    "latitude": "46.147766",
    "longitude": "-123.928750",
    "mascot": "Warriors",
    "name": "Warrenton High School",
    "primary_color": "Purple",
    "secondary_color": "White",
    "state": "OR",
    "timezone": "America/Los_Angeles",
    "updated_at": "2012-07-08T00:54:50Z",
    "zip": "97146"
  },
  {
    "address": "117 SW Billair Dr",
    "city": "Clatskanie",
    "county": "Columbia County",
    "created_at": "2012-01-04T20:16:57Z",
    "id": 19990,
    "latitude": "46.104835",
    "longitude": "-123.206836",
    "mascot": "Tigers",
    "name": "Clatskanie Junior Senior High School",
    "primary_color": "Red",
    "secondary_color": "White",
    "state": "OR",
    "timezone": "America/Los_Angeles",
    "updated_at": "2012-07-08T00:54:51Z",
    "zip": "97016"
  },
  {
    "address": "41535 Old Hwy 30",
    "city": "Astoria",
    "county": "Clatsop County",
    "created_at": "2012-01-04T20:16:57Z",
    "id": 19991,
    "latitude": "46.161247",
    "longitude": "-123.622412",
    "mascot": "Loggers",
    "name": "Knappa High School",
    "primary_color": "Gold",
    "secondary_color": "Royal",
    "state": "OR",
    "timezone": "America/Los_Angeles",
    "updated_at": "2012-07-08T00:54:51Z",
    "zip": "97103"
  },
  {
    "address": "471 SW Belair Dr",
    "city": "Clatskanie",
    "county": "Columbia County",
    "created_at": "2012-01-04T20:16:57Z",
    "id": 19992,
    "latitude": "46.104520",
    "longitude": "-123.209671",
    "mascot": "Tigers",
    "name": "Clatskanie Middle High School",
    "primary_color": "Red",
    "secondary_color": "Black",
    "state": "OR",
    "timezone": "America/Los_Angeles",
    "updated_at": "2012-07-08T00:54:51Z",
    "zip": "97016"
  },
  {
    "address": "28170 Old Rainier Rd",
    "city": "Rainier",
    "county": "Columbia County",
    "created_at": "2012-01-04T20:16:57Z",
    "id": 19993,
    "latitude": "46.094153",
    "longitude": "-122.986255",
    "mascot": "Columbians",
    "name": "Rainier Junior Senior High School",
    "primary_color": "Kelly Green",
    "secondary_color": "White",
    "state": "OR",
    "timezone": "America/Los_Angeles",
    "updated_at": "2012-07-08T00:54:51Z",
    "zip": "97048"
  },
  {
    "address": "2375 Gable Rd",
    "city": "Saint Helens",
    "county": "Columbia County",
    "created_at": "2012-01-04T20:16:57Z",
    "id": 19994,
    "latitude": "45.849956",
    "longitude": "-122.833940",
    "mascot": "Lions",
    "name": "Saint Helens High School",
    "primary_color": "Yellow",
    "secondary_color": "Black",
    "state": "OR",
    "timezone": "America/Los_Angeles",
    "updated_at": "2012-07-08T00:54:52Z",
    "zip": "97051"
  },
  {
    "address": "299 Bridge St",
    "city": "Vernonia",
    "county": "Columbia County",
    "created_at": "2012-01-04T20:16:57Z",
    "id": 19995,
    "latitude": "45.858763",
    "longitude": "-123.188360",
    "mascot": "Loggers",
    "name": "Vernonia High School",
    "primary_color": "Royal",
    "secondary_color": "Gold",
    "state": "OR",
    "timezone": "America/Los_Angeles",
    "updated_at": "2012-07-08T00:54:52Z",
    "zip": "97064"
  },
  {
    "address": "550 9th St SW",
    "city": "Bandon",
    "county": "Coos County",
    "created_at": "2012-01-04T20:16:57Z",
    "id": 19996,
    "latitude": "43.115154",
    "longitude": "-124.420317",
    "mascot": "Tigers",
    "name": "Bandon High School",
    "primary_color": "Gold",
    "secondary_color": "Black",
    "state": "OR",
    "timezone": "America/Los_Angeles",
    "updated_at": "2012-07-08T00:54:52Z",
    "zip": "97411"
  },
  {
    "address": "499 W Central Blvd",
    "city": "Coquille",
    "county": "Coos County",
    "created_at": "2012-01-04T20:16:57Z",
    "id": 19997,
    "latitude": "43.186553",
    "longitude": "-124.194041",
    "mascot": "Red Devils",
    "name": "Coquille High School",
    "primary_color": "Red",
    "secondary_color": "White",
    "state": "OR",
    "timezone": "America/Los_Angeles",
    "updated_at": "2012-07-08T00:54:52Z",
    "zip": "97423"
  },
  {
    "address": "1100 SE Lynn Blvd",
    "city": "Prineville",
    "county": "Crook County",
    "created_at": "2012-01-04T20:16:57Z",
    "id": 19998,
    "latitude": "44.294331",
    "longitude": "-120.835232",
    "mascot": "Cowboys",
    "name": "Crook County High School",
    "primary_color": "Gold",
    "secondary_color": "Royal",
    "state": "OR",
    "timezone": "America/Los_Angeles",
    "updated_at": "2012-07-08T00:54:53Z",
    "zip": "97754"
  },
  {
    "address": "629 Easy Street",
    "city": "Brookings",
    "county": "Curry County",
    "created_at": "2012-01-04T20:16:57Z",
    "id": 19999,
    "latitude": "42.058497",
    "longitude": "-124.280873",
    "mascot": "Bears",
    "name": "Brookings Harbor High School",
    "primary_color": "Gold",
    "secondary_color": "Royal",
    "state": "OR",
    "timezone": "America/Los_Angeles",
    "updated_at": "2012-07-08T00:54:53Z",
    "zip": "97415"
  },
  {
    "address": "29516 Ellensburg Ave",
    "city": "Gold Beach",
    "county": "Curry County",
    "created_at": "2012-01-04T20:16:57Z",
    "id": 20000,
    "latitude": "42.408519",
    "longitude": "-124.420785",
    "mascot": "Panthers",
    "name": "Gold Beach High School",
    "primary_color": "Kelly Green",
    "secondary_color": "Black",
    "state": "OR",
    "timezone": "America/Los_Angeles",
    "updated_at": "2012-07-08T00:54:53Z",
    "zip": "97444"
  },
  {
    "address": "45525 Hwy 101",
    "city": "Port Orford",
    "county": "Curry County",
    "created_at": "2012-01-04T20:16:57Z",
    "id": 20001,
    "latitude": "42.806570",
    "longitude": "-124.484419",
    "mascot": "Pirates",
    "name": "Pacific High School",
    "primary_color": "Purple",
    "secondary_color": "White",
    "state": "OR",
    "timezone": "America/Los_Angeles",
    "updated_at": "2012-07-08T00:54:54Z",
    "zip": "97465"
  },
  {
    "address": "230 NE 6th St",
    "city": "Bend",
    "county": "Deschutes County",
    "created_at": "2012-01-04T20:16:57Z",
    "id": 20002,
    "latitude": "44.052630",
    "longitude": "-121.297171",
    "mascot": "Lava Bears",
    "name": "Bend Senior High School",
    "primary_color": "Gold",
    "secondary_color": "Navy",
    "state": "OR",
    "timezone": "America/Los_Angeles",
    "updated_at": "2012-07-08T00:54:54Z",
    "zip": "97701"
  },
  {
    "address": "2755 NE 27th St",
    "city": "Bend",
    "county": "Deschutes County",
    "created_at": "2012-01-04T20:16:57Z",
    "id": 20003,
    "latitude": "44.078216",
    "longitude": "-121.263757",
    "mascot": "Cougars",
    "name": "Mountain View High School",
    "primary_color": "Red",
    "secondary_color": "Black",
    "state": "OR",
    "timezone": "America/Los_Angeles",
    "updated_at": "2012-07-08T00:54:54Z",
    "zip": "97701"
  },
  {
    "address": "51633 Coach Rd",
    "city": "La Pine",
    "county": "Deschutes County",
    "created_at": "2012-01-04T20:16:57Z",
    "id": 20004,
    "latitude": "43.677014",
    "longitude": "-121.505547",
    "mascot": "Hawks",
    "name": "La Pine High School",
    "primary_color": "Gold",
    "secondary_color": "Navy",
    "state": "OR",
    "timezone": "America/Los_Angeles",
    "updated_at": "2012-07-08T00:54:54Z",
    "zip": "97739"
  },
  {
    "address": "197 Main Camas Rd",
    "city": "Camas Valley",
    "county": "Douglas County",
    "created_at": "2012-01-04T20:16:57Z",
    "id": 20005,
    "latitude": "43.034012",
    "longitude": "-123.675116",
    "mascot": "Hornets",
    "name": "Camas Valley School",
    "primary_color": "Gold",
    "secondary_color": "Black",
    "state": "OR",
    "timezone": "America/Los_Angeles",
    "updated_at": "2012-07-08T00:54:54Z",
    "zip": "97416"
  },
  {
    "address": "11381 Tiller Trail Hwy",
    "city": "Days Creek",
    "county": "Douglas County",
    "created_at": "2012-01-04T20:16:57Z",
    "id": 20006,
    "latitude": "42.969687",
    "longitude": "-123.162937",
    "mascot": "Wolves",
    "name": "Days Creek Middle School",
    "primary_color": "Red",
    "secondary_color": "White",
    "state": "OR",
    "timezone": "America/Los_Angeles",
    "updated_at": "2012-07-08T00:54:55Z",
    "zip": "97429"
  },
  {
    "address": "305 S Maine St",
    "city": "Drain",
    "county": "Douglas County",
    "created_at": "2012-01-04T20:16:57Z",
    "id": 20007,
    "latitude": "43.659981",
    "longitude": "-123.311950",
    "mascot": "Willie Warriors",
    "name": "North Douglas High School",
    "primary_color": "Red",
    "secondary_color": "White",
    "state": "OR",
    "timezone": "America/Los_Angeles",
    "updated_at": "2012-07-08T00:54:55Z",
    "zip": "97435"
  },
  {
    "address": "739 River Drive",
    "city": "Elkton",
    "county": "Douglas County",
    "created_at": "2012-01-04T20:16:57Z",
    "id": 20008,
    "latitude": "43.637513",
    "longitude": "-123.570543",
    "mascot": "Elks",
    "name": "Elkton High School",
    "primary_color": "Red",
    "secondary_color": "White",
    "state": "OR",
    "timezone": "America/Los_Angeles",
    "updated_at": "2012-07-08T00:54:55Z",
    "zip": "97436"
  },
  {
    "address": "10598 Azalea Glen Rd",
    "city": "Glendale",
    "county": "Douglas County",
    "created_at": "2012-01-04T20:16:57Z",
    "id": 20009,
    "latitude": "42.743270",
    "longitude": "-123.415162",
    "mascot": "Pirates",
    "name": "Glendale Junior Senior High School",
    "primary_color": "Red",
    "secondary_color": "White",
    "state": "OR",
    "timezone": "America/Los_Angeles",
    "updated_at": "2012-07-08T00:54:56Z",
    "zip": "97442"
  },
  {
    "address": "18990 N Umpqua Hwy",
    "city": "Glide",
    "county": "Douglas County",
    "created_at": "2012-01-04T20:16:57Z",
    "id": 20010,
    "latitude": "43.298260",
    "longitude": "-123.098049",
    "mascot": "Wildcats",
    "name": "Glide High School",
    "primary_color": "Gold",
    "secondary_color": "Royal",
    "state": "OR",
    "timezone": "America/Los_Angeles",
    "updated_at": "2012-07-08T00:54:56Z",
    "zip": "97443"
  },
  {
    "address": "521 NE Spruce Street",
    "city": "Oakland",
    "county": "Douglas County",
    "created_at": "2012-01-04T20:16:57Z",
    "id": 20011,
    "latitude": "43.427321",
    "longitude": "-123.299459",
    "mascot": "Mighty Oakers",
    "name": "Oakland High School",
    "primary_color": "Gold",
    "secondary_color": "Royal",
    "state": "OR",
    "timezone": "America/Los_Angeles",
    "updated_at": "2012-07-08T00:54:56Z",
    "zip": "97462"
  },
  {
    "address": "147 S. Main Street ",
    "city": "Riddle",
    "county": "Douglas County",
    "created_at": "2012-01-04T20:16:57Z",
    "id": 20012,
    "latitude": "42.948998",
    "longitude": "-123.364490",
    "mascot": "Leprechauns",
    "name": "Riddle Junior Senior High School",
    "primary_color": "Kelly Green",
    "secondary_color": "White",
    "state": "OR",
    "timezone": "America/Los_Angeles",
    "updated_at": "2012-07-08T00:54:56Z",
    "zip": "97469"
  },
  {
    "address": "292 5th Ave",
    "city": "Yoncalla",
    "county": "Douglas County",
    "created_at": "2012-01-04T20:16:57Z",
    "id": 20013,
    "latitude": "43.595848",
    "longitude": "-123.283834",
    "mascot": "Eagles",
    "name": "Yoncalla High School",
    "primary_color": "Gold",
    "secondary_color": "Navy",
    "state": "OR",
    "timezone": "America/Los_Angeles",
    "updated_at": "2012-07-08T00:54:57Z",
    "zip": "97499"
  },
  {
    "address": "501 NW Chadwick Ln",
    "city": "Myrtle Creek",
    "county": "Douglas County",
    "created_at": "2012-01-04T20:16:57Z",
    "id": 20014,
    "latitude": "42.985641",
    "longitude": "-123.328819",
    "mascot": "Lancers",
    "name": "South Umpqua High School",
    "primary_color": "Gold",
    "secondary_color": "Black",
    "state": "OR",
    "timezone": "America/Los_Angeles",
    "updated_at": "2012-07-08T00:54:57Z",
    "zip": "97457"
  },
  {
    "address": "1200 Main St",
    "city": "Arlington",
    "county": "Gilliam County",
    "created_at": "2012-01-04T20:16:57Z",
    "id": 20015,
    "latitude": "45.712900",
    "longitude": "-120.200709",
    "mascot": "Honkers",
    "name": "Arlington High School",
    "primary_color": "Royal",
    "secondary_color": "Gold",
    "state": "OR",
    "timezone": "America/Los_Angeles",
    "updated_at": "2012-07-08T00:54:57Z",
    "zip": "97812"
  },
  {
    "address": "210 E Bayard",
    "city": "Condon",
    "county": "Gilliam County",
    "created_at": "2012-01-04T20:16:57Z",
    "id": 20016,
    "latitude": "45.232282",
    "longitude": "-120.183599",
    "mascot": "Blue Devils",
    "name": "Condon High School",
    "primary_color": "Red",
    "secondary_color": "Royal",
    "state": "OR",
    "timezone": "America/Los_Angeles",
    "updated_at": "2012-07-08T00:54:58Z",
    "zip": "97823"
  },
  {
    "address": "1 Old School Rd",
    "city": "Dayville",
    "county": "Grant County",
    "created_at": "2012-01-04T20:16:57Z",
    "id": 20017,
    "latitude": "44.466031",
    "longitude": "-119.529758",
    "mascot": "MD Tigers",
    "name": "Dayville School District",
    "primary_color": "Orange",
    "secondary_color": "Kelly Green",
    "state": "OR",
    "timezone": "America/Los_Angeles",
    "updated_at": "2012-07-08T00:54:58Z",
    "zip": "97825"
  },
  {
    "address": "911 S Canyon Blvd",
    "city": "John Day",
    "county": "Grant County",
    "created_at": "2012-01-04T20:16:57Z",
    "id": 20018,
    "latitude": "44.405374",
    "longitude": "-118.947898",
    "mascot": "Prospectors",
    "name": "Grant Union High School",
    "primary_color": "Red",
    "secondary_color": "Black",
    "state": "OR",
    "timezone": "America/Los_Angeles",
    "updated_at": "2012-07-08T00:54:58Z",
    "zip": "97845"
  },
  {
    "address": "740 Overholt St",
    "city": "Prairie City",
    "county": "Grant County",
    "created_at": "2012-01-04T20:16:57Z",
    "id": 20019,
    "latitude": "44.456232",
    "longitude": "-118.708439",
    "mascot": "Panthers",
    "name": "Prairie City School",
    "primary_color": "Orange",
    "secondary_color": "Black",
    "state": "OR",
    "timezone": "America/Los_Angeles",
    "updated_at": "2012-07-08T00:54:59Z",
    "zip": "97869"
  },
  {
    "address": "1100 Oregon Ave",
    "city": "Burns",
    "county": "Harney County",
    "created_at": "2012-01-04T20:16:57Z",
    "id": 20020,
    "latitude": "43.576393",
    "longitude": "-119.072544",
    "mascot": "Hilanders",
    "name": "Burns High School",
    "primary_color": "Gold",
    "secondary_color": "Purple",
    "state": "OR",
    "timezone": "America/Los_Angeles",
    "updated_at": "2012-07-08T00:54:59Z",
    "zip": "97720"
  },
  {
    "address": "5th & Donaldson",
    "city": "Crane",
    "county": "Harney County",
    "created_at": "2012-01-04T20:16:57Z",
    "id": 20021,
    "latitude": "43.415081",
    "longitude": "-118.578407",
    "mascot": "Mustangs",
    "name": "Crane Union High School",
    "primary_color": "Royal",
    "secondary_color": "White",
    "state": "OR",
    "timezone": "America/Los_Angeles",
    "updated_at": "2012-07-08T00:54:59Z",
    "zip": "97732"
  },
  {
    "address": "300 Wanapa",
    "city": "Cascade Locks",
    "county": "Hood River County",
    "created_at": "2012-01-04T20:16:57Z",
    "id": 20022,
    "latitude": "45.668811",
    "longitude": "-121.893118",
    "mascot": "Pirates",
    "name": "Cascade Locks School",
    "primary_color": "Gold",
    "secondary_color": "Royal",
    "state": "OR",
    "timezone": "America/Los_Angeles",
    "updated_at": "2012-07-08T00:54:59Z",
    "zip": "97014"
  },
  {
    "address": "1220 Indian Creek Rd",
    "city": "Hood River",
    "county": "Hood River County",
    "created_at": "2012-01-04T20:16:57Z",
    "id": 20023,
    "latitude": "45.685820",
    "longitude": "-121.543238",
    "mascot": "Eagles",
    "name": "Hood River Valley High School",
    "primary_color": "Gold",
    "secondary_color": "Navy",
    "state": "OR",
    "timezone": "America/Los_Angeles",
    "updated_at": "2012-07-08T00:55:00Z",
    "zip": "97031"
  },
  {
    "address": "201 S Mountain Ave",
    "city": "Ashland",
    "county": "Jackson County",
    "created_at": "2012-01-04T20:16:57Z",
    "id": 20024,
    "latitude": "42.190300",
    "longitude": "-122.699258",
    "mascot": "Grizzlies",
    "name": "Ashland High School",
    "primary_color": "Red",
    "secondary_color": "White",
    "state": "OR",
    "timezone": "America/Los_Angeles",
    "updated_at": "2012-07-08T00:55:00Z",
    "zip": "97520"
  },
  {
    "address": "720 Laurel Ave",
    "city": "Butte Falls",
    "county": "Jackson County",
    "created_at": "2012-01-04T20:16:57Z",
    "id": 20025,
    "latitude": "42.541188",
    "longitude": "-122.564560",
    "mascot": "Loggers",
    "name": "Butte Falls High School",
    "primary_color": "Kelly Green",
    "secondary_color": "White",
    "state": "OR",
    "timezone": "America/Los_Angeles",
    "updated_at": "2012-07-08T00:55:00Z",
    "zip": "97522"
  },
  {
    "address": "745 N Rose St",
    "city": "Phoenix",
    "county": "Jackson County",
    "created_at": "2012-01-04T20:16:57Z",
    "id": 20026,
    "latitude": "42.276978",
    "longitude": "-122.823813",
    "mascot": "Pirates",
    "name": "Phoenix High School",
    "primary_color": "Red",
    "secondary_color": "Royal",
    "state": "OR",
    "timezone": "America/Los_Angeles",
    "updated_at": "2012-07-08T00:55:00Z",
    "zip": "97535"
  },
  {
    "address": "160 Mill Crk",
    "city": "Prospect",
    "county": "Jackson County",
    "created_at": "2012-01-04T20:16:57Z",
    "id": 20027,
    "latitude": "42.754669",
    "longitude": "-122.488602",
    "mascot": "Cougars",
    "name": "Prospect High School",
    "primary_color": "Navy",
    "secondary_color": "White",
    "state": "OR",
    "timezone": "America/Los_Angeles",
    "updated_at": "2012-07-08T00:55:01Z",
    "zip": "97536"
  },
  {
    "address": "PO Box 1045",
    "city": "Rogue River",
    "county": "Jackson County",
    "created_at": "2012-01-04T20:16:57Z",
    "id": 20028,
    "latitude": "42.595554",
    "longitude": "-123.135017",
    "mascot": "Chieftains",
    "name": "Rogue River High School",
    "primary_color": "Gold",
    "secondary_color": "Hunter Green",
    "state": "OR",
    "timezone": "America/Los_Angeles",
    "updated_at": "2012-07-08T00:55:01Z",
    "zip": "97537"
  },
  {
    "address": "625 E River St",
    "city": "Cave Junction",
    "county": "Josephine County",
    "created_at": "2012-01-04T20:16:57Z",
    "id": 20029,
    "latitude": "42.168354",
    "longitude": "-123.632461",
    "mascot": "Cougars",
    "name": "Illinois Valley High School",
    "primary_color": "Red",
    "secondary_color": "Black",
    "state": "OR",
    "timezone": "America/Los_Angeles",
    "updated_at": "2012-07-08T00:55:01Z",
    "zip": "97523"
  },
  {
    "address": "31601 Mission St",
    "city": "Bonanza",
    "county": "Klamath County",
    "created_at": "2012-01-04T20:16:57Z",
    "id": 20030,
    "latitude": "42.199536",
    "longitude": "-121.406369",
    "mascot": "Antlers",
    "name": "Bonanza School",
    "primary_color": "Red",
    "secondary_color": "White",
    "state": "OR",
    "timezone": "America/Los_Angeles",
    "updated_at": "2012-07-08T00:55:02Z",
    "zip": "97623"
  },
  {
    "address": "300 Elm St",
    "city": "Chiloquin",
    "county": "Klamath County",
    "created_at": "2012-01-04T20:16:57Z",
    "id": 20031,
    "latitude": "42.568510",
    "longitude": "-121.860419",
    "mascot": "Panthers",
    "name": "Chiloquin Junior Senior High School",
    "primary_color": "Columbia Blue",
    "secondary_color": "White",
    "state": "OR",
    "timezone": "America/Los_Angeles",
    "updated_at": "2012-07-08T00:55:02Z",
    "zip": "97624"
  },
  {
    "address": "23330 Hwy 50",
    "city": "Merrill",
    "county": "Klamath County",
    "created_at": "2012-01-04T20:16:58Z",
    "id": 20032,
    "latitude": "42.016912",
    "longitude": "-121.503267",
    "mascot": "Raiders",
    "name": "Lost River Junior Senior High School",
    "primary_color": "Gold",
    "secondary_color": "Black",
    "state": "OR",
    "timezone": "America/Los_Angeles",
    "updated_at": "2012-07-08T00:55:02Z",
    "zip": "97633"
  },
  {
    "address": "906 S 3rd St",
    "city": "Lakeview",
    "county": "Lake County",
    "created_at": "2012-01-04T20:16:58Z",
    "id": 20033,
    "latitude": "42.185847",
    "longitude": "-120.350205",
    "mascot": "Honkers",
    "name": "Lakeview High School",
    "primary_color": "Gold",
    "secondary_color": "Navy",
    "state": "OR",
    "timezone": "America/Los_Angeles",
    "updated_at": "2012-07-08T00:55:02Z",
    "zip": "97630"
  },
  {
    "address": "260 Green St",
    "city": "Paisley",
    "county": "Lake County",
    "created_at": "2012-01-04T20:16:58Z",
    "id": 20034,
    "latitude": "42.693665",
    "longitude": "-120.543330",
    "mascot": "Broncos",
    "name": "Paisley Charter School",
    "primary_color": "Maroon",
    "secondary_color": "White",
    "state": "OR",
    "timezone": "America/Los_Angeles",
    "updated_at": "2012-07-08T00:55:02Z",
    "zip": "97636"
  },
  {
    "address": "33390 Nieblock Ln",
    "city": "Creswell",
    "county": "Lane County",
    "created_at": "2012-01-04T20:16:58Z",
    "id": 20035,
    "latitude": "43.926391",
    "longitude": "-123.028184",
    "mascot": "Bulldogs",
    "name": "Creswell High School",
    "primary_color": "Red",
    "secondary_color": "White",
    "state": "OR",
    "timezone": "America/Los_Angeles",
    "updated_at": "2012-07-08T00:55:03Z",
    "zip": "97426"
  },
  {
    "address": "25863 Crow Rd",
    "city": "Eugene",
    "county": "Lane County",
    "created_at": "2012-01-04T20:16:58Z",
    "id": 20036,
    "latitude": "43.986172",
    "longitude": "-123.318520",
    "mascot": "Cougars",
    "name": "Crow High School",
    "primary_color": "Columbia Blue",
    "secondary_color": "Red",
    "state": "OR",
    "timezone": "America/Los_Angeles",
    "updated_at": "2012-07-08T00:55:03Z",
    "zip": "97402"
  },
  {
    "address": "2455 Willakenzie Rd",
    "city": "Eugene",
    "county": "Lane County",
    "created_at": "2012-01-04T20:16:58Z",
    "id": 20037,
    "latitude": "44.080161",
    "longitude": "-123.073455",
    "mascot": "Fighting Irish",
    "name": "Henry D Sheldon High School",
    "primary_color": "Kelly Green",
    "secondary_color": "White",
    "state": "OR",
    "timezone": "America/Los_Angeles",
    "updated_at": "2012-07-08T00:55:03Z",
    "zip": "97401"
  },
  {
    "address": "400 E 19th Ave",
    "city": "Eugene",
    "county": "Lane County",
    "created_at": "2012-01-04T20:16:58Z",
    "id": 20038,
    "latitude": "44.038932",
    "longitude": "-123.086621",
    "mascot": "Ax Men",
    "name": "South Eugene High School",
    "primary_color": "Purple",
    "secondary_color": "White",
    "state": "OR",
    "timezone": "America/Los_Angeles",
    "updated_at": "2012-07-08T00:55:04Z",
    "zip": "97401"
  },
  {
    "address": "3411B Willamette",
    "city": "Eugene",
    "county": "Lane County",
    "created_at": "2012-01-04T20:16:58Z",
    "id": 20039,
    "latitude": "44.019177",
    "longitude": "-123.092226",
    "mascot": "Phoenix",
    "name": "Opportunity Center",
    "primary_color": "Black",
    "secondary_color": "Navy",
    "state": "OR",
    "timezone": "America/Los_Angeles",
    "updated_at": "2012-07-08T00:55:04Z",
    "zip": "97405"
  },
  {
    "address": "2975 Oak St",
    "city": "Florence",
    "county": "Lane County",
    "created_at": "2012-01-04T20:16:58Z",
    "id": 20040,
    "latitude": "43.992433",
    "longitude": "-124.103927",
    "mascot": "Vikings",
    "name": "Siuslaw High School",
    "primary_color": "Gold",
    "secondary_color": "Royal",
    "state": "OR",
    "timezone": "America/Los_Angeles",
    "updated_at": "2012-07-08T00:55:04Z",
    "zip": "97439"
  },
  {
    "address": "1135 W 6th Ave",
    "city": "Junction City",
    "county": "Lane County",
    "created_at": "2012-01-04T20:16:58Z",
    "id": 20041,
    "latitude": "44.218952",
    "longitude": "-123.212619",
    "mascot": "Tigers",
    "name": "Junction City High School",
    "primary_color": "Maroon",
    "secondary_color": "Gold",
    "state": "OR",
    "timezone": "America/Los_Angeles",
    "updated_at": "2012-07-08T00:55:04Z",
    "zip": "97448"
  },
  {
    "address": "65 S Pioneer St",
    "city": "Lowell",
    "county": "Lane County",
    "created_at": "2012-01-04T20:16:58Z",
    "id": 20042,
    "latitude": "43.917632",
    "longitude": "-122.780511",
    "mascot": "Red Devils",
    "name": "Lowell High School",
    "primary_color": "Black",
    "secondary_color": "White",
    "state": "OR",
    "timezone": "America/Los_Angeles",
    "updated_at": "2012-07-08T00:55:05Z",
    "zip": "97452"
  },
  {
    "address": "51187 Blue River Dr",
    "city": "Finn Rock",
    "county": "Lane County",
    "created_at": "2012-01-04T20:16:58Z",
    "id": 20043,
    "latitude": "44.156107",
    "longitude": "-122.342975",
    "mascot": "Eagles",
    "name": "McKenzie River High School",
    "primary_color": "Gold",
    "secondary_color": "Kelly Green",
    "state": "OR",
    "timezone": "America/Los_Angeles",
    "updated_at": "2012-07-08T00:55:05Z",
    "zip": "97488"
  },
  {
    "address": "10868 E Mapleton Rd",
    "city": "Mapleton",
    "county": "Lane County",
    "created_at": "2012-01-04T20:16:58Z",
    "id": 20044,
    "latitude": "44.035587",
    "longitude": "-123.856275",
    "mascot": "Sailors",
    "name": "Mapleton High School",
    "primary_color": "Royal",
    "secondary_color": "White",
    "state": "OR",
    "timezone": "America/Los_Angeles",
    "updated_at": "2012-07-08T00:55:05Z",
    "zip": "97453"
  },
  {
    "address": "38300 Wendling Rd",
    "city": "Marcola",
    "county": "Lane County",
    "created_at": "2012-01-04T20:16:58Z",
    "id": 20045,
    "latitude": "44.171500",
    "longitude": "-122.853893",
    "mascot": "Indians",
    "name": "Mohawk High School",
    "primary_color": "Black",
    "secondary_color": "Orange",
    "state": "OR",
    "timezone": "America/Los_Angeles",
    "updated_at": "2012-07-08T00:55:06Z",
    "zip": "97454"
  },
  {
    "address": "36386 Hwy 58",
    "city": "Pleasant Hill",
    "county": "Lane County",
    "created_at": "2012-01-04T20:16:58Z",
    "id": 20046,
    "latitude": "43.961635",
    "longitude": "-122.918631",
    "mascot": "Billies",
    "name": "Pleasant Hill High School",
    "primary_color": "Gold",
    "secondary_color": "Royal",
    "state": "OR",
    "timezone": "America/Los_Angeles",
    "updated_at": "2012-07-08T00:55:06Z",
    "zip": "97455"
  },
  {
    "address": "875 7th St",
    "city": "Springfield",
    "county": "Lane County",
    "created_at": "2012-01-04T20:16:58Z",
    "id": 20047,
    "latitude": "44.053094",
    "longitude": "-123.016763",
    "mascot": "Millers",
    "name": "Springfield High School",
    "primary_color": "Royal",
    "secondary_color": "White",
    "state": "OR",
    "timezone": "America/Los_Angeles",
    "updated_at": "2012-07-08T00:55:06Z",
    "zip": "97477"
  },
  {
    "address": "333 N 58th St",
    "city": "Springfield",
    "county": "Lane County",
    "created_at": "2012-01-04T20:16:58Z",
    "id": 20048,
    "latitude": "44.048219",
    "longitude": "-122.926331",
    "mascot": "Colts",
    "name": "Thurston High School",
    "primary_color": "Red",
    "secondary_color": "Black",
    "state": "OR",
    "timezone": "America/Los_Angeles",
    "updated_at": "2012-07-08T00:55:06Z",
    "zip": "97478"
  },
  {
    "address": "1375 South River Road",
    "city": "Cottage Grove",
    "county": "Lane County",
    "created_at": "2012-01-04T20:16:58Z",
    "id": 20049,
    "latitude": "43.786105",
    "longitude": "-123.068832",
    "mascot": "Lions",
    "name": "Cottage Grove High School",
    "primary_color": "Gold",
    "secondary_color": "Royal",
    "state": "OR",
    "timezone": "America/Los_Angeles",
    "updated_at": "2012-07-08T00:55:07Z",
    "zip": "97424"
  },
  {
    "address": "24936 Fir Grove Ln",
    "city": "Elmira",
    "county": "Lane County",
    "created_at": "2012-01-04T20:16:58Z",
    "id": 20050,
    "latitude": "44.074352",
    "longitude": "-123.357780",
    "mascot": "Falcons",
    "name": "Elmira High School",
    "primary_color": "Gold",
    "secondary_color": "Purple",
    "state": "OR",
    "timezone": "America/Los_Angeles",
    "updated_at": "2012-07-08T00:55:07Z",
    "zip": "97437"
  },
  {
    "address": "Eddyville School Rd",
    "city": "Eddyville",
    "county": "Lincoln County",
    "created_at": "2012-01-04T20:16:58Z",
    "id": 20051,
    "latitude": "44.634549",
    "longitude": "-123.777827",
    "mascot": "Eagles",
    "name": "Eddyville School",
    "primary_color": "Orange",
    "secondary_color": "Black",
    "state": "OR",
    "timezone": "America/Los_Angeles",
    "updated_at": "2012-07-08T00:55:07Z",
    "zip": "97343"
  },
  {
    "address": "3780 Spyglass Ridge Dr",
    "city": "Lincoln City",
    "county": "Lincoln County",
    "created_at": "2012-01-04T20:16:58Z",
    "id": 20052,
    "latitude": "44.939041",
    "longitude": "-124.018057",
    "mascot": "Tigers",
    "name": "Taft High School",
    "primary_color": "Orange",
    "secondary_color": "Black",
    "state": "OR",
    "timezone": "America/Los_Angeles",
    "updated_at": "2012-07-08T00:55:08Z",
    "zip": "97367"
  },
  {
    "address": "320 Lower Crest Line Dr",
    "city": "Waldport",
    "county": "Lincoln County",
    "created_at": "2012-01-04T20:16:58Z",
    "id": 20053,
    "latitude": "44.427724",
    "longitude": "-124.058383",
    "mascot": null,
    "name": "Waldport High School",
    "primary_color": "Black",
    "secondary_color": "White",
    "state": "OR",
    "timezone": "America/Los_Angeles",
    "updated_at": "2012-07-08T00:55:08Z",
    "zip": "97394"
  },
  {
    "address": "3780 Spyglass Ridge Dr.",
    "city": "Lincoln",
    "county": "Lincoln County",
    "created_at": "2012-01-04T20:16:58Z",
    "id": 20054,
    "latitude": "44.939041",
    "longitude": "-124.018057",
    "mascot": "Bengals",
    "name": "Taft Middle School",
    "primary_color": "Orange",
    "secondary_color": "Black",
    "state": "OR",
    "timezone": "America/Los_Angeles",
    "updated_at": "2012-07-08T00:55:09Z",
    "zip": "97367"
  },
  {
    "address": "1130 SW Queen Ave",
    "city": "Albany",
    "county": "Linn County",
    "created_at": "2012-01-04T20:16:58Z",
    "id": 20055,
    "latitude": "44.623618",
    "longitude": "-123.116979",
    "mascot": "Bulldogs",
    "name": "West Albany High School",
    "primary_color": "Gold",
    "secondary_color": "Navy",
    "state": "OR",
    "timezone": "America/Los_Angeles",
    "updated_at": "2012-07-08T00:55:09Z",
    "zip": "97321"
  },
  {
    "address": "32433 Hwy 228",
    "city": "Halsey",
    "county": "Linn County",
    "created_at": "2012-01-04T20:16:58Z",
    "id": 20056,
    "latitude": "44.388949",
    "longitude": "-123.086342",
    "mascot": "Cobras",
    "name": "Central Linn High School",
    "primary_color": "Royal",
    "secondary_color": "Red",
    "state": "OR",
    "timezone": "America/Los_Angeles",
    "updated_at": "2012-07-08T00:55:09Z",
    "zip": "97348"
  },
  {
    "address": "PO Box 347",
    "city": "Harrisburg",
    "county": "Linn County",
    "created_at": "2012-01-04T20:16:58Z",
    "id": 20057,
    "latitude": "44.261600",
    "longitude": "-123.126719",
    "mascot": null,
    "name": "Harris Private School",
    "primary_color": null,
    "secondary_color": null,
    "state": "OR",
    "timezone": "America/Los_Angeles",
    "updated_at": "2012-07-08T00:55:10Z",
    "zip": "97446"
  },
  {
    "address": "400 S 9th St",
    "city": "Harrisburg",
    "county": "Linn County",
    "created_at": "2012-01-04T20:16:58Z",
    "id": 20058,
    "latitude": "44.269805",
    "longitude": "-123.159498",
    "mascot": "Eagles",
    "name": "Harrisburg High School",
    "primary_color": "Gold",
    "secondary_color": "Purple",
    "state": "OR",
    "timezone": "America/Los_Angeles",
    "updated_at": "2012-07-08T00:55:10Z",
    "zip": "97446"
  },
  {
    "address": "265 Evergreen SW",
    "city": "Mill City",
    "county": "Linn County",
    "created_at": "2012-01-04T20:16:58Z",
    "id": 20059,
    "latitude": "44.751613",
    "longitude": "-122.479383",
    "mascot": "Wolverines",
    "name": "Santiam High School",
    "primary_color": "Red",
    "secondary_color": "White",
    "state": "OR",
    "timezone": "America/Los_Angeles",
    "updated_at": "2012-07-08T00:55:10Z",
    "zip": "97360"
  },
  {
    "address": "38875 NW 1st Ave",
    "city": "Scio",
    "county": "Linn County",
    "created_at": "2012-01-04T20:16:58Z",
    "id": 20060,
    "latitude": "44.704731",
    "longitude": "-122.853746",
    "mascot": "Loggers",
    "name": "Scio High School",
    "primary_color": "Orange",
    "secondary_color": "Black",
    "state": "OR",
    "timezone": "America/Los_Angeles",
    "updated_at": "2012-07-08T00:55:10Z",
    "zip": "97374"
  },
  {
    "address": "1641 Long St",
    "city": "Sweet Home",
    "county": "Linn County",
    "created_at": "2012-01-04T20:16:58Z",
    "id": 20061,
    "latitude": "44.397646",
    "longitude": "-122.724776",
    "mascot": "Huskies",
    "name": "Sweet Home High School",
    "primary_color": "Gold",
    "secondary_color": "Hunter Green",
    "state": "OR",
    "timezone": "America/Los_Angeles",
    "updated_at": "2012-07-08T00:55:11Z",
    "zip": "97386"
  },
  {
    "address": "305 Owyhee St",
    "city": "Adrian",
    "county": "Malheur County",
    "created_at": "2012-01-04T20:16:58Z",
    "id": 20062,
    "latitude": "43.741847",
    "longitude": "-117.069422",
    "mascot": "Antelope",
    "name": "Adrian High School",
    "primary_color": "Gold",
    "secondary_color": "Kelly Green",
    "state": "OR",
    "timezone": "America/Boise",
    "updated_at": "2012-07-08T00:55:11Z",
    "zip": "97901"
  },
  {
    "address": "2987 Harper Westfall Rd",
    "city": "Harper",
    "county": "Malheur County",
    "created_at": "2012-01-04T20:16:58Z",
    "id": 20063,
    "latitude": "43.857745",
    "longitude": "-117.608842",
    "mascot": "Hornets",
    "name": "Harper School",
    "primary_color": "Royal",
    "secondary_color": "Gold",
    "state": "OR",
    "timezone": "America/Boise",
    "updated_at": "2012-07-08T00:55:11Z",
    "zip": "97906"
  },
  {
    "address": "824 Adrian Blvd",
    "city": "Nyssa",
    "county": "Malheur County",
    "created_at": "2012-01-04T20:16:58Z",
    "id": 20064,
    "latitude": "43.874651",
    "longitude": "-117.003524",
    "mascot": "Bulldogs",
    "name": "Nyssa High School",
    "primary_color": "Royal",
    "secondary_color": "White",
    "state": "OR",
    "timezone": "America/Boise",
    "updated_at": "2012-07-08T00:55:11Z",
    "zip": "97913"
  },
  {
    "address": "505 Viking Dr",
    "city": "Vale",
    "county": "Malheur County",
    "created_at": "2012-01-04T20:16:58Z",
    "id": 20065,
    "latitude": "43.978904",
    "longitude": "-117.251677",
    "mascot": "Vikings",
    "name": "Vale High School",
    "primary_color": "Black",
    "secondary_color": "White",
    "state": "OR",
    "timezone": "America/Boise",
    "updated_at": "2012-07-08T00:55:11Z",
    "zip": "97918"
  },
  {
    "address": "10226 Marion Rd SE",
    "city": "Turner",
    "county": "Marion County",
    "created_at": "2012-01-04T20:16:58Z",
    "id": 20066,
    "latitude": "44.808136",
    "longitude": "-122.918312",
    "mascot": "Cougars",
    "name": "Cascade Union High School",
    "primary_color": "Gold",
    "secondary_color": "Black",
    "state": "OR",
    "timezone": "America/Los_Angeles",
    "updated_at": "2012-07-08T00:55:12Z",
    "zip": "97392"
  },
  {
    "address": "300 E Douglas Ave",
    "city": "Gervais",
    "county": "Marion County",
    "created_at": "2012-01-04T20:16:58Z",
    "id": 20067,
    "latitude": "45.104189",
    "longitude": "-122.892964",
    "mascot": "Cougars",
    "name": "Gervais High School",
    "primary_color": "Gold",
    "secondary_color": "Royal",
    "state": "OR",
    "timezone": "America/Los_Angeles",
    "updated_at": "2012-07-08T00:55:12Z",
    "zip": "97026"
  },
  {
    "address": "890 E Marquam St",
    "city": "Mount Angel",
    "county": "Marion County",
    "created_at": "2012-01-04T20:16:58Z",
    "id": 20068,
    "latitude": "45.071296",
    "longitude": "-122.789400",
    "mascot": "Trojans",
    "name": "John F Kennedy High School",
    "primary_color": "Red",
    "secondary_color": "Royal",
    "state": "OR",
    "timezone": "America/Los_Angeles",
    "updated_at": "2012-07-08T00:55:12Z",
    "zip": "97362"
  },
  {
    "address": "20167 Grim Rd NE",
    "city": "Aurora",
    "county": "Marion County",
    "created_at": "2012-01-04T20:16:58Z",
    "id": 20069,
    "latitude": "45.211757",
    "longitude": "-122.795467",
    "mascot": null,
    "name": "North Marion High School",
    "primary_color": "Hunter Green",
    "secondary_color": "White",
    "state": "OR",
    "timezone": "America/Los_Angeles",
    "updated_at": "2012-07-08T00:55:12Z",
    "zip": "97002"
  },
  {
    "address": "20449 Main St NE",
    "city": "Saint Paul",
    "county": "Marion County",
    "created_at": "2012-01-04T20:16:58Z",
    "id": 20070,
    "latitude": "45.214036",
    "longitude": "-122.974501",
    "mascot": "Buckaroos",
    "name": "Saint Paul High School",
    "primary_color": "Royal",
    "secondary_color": "White",
    "state": "OR",
    "timezone": "America/Los_Angeles",
    "updated_at": "2012-07-08T00:55:13Z",
    "zip": "97137"
  },
  {
    "address": "1910 Church St SE",
    "city": "Salem",
    "county": "Marion County",
    "created_at": "2012-01-04T20:16:58Z",
    "id": 20071,
    "latitude": "44.921846",
    "longitude": "-123.040413",
    "mascot": "Saxons",
    "name": "South Salem High School",
    "primary_color": "Columbia Blue",
    "secondary_color": "Red",
    "state": "OR",
    "timezone": "America/Los_Angeles",
    "updated_at": "2012-07-08T00:55:13Z",
    "zip": "97302"
  },
  {
    "address": "802 Schlador St",
    "city": "Silverton",
    "county": "Marion County",
    "created_at": "2012-01-04T20:16:58Z",
    "id": 20072,
    "latitude": "45.012008",
    "longitude": "-122.788965",
    "mascot": "Foxes",
    "name": "Silverton Union High School",
    "primary_color": "Gray",
    "secondary_color": "Black",
    "state": "OR",
    "timezone": "America/Los_Angeles",
    "updated_at": "2012-07-08T00:55:13Z",
    "zip": "97381"
  },
  {
    "address": "757 W Locust St",
    "city": "Stayton",
    "county": "Marion County",
    "created_at": "2012-01-04T20:16:58Z",
    "id": 20073,
    "latitude": "44.802585",
    "longitude": "-122.801759",
    "mascot": "Eagles",
    "name": "Stayton High School",
    "primary_color": "Gold",
    "secondary_color": "Royal",
    "state": "OR",
    "timezone": "America/Los_Angeles",
    "updated_at": "2012-07-08T00:55:14Z",
    "zip": "97383"
  },
  {
    "address": "2200 Talbot Road SE",
    "city": "Jefferson",
    "county": "Marion County",
    "created_at": "2012-01-04T20:16:58Z",
    "id": 20074,
    "latitude": "44.732502",
    "longitude": "-123.010715",
    "mascot": "Lions",
    "name": "Jefferson High School",
    "primary_color": "Purple",
    "secondary_color": "White",
    "state": "OR",
    "timezone": "America/Los_Angeles",
    "updated_at": "2012-07-08T00:55:14Z",
    "zip": "97352"
  },
  {
    "address": "445 Spring St",
    "city": "Ione",
    "county": "Morrow County",
    "created_at": "2012-01-04T20:16:58Z",
    "id": 20075,
    "latitude": "45.498339",
    "longitude": "-119.829550",
    "mascot": "Cardinals",
    "name": "Ione School",
    "primary_color": "Red",
    "secondary_color": "Black",
    "state": "OR",
    "timezone": "America/Los_Angeles",
    "updated_at": "2012-07-08T00:55:14Z",
    "zip": "97843"
  },
  {
    "address": "710 NW Morgan St",
    "city": "Heppner",
    "county": "Morrow County",
    "created_at": "2012-01-04T20:16:58Z",
    "id": 20076,
    "latitude": "45.362024",
    "longitude": "-119.563783",
    "mascot": "Mustangs",
    "name": "Heppner High School",
    "primary_color": "Gold",
    "secondary_color": "Royal",
    "state": "OR",
    "timezone": "America/Los_Angeles",
    "updated_at": "2012-07-08T00:55:14Z",
    "zip": "97836"
  },
  {
    "address": "210 NE Boardman Ave",
    "city": "Boardman",
    "county": "Morrow County",
    "created_at": "2012-01-04T20:16:58Z",
    "id": 20077,
    "latitude": "45.840197",
    "longitude": "-119.699374",
    "mascot": "Pirates",
    "name": "Riverside High School",
    "primary_color": "Black",
    "secondary_color": "White",
    "state": "OR",
    "timezone": "America/Los_Angeles",
    "updated_at": "2012-07-08T00:55:14Z",
    "zip": "97818"
  },
  {
    "address": "1001 SE 135th Ave",
    "city": "Portland",
    "county": "Multnomah County",
    "created_at": "2012-01-04T20:16:58Z",
    "id": 20078,
    "latitude": "45.515767",
    "longitude": "-122.524842",
    "mascot": "Scots",
    "name": "David Douglas High School",
    "primary_color": "Gray",
    "secondary_color": "Red",
    "state": "OR",
    "timezone": "America/Los_Angeles",
    "updated_at": "2012-07-08T00:55:15Z",
    "zip": "97233"
  },
  {
    "address": "35800 E Historic Columbia River Hwy",
    "city": "Corbett",
    "county": "Multnomah County",
    "created_at": "2012-01-04T20:16:58Z",
    "id": 20079,
    "latitude": "45.530615",
    "longitude": "-122.295584",
    "mascot": "Cardinals",
    "name": "Corbett High School",
    "primary_color": "Red",
    "secondary_color": "Black",
    "state": "OR",
    "timezone": "America/Los_Angeles",
    "updated_at": "2012-07-08T00:55:15Z",
    "zip": "97019"
  },
  {
    "address": "1200 N Main St",
    "city": "Gresham",
    "county": "Multnomah County",
    "created_at": "2012-01-04T20:16:58Z",
    "id": 20080,
    "latitude": "45.505708",
    "longitude": "-122.430953",
    "mascot": "Gophers",
    "name": "Gresham High School",
    "primary_color": "Royal",
    "secondary_color": "White",
    "state": "OR",
    "timezone": "America/Los_Angeles",
    "updated_at": "2012-07-08T00:55:15Z",
    "zip": "97030"
  },
  {
    "address": "5105 SE 302nd Ave",
    "city": "Gresham",
    "county": "Multnomah County",
    "created_at": "2012-01-04T20:16:58Z",
    "id": 20081,
    "latitude": "45.485493",
    "longitude": "-122.352242",
    "mascot": null,
    "name": "Sam Barlow High School",
    "primary_color": "Gold",
    "secondary_color": "Royal",
    "state": "OR",
    "timezone": "America/Los_Angeles",
    "updated_at": "2012-07-08T00:55:16Z",
    "zip": "97080"
  },
  {
    "address": "3505 SE 182nd St",
    "city": "Gresham",
    "county": "Multnomah County",
    "created_at": "2012-01-04T20:16:58Z",
    "id": 20082,
    "latitude": "45.496915",
    "longitude": "-122.475584",
    "mascot": "Eagles",
    "name": "Centennial High School",
    "primary_color": "Columbia Blue",
    "secondary_color": "Red",
    "state": "OR",
    "timezone": "America/Los_Angeles",
    "updated_at": "2012-07-08T00:55:16Z",
    "zip": "97030"
  },
  {
    "address": "1698 SW Cherry Park Rd",
    "city": "Troutdale",
    "county": "Multnomah County",
    "created_at": "2012-01-04T20:16:58Z",
    "id": 20083,
    "latitude": "45.529940",
    "longitude": "-122.404320",
    "mascot": "Raiders",
    "name": "Reynolds High School",
    "primary_color": "Gray",
    "secondary_color": "Hunter Green",
    "state": "OR",
    "timezone": "America/Los_Angeles",
    "updated_at": "2012-07-08T00:55:16Z",
    "zip": "97060"
  },
  {
    "address": "546 NE 12th Ave",
    "city": "Portland",
    "county": "Multnomah County",
    "created_at": "2012-01-04T20:16:58Z",
    "id": 20084,
    "latitude": "45.526898",
    "longitude": "-122.653581",
    "mascot": null,
    "name": "Benson High School",
    "primary_color": "Royal",
    "secondary_color": "Orange",
    "state": "OR",
    "timezone": "America/Los_Angeles",
    "updated_at": "2012-07-08T00:55:17Z",
    "zip": "97232"
  },
  {
    "address": "2033 NW Glisan St",
    "city": "Portland",
    "county": "Multnomah County",
    "created_at": "2012-01-04T20:16:58Z",
    "id": 20085,
    "latitude": "45.526343",
    "longitude": "-122.693028",
    "mascot": null,
    "name": "Metropolitan Learning Center",
    "primary_color": null,
    "secondary_color": null,
    "state": "OR",
    "timezone": "America/Los_Angeles",
    "updated_at": "2012-07-08T00:55:17Z",
    "zip": "97209"
  },
  {
    "address": "6941 N Central St",
    "city": "Portland",
    "county": "Multnomah County",
    "created_at": "2012-01-04T20:16:58Z",
    "id": 20086,
    "latitude": "45.588349",
    "longitude": "-122.738244",
    "mascot": "Rough Riders",
    "name": "Roosevelt High School",
    "primary_color": "Gold",
    "secondary_color": "Black",
    "state": "OR",
    "timezone": "America/Los_Angeles",
    "updated_at": "2012-07-08T00:55:17Z",
    "zip": "97203"
  },
  {
    "address": "1151 SW Vermont",
    "city": "Portland",
    "county": "Multnomah County",
    "created_at": "2012-01-04T20:16:58Z",
    "id": 20087,
    "latitude": "45.476028",
    "longitude": "-122.691324",
    "mascot": null,
    "name": "Wilson High School",
    "primary_color": "Hunter Green",
    "secondary_color": "White",
    "state": "OR",
    "timezone": "America/Los_Angeles",
    "updated_at": "2012-07-08T00:55:17Z",
    "zip": "97219"
  },
  {
    "address": "3400 SE 26th Ave",
    "city": "Portland",
    "county": "Multnomah County",
    "created_at": "2012-01-04T20:16:58Z",
    "id": 20088,
    "latitude": "45.498510",
    "longitude": "-122.639606",
    "mascot": "Warriors",
    "name": "Cleveland High School",
    "primary_color": "Yellow",
    "secondary_color": "Kelly Green",
    "state": "OR",
    "timezone": "America/Los_Angeles",
    "updated_at": "2012-07-08T00:55:17Z",
    "zip": "97202"
  },
  {
    "address": "2245 NE 36th Ave",
    "city": "Portland",
    "county": "Multnomah County",
    "created_at": "2012-01-04T20:16:58Z",
    "id": 20089,
    "latitude": "45.538634",
    "longitude": "-122.626014",
    "mascot": "Generals",
    "name": "Grant High School",
    "primary_color": "Gray",
    "secondary_color": "Royal",
    "state": "OR",
    "timezone": "America/Los_Angeles",
    "updated_at": "2012-07-08T00:55:18Z",
    "zip": "97212"
  },
  {
    "address": "111 N Main",
    "city": "Falls City",
    "county": "Polk County",
    "created_at": "2012-01-04T20:16:58Z",
    "id": 20090,
    "latitude": "44.865831",
    "longitude": "-123.428527",
    "mascot": "Mountaineers",
    "name": "Falls City High School",
    "primary_color": "Purple",
    "secondary_color": "Gold",
    "state": "OR",
    "timezone": "America/Los_Angeles",
    "updated_at": "2012-07-08T00:55:18Z",
    "zip": "97344"
  },
  {
    "address": "7445 Perrydale Rd",
    "city": "Amity",
    "county": "Polk County",
    "created_at": "2012-01-04T20:16:58Z",
    "id": 20091,
    "latitude": "45.041715",
    "longitude": "-123.256750",
    "mascot": "Pirates",
    "name": "Perrydale School",
    "primary_color": "Red",
    "secondary_color": "Black",
    "state": "OR",
    "timezone": "America/Los_Angeles",
    "updated_at": "2012-07-08T00:55:19Z",
    "zip": "97101"
  },
  {
    "address": "65912 High School Loop",
    "city": "Moro",
    "county": "Sherman County",
    "created_at": "2012-01-04T20:16:58Z",
    "id": 20092,
    "latitude": "45.472124",
    "longitude": "-120.743264",
    "mascot": "Huskies",
    "name": "Sherman Union High School",
    "primary_color": "Orange",
    "secondary_color": "Black",
    "state": "OR",
    "timezone": "America/Los_Angeles",
    "updated_at": "2012-07-08T00:55:19Z",
    "zip": "97039"
  },
  {
    "address": "34660 Parkway Dr",
    "city": "Cloverdale",
    "county": "Tillamook County",
    "created_at": "2012-01-04T20:16:58Z",
    "id": 20093,
    "latitude": "45.204240",
    "longitude": "-123.888109",
    "mascot": "Bobcats",
    "name": "Nestucca Valley High School",
    "primary_color": "Black",
    "secondary_color": "Orange",
    "state": "OR",
    "timezone": "America/Los_Angeles",
    "updated_at": "2012-07-08T00:55:19Z",
    "zip": "97112"
  },
  {
    "address": "24705 Hwy 101 N",
    "city": "Rockaway Beach",
    "county": "Tillamook County",
    "created_at": "2012-01-04T20:16:58Z",
    "id": 20094,
    "latitude": "45.636604",
    "longitude": "-123.940567",
    "mascot": "Pirates",
    "name": "Neah-Kah-Nie Junior Senior High School",
    "primary_color": "Red",
    "secondary_color": "Black",
    "state": "OR",
    "timezone": "America/Los_Angeles",
    "updated_at": "2012-07-08T00:55:19Z",
    "zip": "97136"
  },
  {
    "address": "PO Box 707",
    "city": "Athena",
    "county": "Umatilla County",
    "created_at": "2012-01-04T20:16:58Z",
    "id": 20095,
    "latitude": "45.871478",
    "longitude": "-118.529804",
    "mascot": "Tiger Scots",
    "name": "Athena-Weston High School",
    "primary_color": "Red",
    "secondary_color": "Black",
    "state": "OR",
    "timezone": "America/Los_Angeles",
    "updated_at": "2012-07-08T00:55:20Z",
    "zip": "97813"
  },
  {
    "address": "120 Main St",
    "city": "Helix",
    "county": "Umatilla County",
    "created_at": "2012-01-04T20:16:58Z",
    "id": 20096,
    "latitude": "45.851745",
    "longitude": "-118.654607",
    "mascot": "Bears",
    "name": "Griswold High School",
    "primary_color": "Kelly Green",
    "secondary_color": "White",
    "state": "OR",
    "timezone": "America/Los_Angeles",
    "updated_at": "2012-07-08T00:55:20Z",
    "zip": "97835"
  },
  {
    "address": "120 S Main St",
    "city": "Milton-Freewater",
    "county": "Umatilla County",
    "created_at": "2012-01-04T20:16:58Z",
    "id": 20097,
    "latitude": "45.935450",
    "longitude": "-118.390628",
    "mascot": "Pioneers",
    "name": "McLoughlin High School",
    "primary_color": "Maroon",
    "secondary_color": "Black",
    "state": "OR",
    "timezone": "America/Los_Angeles",
    "updated_at": "2012-07-08T00:55:20Z",
    "zip": "97862"
  },
  {
    "address": "101 NE Cherry St",
    "city": "Pilot Rock",
    "county": "Umatilla County",
    "created_at": "2012-01-04T20:16:58Z",
    "id": 20098,
    "latitude": "45.484053",
    "longitude": "-118.830133",
    "mascot": "Rockets",
    "name": "Pilot Rock Junior Senior High School",
    "primary_color": "Gold",
    "secondary_color": "Royal",
    "state": "OR",
    "timezone": "America/Los_Angeles",
    "updated_at": "2012-07-08T00:55:21Z",
    "zip": "97868"
  },
  {
    "address": "201 W Hill St",
    "city": "Ukiah",
    "county": "Umatilla County",
    "created_at": "2012-01-04T20:16:58Z",
    "id": 20099,
    "latitude": "45.135667",
    "longitude": "-118.936225",
    "mascot": null,
    "name": "Ukiah School",
    "primary_color": "Royal",
    "secondary_color": "Gold",
    "state": "OR",
    "timezone": "America/Los_Angeles",
    "updated_at": "2012-07-08T00:55:21Z",
    "zip": "97880"
  },
  {
    "address": "1400 7th St",
    "city": "Umatilla",
    "county": "Umatilla County",
    "created_at": "2012-01-04T20:16:58Z",
    "id": 20100,
    "latitude": "45.917386",
    "longitude": "-119.336092",
    "mascot": "Vikings",
    "name": "Umatilla High School",
    "primary_color": "Orange",
    "secondary_color": "Royal",
    "state": "OR",
    "timezone": "America/Los_Angeles",
    "updated_at": "2012-07-08T00:55:21Z",
    "zip": "97882"
  },
  {
    "address": "803 Main St",
    "city": "Cove",
    "county": "Union County",
    "created_at": "2012-01-04T20:16:58Z",
    "id": 20101,
    "latitude": "45.296712",
    "longitude": "-117.809235",
    "mascot": "Leopards",
    "name": "Cove School",
    "primary_color": "Gold",
    "secondary_color": "Royal",
    "state": "OR",
    "timezone": "America/Los_Angeles",
    "updated_at": "2012-07-08T00:55:21Z",
    "zip": "97824"
  },
  {
    "address": "PO Box 68",
    "city": "Elgin",
    "county": "Union County",
    "created_at": "2012-01-04T20:16:58Z",
    "id": 20102,
    "latitude": "45.663961",
    "longitude": "-117.926716",
    "mascot": "Huskies",
    "name": "Elgin High School",
    "primary_color": "Purple",
    "secondary_color": "White",
    "state": "OR",
    "timezone": "America/Los_Angeles",
    "updated_at": "2012-07-08T00:55:22Z",
    "zip": "97827"
  },
  {
    "address": "333 G St",
    "city": "North Powder",
    "county": "Union County",
    "created_at": "2012-01-04T20:16:58Z",
    "id": 20103,
    "latitude": "45.027802",
    "longitude": "-117.923977",
    "mascot": "Badgers",
    "name": "Powder Valley School",
    "primary_color": "Red",
    "secondary_color": "White",
    "state": "OR",
    "timezone": "America/Los_Angeles",
    "updated_at": "2012-07-08T00:55:22Z",
    "zip": "97867"
  },
  {
    "address": "201 SE 4th St",
    "city": "Enterprise",
    "county": "Wallowa County",
    "created_at": "2012-01-04T20:16:58Z",
    "id": 20104,
    "latitude": "45.424480",
    "longitude": "-117.272461",
    "mascot": "Savages",
    "name": "Enterprise High School",
    "primary_color": "Red",
    "secondary_color": "Black",
    "state": "OR",
    "timezone": "America/Los_Angeles",
    "updated_at": "2012-07-08T00:55:22Z",
    "zip": "97828"
  },
  {
    "address": "315 1st St",
    "city": "Wallowa",
    "county": "Wallowa County",
    "created_at": "2012-01-04T20:16:58Z",
    "id": 20105,
    "latitude": "45.570188",
    "longitude": "-117.526600",
    "mascot": "Cougars",
    "name": "Wallowa Junior Senior High School",
    "primary_color": "Orange",
    "secondary_color": "Black",
    "state": "OR",
    "timezone": "America/Los_Angeles",
    "updated_at": "2012-07-08T00:55:22Z",
    "zip": "97885"
  },
  {
    "address": "802 NE 5th St",
    "city": "Dufur",
    "county": "Wasco County",
    "created_at": "2012-01-04T20:16:58Z",
    "id": 20106,
    "latitude": "45.454832",
    "longitude": "-121.125030",
    "mascot": "Rangers",
    "name": "Dufur School",
    "primary_color": "Red",
    "secondary_color": "White",
    "state": "OR",
    "timezone": "America/Los_Angeles",
    "updated_at": "2012-07-08T00:55:23Z",
    "zip": "97021"
  },
  {
    "address": "450 S Main St",
    "city": "Banks",
    "county": "Washington County",
    "created_at": "2012-01-04T20:16:58Z",
    "id": 20107,
    "latitude": "45.614061",
    "longitude": "-123.114443",
    "mascot": "Braves",
    "name": "Banks High School",
    "primary_color": "Royal",
    "secondary_color": "Gold",
    "state": "OR",
    "timezone": "America/Los_Angeles",
    "updated_at": "2012-07-08T00:55:23Z",
    "zip": "97106"
  },
  {
    "address": "18550 SW Kinnaman Rd",
    "city": "Aloha",
    "county": "Washington County",
    "created_at": "2012-01-04T20:16:58Z",
    "id": 20108,
    "latitude": "45.485797",
    "longitude": "-122.867994",
    "mascot": "Warriors",
    "name": "Aloha Senior High School",
    "primary_color": "Royal",
    "secondary_color": "Kelly Green",
    "state": "OR",
    "timezone": "America/Los_Angeles",
    "updated_at": "2012-07-08T00:55:23Z",
    "zip": "97007"
  },
  {
    "address": "13000 SW 2nd St",
    "city": "Beaverton",
    "county": "Washington County",
    "created_at": "2012-01-04T20:16:58Z",
    "id": 20109,
    "latitude": "45.486400",
    "longitude": "-122.812415",
    "mascot": "Beavers",
    "name": "Beaverton High School",
    "primary_color": "Orange",
    "secondary_color": "Black",
    "state": "OR",
    "timezone": "America/Los_Angeles",
    "updated_at": "2012-07-08T00:55:24Z",
    "zip": "97005"
  },
  {
    "address": "13840 NW Cornell Rd",
    "city": "Portland",
    "county": "Washington County",
    "created_at": "2012-01-04T20:16:58Z",
    "id": 20110,
    "latitude": "45.528937",
    "longitude": "-122.819331",
    "mascot": "Apollos",
    "name": "Sunset High School",
    "primary_color": "Purple",
    "secondary_color": "White",
    "state": "OR",
    "timezone": "America/Los_Angeles",
    "updated_at": "2012-07-08T00:55:24Z",
    "zip": "97229"
  },
  {
    "address": "1401 Nichols Ln",
    "city": "Forest Grove",
    "county": "Washington County",
    "created_at": "2012-01-04T20:16:58Z",
    "id": 20111,
    "latitude": "45.533768",
    "longitude": "-123.123941",
    "mascot": "Vikings",
    "name": "Forest Grove High School",
    "primary_color": "Gold",
    "secondary_color": "Maroon",
    "state": "OR",
    "timezone": "America/Los_Angeles",
    "updated_at": "2012-07-08T00:55:24Z",
    "zip": "97116"
  },
  {
    "address": "306 Park St",
    "city": "Gaston",
    "county": "Washington County",
    "created_at": "2012-01-04T20:16:58Z",
    "id": 20112,
    "latitude": "45.435962",
    "longitude": "-123.142847",
    "mascot": "Greyhounds",
    "name": "Gaston Junior Senior High School",
    "primary_color": "Gold",
    "secondary_color": "Kelly Green",
    "state": "OR",
    "timezone": "America/Los_Angeles",
    "updated_at": "2012-07-08T00:55:24Z",
    "zip": "97119"
  },
  {
    "address": "2700 NW Glencoe Rd",
    "city": "Hillsboro",
    "county": "Washington County",
    "created_at": "2012-01-04T20:16:58Z",
    "id": 20113,
    "latitude": "45.541701",
    "longitude": "-122.995725",
    "mascot": "Glencoe Crimson Tides",
    "name": "Glencoe High School",
    "primary_color": "Red",
    "secondary_color": "Black",
    "state": "OR",
    "timezone": "America/Los_Angeles",
    "updated_at": "2012-07-08T00:55:25Z",
    "zip": "97124"
  },
  {
    "address": "1155 Meinecke Rd",
    "city": "Sherwood",
    "county": "Washington County",
    "created_at": "2012-01-04T20:16:58Z",
    "id": 20114,
    "latitude": "45.358694",
    "longitude": "-122.854699",
    "mascot": "Bowman",
    "name": "Sherwood High School",
    "primary_color": "Maroon",
    "secondary_color": "White",
    "state": "OR",
    "timezone": "America/Los_Angeles",
    "updated_at": "2012-07-08T00:55:25Z",
    "zip": "97140"
  },
  {
    "address": "9000 SW Durham Rd",
    "city": "Tigard",
    "county": "Washington County",
    "created_at": "2012-01-04T20:16:58Z",
    "id": 20115,
    "latitude": "45.404282",
    "longitude": "-122.769929",
    "mascot": "Tigers",
    "name": "Tigard High School",
    "primary_color": "Kelly Green",
    "secondary_color": "Black",
    "state": "OR",
    "timezone": "America/Los_Angeles",
    "updated_at": "2012-07-08T00:55:25Z",
    "zip": "97224"
  },
  {
    "address": "600 B St",
    "city": "Fossil",
    "county": "Wheeler County",
    "created_at": "2012-01-04T20:16:58Z",
    "id": 20116,
    "latitude": "45.001130",
    "longitude": "-120.209839",
    "mascot": "Falcons",
    "name": "Wheeler High School",
    "primary_color": "Black",
    "secondary_color": "Gold",
    "state": "OR",
    "timezone": "America/Los_Angeles",
    "updated_at": "2012-07-08T00:55:26Z",
    "zip": "97830"
  },
  {
    "address": "340 SE High St",
    "city": "Mitchell",
    "county": "Wheeler County",
    "created_at": "2012-01-04T20:16:58Z",
    "id": 20117,
    "latitude": "44.565370",
    "longitude": "-120.151034",
    "mascot": "Lumberjacks",
    "name": "Mitchell School",
    "primary_color": "Royal Blue",
    "secondary_color": "Gold",
    "state": "OR",
    "timezone": "America/Los_Angeles",
    "updated_at": "2012-07-08T00:55:26Z",
    "zip": "97750"
  },
  {
    "address": "Hwy 19 & Pine",
    "city": "Spray",
    "county": "Wheeler County",
    "created_at": "2012-01-04T20:16:58Z",
    "id": 20118,
    "latitude": "44.834680",
    "longitude": "-119.793849",
    "mascot": "Eagles",
    "name": "Spray School",
    "primary_color": "Gray",
    "secondary_color": "Red",
    "state": "OR",
    "timezone": "America/Los_Angeles",
    "updated_at": "2012-07-08T00:55:26Z",
    "zip": "97874"
  },
  {
    "address": "503 Oak St",
    "city": "Amity",
    "county": "Yamhill County",
    "created_at": "2012-01-04T20:16:58Z",
    "id": 20119,
    "latitude": "45.116099",
    "longitude": "-123.203620",
    "mascot": "Warriors",
    "name": "Amity High School",
    "primary_color": "Royal",
    "secondary_color": "White",
    "state": "OR",
    "timezone": "America/Los_Angeles",
    "updated_at": "2012-07-08T00:55:27Z",
    "zip": "97101"
  },
  {
    "address": "801 Ferry St",
    "city": "Dayton",
    "county": "Yamhill County",
    "created_at": "2012-01-04T20:16:58Z",
    "id": 20120,
    "latitude": "45.216218",
    "longitude": "-123.083782",
    "mascot": "Pirates",
    "name": "Dayton High School",
    "primary_color": "Maroon",
    "secondary_color": "Black",
    "state": "OR",
    "timezone": "America/Los_Angeles",
    "updated_at": "2012-07-08T00:55:27Z",
    "zip": "97114"
  },
  {
    "address": "615 E 15th St",
    "city": "McMinnville",
    "county": "Yamhill County",
    "created_at": "2012-01-04T20:16:58Z",
    "id": 20121,
    "latitude": "45.218610",
    "longitude": "-123.192082",
    "mascot": "Grizzly Bears",
    "name": "McMinnville Senior High School",
    "primary_color": "Red",
    "secondary_color": "White",
    "state": "OR",
    "timezone": "America/Los_Angeles",
    "updated_at": "2012-07-08T00:55:27Z",
    "zip": "97128"
  },
  {
    "address": "2400 Douglas Ave",
    "city": "Newberg",
    "county": "Yamhill County",
    "created_at": "2012-01-04T20:16:58Z",
    "id": 20122,
    "latitude": "45.312697",
    "longitude": "-122.953818",
    "mascot": "Tigers",
    "name": "Newberg High School",
    "primary_color": "Royal",
    "secondary_color": "Gold",
    "state": "OR",
    "timezone": "America/Los_Angeles",
    "updated_at": "2012-07-08T00:55:27Z",
    "zip": "97132"
  },
  {
    "address": "433 S Bridge St",
    "city": "Sheridan",
    "county": "Yamhill County",
    "created_at": "2012-01-04T20:16:59Z",
    "id": 20123,
    "latitude": "45.095618",
    "longitude": "-123.395410",
    "mascot": "Spartans",
    "name": "Sheridan High School",
    "primary_color": "Gold",
    "secondary_color": "Royal",
    "state": "OR",
    "timezone": "America/Los_Angeles",
    "updated_at": "2012-07-08T00:55:28Z",
    "zip": "97378"
  },
  {
    "address": "266 Washington St",
    "city": "Willamina",
    "county": "Yamhill County",
    "created_at": "2012-01-04T20:16:59Z",
    "id": 20124,
    "latitude": "45.076573",
    "longitude": "-123.484251",
    "mascot": "Bulldogs",
    "name": "Willamina High School",
    "primary_color": "Orange",
    "secondary_color": "Black",
    "state": "OR",
    "timezone": "America/Los_Angeles",
    "updated_at": "2012-07-08T00:55:28Z",
    "zip": "97396"
  },
  {
    "address": "275 N Maple St",
    "city": "Yamhill",
    "county": "Yamhill County",
    "created_at": "2012-01-04T20:16:59Z",
    "id": 20125,
    "latitude": "45.343350",
    "longitude": "-123.187811",
    "mascot": "Tigers",
    "name": "Yamhill/Carlton High School",
    "primary_color": "Orange",
    "secondary_color": "Black",
    "state": "OR",
    "timezone": "America/Los_Angeles",
    "updated_at": "2012-07-08T00:55:28Z",
    "zip": "97148"
  },
  {
    "address": "88153 Loop Rd",
    "city": "Government Camp",
    "county": "Clackamas County",
    "created_at": "2012-01-04T20:16:59Z",
    "id": 20126,
    "latitude": "45.297264",
    "longitude": "-121.750952",
    "mascot": null,
    "name": "Mount Hood Academy",
    "primary_color": null,
    "secondary_color": null,
    "state": "OR",
    "timezone": "America/Los_Angeles",
    "updated_at": "2012-07-08T00:55:28Z",
    "zip": "97028"
  },
  {
    "address": "4410 N Rogue Valley Blvd",
    "city": "Central Point",
    "county": "Jackson County",
    "created_at": "2012-01-04T20:16:59Z",
    "id": 20127,
    "latitude": "42.379321",
    "longitude": "-122.923746",
    "mascot": "Comets",
    "name": "Crater High School",
    "primary_color": "Black",
    "secondary_color": "White",
    "state": "OR",
    "timezone": "America/Los_Angeles",
    "updated_at": "2012-07-08T00:55:29Z",
    "zip": "97502"
  },
  {
    "address": "4105 Lancaster Dr NE",
    "city": "Salem",
    "county": "Marion County",
    "created_at": "2012-01-04T20:16:59Z",
    "id": 20128,
    "latitude": "44.977949",
    "longitude": "-122.983367",
    "mascot": "Eagles",
    "name": "College Park Christian Academy",
    "primary_color": "Navy",
    "secondary_color": "White",
    "state": "OR",
    "timezone": "America/Los_Angeles",
    "updated_at": "2012-07-08T00:55:29Z",
    "zip": "97305"
  },
  {
    "address": "231 N Garden Way",
    "city": "Eugene",
    "county": "Lane County",
    "created_at": "2012-01-04T20:16:59Z",
    "id": 20129,
    "latitude": "44.065462",
    "longitude": "-123.051981",
    "mascot": "Silver Eagles",
    "name": "Garden Way Christian Academy",
    "primary_color": "Gray",
    "secondary_color": "Royal",
    "state": "OR",
    "timezone": "America/Los_Angeles",
    "updated_at": "2012-07-08T00:55:29Z",
    "zip": "97401"
  },
  {
    "address": "14611 Hwy 62",
    "city": "Eagle Point",
    "county": "Jackson County",
    "created_at": "2012-01-04T20:16:59Z",
    "id": 20130,
    "latitude": "42.519334",
    "longitude": "-122.812712",
    "mascot": null,
    "name": "Shady Point SDA School",
    "primary_color": null,
    "secondary_color": null,
    "state": "OR",
    "timezone": "America/Los_Angeles",
    "updated_at": "2012-07-08T00:55:30Z",
    "zip": "97524"
  },
  {
    "address": "1121 NE 7th St",
    "city": "Grants Pass",
    "county": "Josephine County",
    "created_at": "2012-01-04T20:16:59Z",
    "id": 20131,
    "latitude": "42.448940",
    "longitude": "-123.320596",
    "mascot": "Lions",
    "name": "Brighton Academy",
    "primary_color": "Gray",
    "secondary_color": "Royal",
    "state": "OR",
    "timezone": "America/Los_Angeles",
    "updated_at": "2012-07-08T00:55:30Z",
    "zip": "97526"
  },
  {
    "address": "14605 SW Weir Rd",
    "city": "Beaverton",
    "county": "Washington County",
    "created_at": "2012-01-04T20:16:59Z",
    "id": 20132,
    "latitude": "45.447642",
    "longitude": "-122.827376",
    "mascot": "Wildcats",
    "name": "Southwest Christian School",
    "primary_color": "Columbia Blue",
    "secondary_color": "Royal",
    "state": "OR",
    "timezone": "America/Los_Angeles",
    "updated_at": "2012-07-08T00:55:30Z",
    "zip": "97006"
  },
  {
    "address": "30205 S Wall St",
    "city": "Colton",
    "county": "Clackamas County",
    "created_at": "2012-01-04T20:16:59Z",
    "id": 20133,
    "latitude": "45.169317",
    "longitude": "-122.437547",
    "mascot": "Vikings",
    "name": "Colton High School",
    "primary_color": "Yellow",
    "secondary_color": "Kelly Green",
    "state": "OR",
    "timezone": "America/Los_Angeles",
    "updated_at": "2012-07-08T00:55:31Z",
    "zip": "97017"
  },
  {
    "address": "19701 S Beavercreek Rd",
    "city": "Oregon City",
    "county": "Clackamas County",
    "created_at": "2012-01-04T20:16:59Z",
    "id": 20134,
    "latitude": "45.321977",
    "longitude": "-122.560630",
    "mascot": "Pioneers",
    "name": "Sage School",
    "primary_color": "Red",
    "secondary_color": "White",
    "state": "OR",
    "timezone": "America/Los_Angeles",
    "updated_at": "2012-07-08T00:55:31Z",
    "zip": "97045"
  },
  {
    "address": "PO Box 509",
    "city": "Coos Bay",
    "county": "Coos County",
    "created_at": "2012-01-04T20:16:59Z",
    "id": 20135,
    "latitude": "43.350030",
    "longitude": "-124.230029",
    "mascot": "Pirates",
    "name": "Career Education School 2",
    "primary_color": "Purple",
    "secondary_color": "Gold",
    "state": "OR",
    "timezone": "America/Los_Angeles",
    "updated_at": "2012-07-08T00:55:31Z",
    "zip": "97420"
  },
  {
    "address": "2323 Pacific Ave",
    "city": "North Bend",
    "county": "Coos County",
    "created_at": "2012-01-04T20:16:59Z",
    "id": 20136,
    "latitude": "43.402340",
    "longitude": "-124.235015",
    "mascot": "Bulldogs",
    "name": "North Bend High School",
    "primary_color": "Gold",
    "secondary_color": "Brown",
    "state": "OR",
    "timezone": "America/Los_Angeles",
    "updated_at": "2012-07-08T00:55:31Z",
    "zip": "97459"
  },
  {
    "address": "15200 McKenzie Hwy",
    "city": "Sisters",
    "county": "Deschutes County",
    "created_at": "2012-01-04T20:16:59Z",
    "id": 20137,
    "latitude": "44.291329",
    "longitude": "-121.571189",
    "mascot": "Outlaws",
    "name": "Sisters High School",
    "primary_color": "Black",
    "secondary_color": "White",
    "state": "OR",
    "timezone": "America/Los_Angeles",
    "updated_at": "2012-07-08T00:55:32Z",
    "zip": "97759"
  },
  {
    "address": "2455 Willakenzie Rd",
    "city": "Eugene",
    "county": "Lane County",
    "created_at": "2012-01-04T20:16:59Z",
    "id": 20138,
    "latitude": "44.080161",
    "longitude": "-123.073455",
    "mascot": "Leprechauns",
    "name": "International High School",
    "primary_color": "Kelly Green",
    "secondary_color": "White",
    "state": "OR",
    "timezone": "America/Los_Angeles",
    "updated_at": "2012-07-08T00:55:32Z",
    "zip": "97401"
  },
  {
    "address": "718 7th Ave SW",
    "city": "Albany",
    "county": "Linn County",
    "created_at": "2012-01-04T20:16:59Z",
    "id": 20139,
    "latitude": "44.631807",
    "longitude": "-123.111805",
    "mascot": "Bulldogs",
    "name": "Alternative School",
    "primary_color": "Royal",
    "secondary_color": "White",
    "state": "OR",
    "timezone": "America/Los_Angeles",
    "updated_at": "2012-07-08T00:55:32Z",
    "zip": "97321"
  },
  {
    "address": "1785 N Front St",
    "city": "Woodburn",
    "county": "Marion County",
    "created_at": "2012-01-04T20:16:59Z",
    "id": 20140,
    "latitude": "45.152794",
    "longitude": "-122.843709",
    "mascot": "Bulldogs",
    "name": "Woodburn High School",
    "primary_color": "Royal",
    "secondary_color": "White",
    "state": "OR",
    "timezone": "America/Los_Angeles",
    "updated_at": "2012-07-08T00:55:33Z",
    "zip": "97071"
  },
  {
    "address": "10822 SE Bush St",
    "city": "Portland",
    "county": "Multnomah County",
    "created_at": "2012-01-04T20:16:59Z",
    "id": 20141,
    "latitude": "45.494912",
    "longitude": "-122.551445",
    "mascot": "Pegasus",
    "name": "Aim High School",
    "primary_color": "Gray",
    "secondary_color": "Black",
    "state": "OR",
    "timezone": "America/Los_Angeles",
    "updated_at": "2012-07-08T00:55:33Z",
    "zip": "97266"
  },
  {
    "address": "17630 SE Main St",
    "city": "Portland",
    "county": "Multnomah County",
    "created_at": "2012-01-04T20:16:59Z",
    "id": 20142,
    "latitude": "45.513652",
    "longitude": "-122.481740",
    "mascot": null,
    "name": "Centennial Learning Center",
    "primary_color": null,
    "secondary_color": null,
    "state": "OR",
    "timezone": "America/Los_Angeles",
    "updated_at": "2012-07-08T00:55:33Z",
    "zip": "97233"
  },
  {
    "address": "2245 NE 36th Ave",
    "city": "Portland",
    "county": "Multnomah County",
    "created_at": "2012-01-04T20:16:59Z",
    "id": 20143,
    "latitude": "45.538634",
    "longitude": "-122.626014",
    "mascot": null,
    "name": "Portland Night High School",
    "primary_color": null,
    "secondary_color": null,
    "state": "OR",
    "timezone": "America/Los_Angeles",
    "updated_at": "2012-07-08T00:55:33Z",
    "zip": "97212"
  },
  {
    "address": "11375 SW Center St",
    "city": "Beaverton",
    "county": "Washington County",
    "created_at": "2012-01-04T20:16:59Z",
    "id": 20144,
    "latitude": "45.493747",
    "longitude": "-122.794273",
    "mascot": null,
    "name": "Arts & Community High School C E Mason",
    "primary_color": null,
    "secondary_color": null,
    "state": "OR",
    "timezone": "America/Los_Angeles",
    "updated_at": "2012-07-08T00:55:34Z",
    "zip": "97005"
  },
  {
    "address": "4200 NW 185th Ave",
    "city": "Portland",
    "county": "Washington County",
    "created_at": "2012-01-04T20:16:59Z",
    "id": 20145,
    "latitude": "45.549389",
    "longitude": "-122.867518",
    "mascot": "Wildcats",
    "name": "Westview High School",
    "primary_color": "Red",
    "secondary_color": "Navy",
    "state": "OR",
    "timezone": "America/Los_Angeles",
    "updated_at": "2012-07-08T00:55:34Z",
    "zip": "97229"
  },
  {
    "address": "3285 SE Rood Bridge Rd",
    "city": "Hillsboro",
    "county": "Washington County",
    "created_at": "2012-01-04T20:16:59Z",
    "id": 20146,
    "latitude": "45.495231",
    "longitude": "-122.953226",
    "mascot": null,
    "name": "Hillsboro Alternative High School",
    "primary_color": null,
    "secondary_color": null,
    "state": "OR",
    "timezone": "America/Los_Angeles",
    "updated_at": "2012-07-08T00:55:34Z",
    "zip": "97123"
  },
  {
    "address": "22300 SW Boones Ferry Rd",
    "city": "Tualatin",
    "county": "Washington County",
    "created_at": "2012-01-04T20:16:59Z",
    "id": 20147,
    "latitude": "45.360136",
    "longitude": "-122.774696",
    "mascot": "Timber Wolves",
    "name": "Tualatin High School",
    "primary_color": "Red",
    "secondary_color": "Gray",
    "state": "OR",
    "timezone": "America/Los_Angeles",
    "updated_at": "2012-07-08T00:55:34Z",
    "zip": "97062"
  },
  {
    "address": "86397 Eastway Dr",
    "city": "Eugene",
    "county": "Lane County",
    "created_at": "2012-01-04T20:16:59Z",
    "id": 20148,
    "latitude": "44.011275",
    "longitude": "-123.027590",
    "mascot": "Falcons",
    "name": "Oak Hill School",
    "primary_color": "Gold",
    "secondary_color": "Hunter Green",
    "state": "OR",
    "timezone": "America/Los_Angeles",
    "updated_at": "2012-07-08T00:55:35Z",
    "zip": "97405"
  },
  {
    "address": "9075 Pueblo Ave NE",
    "city": "Brooks",
    "county": "Marion County",
    "created_at": "2012-01-04T20:16:59Z",
    "id": 20149,
    "latitude": "45.049235",
    "longitude": "-122.958108",
    "mascot": "Warriors",
    "name": "Willamette Valley Christian School",
    "primary_color": "Royal",
    "secondary_color": "White",
    "state": "OR",
    "timezone": "America/Los_Angeles",
    "updated_at": "2012-07-08T00:55:35Z",
    "zip": "97305"
  },
  {
    "address": "6800 Wilsonville Rd",
    "city": "Wilsonville",
    "county": "Clackamas County",
    "created_at": "2012-01-04T20:16:59Z",
    "id": 20150,
    "latitude": "45.307274",
    "longitude": "-122.749221",
    "mascot": "Wildcats",
    "name": "Wilsonville High School",
    "primary_color": "Gray",
    "secondary_color": "Navy",
    "state": "OR",
    "timezone": "America/Los_Angeles",
    "updated_at": "2012-07-08T00:55:35Z",
    "zip": "97070"
  },
  {
    "address": "8020 NE Tillamook",
    "city": "Portland",
    "county": "Multnomah County",
    "created_at": "2012-01-04T20:16:59Z",
    "id": 20151,
    "latitude": "45.537239",
    "longitude": "-122.580636",
    "mascot": null,
    "name": "Vocational Village",
    "primary_color": null,
    "secondary_color": null,
    "state": "OR",
    "timezone": "America/Los_Angeles",
    "updated_at": "2012-07-08T00:55:35Z",
    "zip": "97213"
  },
  {
    "address": "200 N Monroe",
    "city": "Eugene",
    "county": "Lane County",
    "created_at": "2012-01-04T20:16:59Z",
    "id": 20152,
    "latitude": "44.060531",
    "longitude": "-123.104834",
    "mascot": null,
    "name": "CyberSchool",
    "primary_color": "Yellow",
    "secondary_color": "Kelly Green",
    "state": "OR",
    "timezone": "America/Los_Angeles",
    "updated_at": "2012-07-08T00:55:36Z",
    "zip": "97401"
  },
  {
    "address": "1131 SE Oak St",
    "city": "Portland",
    "county": "Multnomah County",
    "created_at": "2012-01-04T20:16:59Z",
    "id": 20153,
    "latitude": "45.520041",
    "longitude": "-122.654298",
    "mascot": null,
    "name": "International Learning Program",
    "primary_color": "Royal",
    "secondary_color": "White",
    "state": "OR",
    "timezone": "America/Los_Angeles",
    "updated_at": "2012-07-08T00:55:36Z",
    "zip": "97214"
  },
  {
    "address": "796 Pacific Dr",
    "city": "Hammond",
    "county": "Clatsop County",
    "created_at": "2012-01-04T20:16:59Z",
    "id": 20154,
    "latitude": "46.199226",
    "longitude": "-123.946573",
    "mascot": "Huskies",
    "name": "North Coast Christian School",
    "primary_color": "Gray",
    "secondary_color": "Purple",
    "state": "OR",
    "timezone": "America/Los_Angeles",
    "updated_at": "2012-07-08T00:55:36Z",
    "zip": "97121"
  },
  {
    "address": "1605 N College St",
    "city": "Newberg",
    "county": "Yamhill County",
    "created_at": "2012-01-04T20:16:59Z",
    "id": 20155,
    "latitude": "45.311527",
    "longitude": "-122.973357",
    "mascot": "Panthers",
    "name": "Open Bible Christian School",
    "primary_color": "Black",
    "secondary_color": "White",
    "state": "OR",
    "timezone": "America/Los_Angeles",
    "updated_at": "2012-07-08T00:55:36Z",
    "zip": "97132"
  },
  {
    "address": "717 4th St",
    "city": "Myrtle Point",
    "county": "Coos County",
    "created_at": "2012-01-04T20:16:59Z",
    "id": 20156,
    "latitude": "43.061261",
    "longitude": "-124.143436",
    "mascot": "Bobcats",
    "name": "Myrtle Point High School",
    "primary_color": "Royal",
    "secondary_color": "Red",
    "state": "OR",
    "timezone": "America/Los_Angeles",
    "updated_at": "2012-07-08T00:55:37Z",
    "zip": "97458"
  },
  {
    "address": "2234 SE 6th St",
    "city": "Redmond",
    "county": "Deschutes County",
    "created_at": "2012-01-04T20:16:59Z",
    "id": 20157,
    "latitude": "44.255818",
    "longitude": "-121.163401",
    "mascot": "White Tigers",
    "name": "Central Christian Schools",
    "primary_color": "Purple",
    "secondary_color": "White",
    "state": "OR",
    "timezone": "America/Los_Angeles",
    "updated_at": "2012-07-08T00:55:37Z",
    "zip": "97756"
  },
  {
    "address": "4373 Market NE",
    "city": "Salem",
    "county": "Marion County",
    "created_at": "2012-01-04T20:16:59Z",
    "id": 20158,
    "latitude": "44.950233",
    "longitude": "-122.975684",
    "mascot": "Cavaliers",
    "name": "Blanchet Catholic School",
    "primary_color": "Gray",
    "secondary_color": "Navy",
    "state": "OR",
    "timezone": "America/Los_Angeles",
    "updated_at": "2012-07-08T00:55:37Z",
    "zip": "97301"
  },
  {
    "address": "699 4th St",
    "city": "Maupin",
    "county": "Wasco County",
    "created_at": "2012-01-04T20:16:59Z",
    "id": 20159,
    "latitude": "45.176382",
    "longitude": "-121.080078",
    "mascot": "Redside Fish",
    "name": "South Wasco County High School",
    "primary_color": "Gold",
    "secondary_color": "Kelly Green",
    "state": "OR",
    "timezone": "America/Los_Angeles",
    "updated_at": "2012-07-08T00:55:37Z",
    "zip": "97037"
  },
  {
    "address": "1679 SE Enterprise Cir",
    "city": "Hillsboro",
    "county": "Washington County",
    "created_at": "2012-01-04T20:16:59Z",
    "id": 20160,
    "latitude": "45.507581",
    "longitude": "-122.967640",
    "mascot": "Knights",
    "name": "Heritage Christian School",
    "primary_color": "Hunter Green",
    "secondary_color": "Maroon",
    "state": "OR",
    "timezone": "America/Los_Angeles",
    "updated_at": "2012-07-08T00:55:37Z",
    "zip": "97123"
  },
  {
    "address": "1291 NE 5th",
    "city": "Bend",
    "county": "Deschutes County",
    "created_at": "2012-01-04T20:16:59Z",
    "id": 20161,
    "latitude": "44.062760",
    "longitude": "-121.298967",
    "mascot": null,
    "name": "Marshall High School",
    "primary_color": null,
    "secondary_color": null,
    "state": "OR",
    "timezone": "America/Los_Angeles",
    "updated_at": "2012-07-08T00:55:38Z",
    "zip": "97701"
  },
  {
    "address": "9020 SW Beaverton Hillside Hwy",
    "city": "Portland",
    "county": "Washington County",
    "created_at": "2012-01-04T20:16:59Z",
    "id": 20162,
    "latitude": "45.486391",
    "longitude": "-122.769809",
    "mascot": null,
    "name": "Thomas A Edison High School",
    "primary_color": null,
    "secondary_color": null,
    "state": "OR",
    "timezone": "America/Los_Angeles",
    "updated_at": "2012-07-08T00:55:38Z",
    "zip": "97225"
  },
  {
    "address": "2735 NE 82nd Ave",
    "city": "Portland",
    "county": "Multnomah County",
    "created_at": "2012-01-04T20:16:59Z",
    "id": 20163,
    "latitude": "45.541266",
    "longitude": "-122.578880",
    "mascot": "Senator",
    "name": "Madison High School",
    "primary_color": "Red",
    "secondary_color": "Navy",
    "state": "OR",
    "timezone": "America/Los_Angeles",
    "updated_at": "2012-07-08T00:55:39Z",
    "zip": "97220"
  },
  {
    "address": "1390 45th Ave NE",
    "city": "Salem",
    "county": "Marion County",
    "created_at": "2012-01-04T20:16:59Z",
    "id": 20164,
    "latitude": "44.947028",
    "longitude": "-122.973589",
    "mascot": "Flames",
    "name": "Salem Christian School",
    "primary_color": "Gold",
    "secondary_color": "Navy",
    "state": "OR",
    "timezone": "America/Los_Angeles",
    "updated_at": "2012-07-08T00:55:39Z",
    "zip": "97301"
  },
  {
    "address": "9625 SW 125th Ave",
    "city": "Beaverton",
    "county": "Washington County",
    "created_at": "2012-01-04T20:16:59Z",
    "id": 20165,
    "latitude": "45.450374",
    "longitude": "-122.805427",
    "mascot": "Skyhawks",
    "name": "Southridge High School",
    "primary_color": "Gold",
    "secondary_color": "Red",
    "state": "OR",
    "timezone": "America/Los_Angeles",
    "updated_at": "2012-07-08T00:55:39Z",
    "zip": "97008"
  },
  {
    "address": "615 E 15th St",
    "city": "McMinnville",
    "county": "Yamhill County",
    "created_at": "2012-01-04T20:16:59Z",
    "id": 20166,
    "latitude": "45.218610",
    "longitude": "-123.192082",
    "mascot": "Grizzlies",
    "name": "Adams 9th Grade Campus",
    "primary_color": "Red",
    "secondary_color": "White",
    "state": "OR",
    "timezone": "America/Los_Angeles",
    "updated_at": "2012-07-08T00:55:39Z",
    "zip": "97128"
  },
  {
    "address": "1841 SW Merlo Dr",
    "city": "Beaverton",
    "county": "Washington County",
    "created_at": "2012-01-04T20:16:59Z",
    "id": 20167,
    "latitude": "45.506788",
    "longitude": "-122.847970",
    "mascot": null,
    "name": "Merlo Station High School",
    "primary_color": "Maroon",
    "secondary_color": "Hunter Green",
    "state": "OR",
    "timezone": "America/Los_Angeles",
    "updated_at": "2012-07-08T00:55:39Z",
    "zip": "97006"
  },
  {
    "address": "1052 Fairfield Ave",
    "city": "Eugene",
    "county": "Lane County",
    "created_at": "2012-01-04T20:16:59Z",
    "id": 20168,
    "latitude": "44.072203",
    "longitude": "-123.148679",
    "mascot": "Lions",
    "name": "Lifegate Christian School",
    "primary_color": "Gold",
    "secondary_color": "Purple",
    "state": "OR",
    "timezone": "America/Los_Angeles",
    "updated_at": "2012-07-08T00:55:40Z",
    "zip": "97402"
  },
  {
    "address": "850 SW Antler",
    "city": "Redmond",
    "county": "Deschutes County",
    "created_at": "2012-01-04T20:16:59Z",
    "id": 20169,
    "latitude": "44.276462",
    "longitude": "-121.159346",
    "mascot": "Phoenix",
    "name": "Edwin Brown High School",
    "primary_color": "Teal",
    "secondary_color": "Purple",
    "state": "OR",
    "timezone": "America/Los_Angeles",
    "updated_at": "2012-07-08T00:55:40Z",
    "zip": "97756"
  },
  {
    "address": "2000 SE Century Blvd",
    "city": "Hillsboro",
    "county": "Washington County",
    "created_at": "2012-01-04T20:16:59Z",
    "id": 20170,
    "latitude": "45.504641",
    "longitude": "-122.916616",
    "mascot": "Jaguars",
    "name": "Century High School",
    "primary_color": "Black",
    "secondary_color": "Teal ",
    "state": "OR",
    "timezone": "America/Los_Angeles",
    "updated_at": "2012-07-08T00:55:40Z",
    "zip": "97123"
  },
  {
    "address": "15220 McKenzie Hwy",
    "city": "Sisters",
    "county": "Deschutes County",
    "created_at": "2012-01-04T20:16:59Z",
    "id": 20171,
    "latitude": "44.291337",
    "longitude": "-121.568199",
    "mascot": null,
    "name": "Sonrise Christian School",
    "primary_color": "Gold",
    "secondary_color": "Columbia Blue",
    "state": "OR",
    "timezone": "America/Los_Angeles",
    "updated_at": "2012-07-08T00:55:41Z",
    "zip": "97759"
  },
  {
    "address": "25398 Dawson Rd",
    "city": "Monroe",
    "county": "Benton County",
    "created_at": "2012-01-04T20:16:59Z",
    "id": 20172,
    "latitude": "44.363168",
    "longitude": "-123.354249",
    "mascot": "Conquerors",
    "name": "Bellfountain Cornerstone Christian",
    "primary_color": null,
    "secondary_color": null,
    "state": "OR",
    "timezone": "America/Los_Angeles",
    "updated_at": "2012-07-08T00:55:41Z",
    "zip": "97456"
  },
  {
    "address": "839 S Main St",
    "city": "Prineville",
    "county": "Crook County",
    "created_at": "2012-01-04T20:16:59Z",
    "id": 20173,
    "latitude": "44.295426",
    "longitude": "-120.847097",
    "mascot": "Warriors",
    "name": "Crook County Christian School",
    "primary_color": "Purple",
    "secondary_color": "Gray",
    "state": "OR",
    "timezone": "America/Los_Angeles",
    "updated_at": "2012-07-08T00:55:41Z",
    "zip": "97754"
  },
  {
    "address": "19146 S Molalla Ave",
    "city": "Oregon City",
    "county": "Clackamas County",
    "created_at": "2012-01-04T20:16:59Z",
    "id": 20174,
    "latitude": "45.329023",
    "longitude": "-122.584454",
    "mascot": null,
    "name": "New Covenant Christian School",
    "primary_color": "Kelly Green",
    "secondary_color": "Gold",
    "state": "OR",
    "timezone": "America/Los_Angeles",
    "updated_at": "2012-07-08T00:55:41Z",
    "zip": "97045"
  },
  {
    "address": "1130 SW Main St",
    "city": "Portland",
    "county": "Multnomah County",
    "created_at": "2012-01-04T20:16:59Z",
    "id": 20175,
    "latitude": "45.517703",
    "longitude": "-122.684919",
    "mascot": null,
    "name": "The Northwest Academy",
    "primary_color": null,
    "secondary_color": null,
    "state": "OR",
    "timezone": "America/Los_Angeles",
    "updated_at": "2012-07-08T00:55:42Z",
    "zip": "97205"
  },
  {
    "address": "1110 Fairfield Ave Ste 100",
    "city": "Eugene",
    "county": "Lane County",
    "created_at": "2012-01-04T20:16:59Z",
    "id": 20176,
    "latitude": "44.072976",
    "longitude": "-123.148671",
    "mascot": null,
    "name": "HomeSource - Bethel Family Tech/Resource",
    "primary_color": null,
    "secondary_color": null,
    "state": "OR",
    "timezone": "America/Los_Angeles",
    "updated_at": "2012-07-08T00:55:42Z",
    "zip": "97402"
  },
  {
    "address": "1666 W 12th St",
    "city": "Springfield",
    "county": "Lane County",
    "created_at": "2012-01-04T20:16:59Z",
    "id": 20177,
    "latitude": "44.046632",
    "longitude": "-123.117585",
    "mascot": null,
    "name": "Pioneer Youth Corps Military Academy",
    "primary_color": null,
    "secondary_color": null,
    "state": "OR",
    "timezone": "America/Los_Angeles",
    "updated_at": "2012-07-08T00:55:42Z",
    "zip": "97402"
  },
  {
    "address": "76132 Blue Mountain School Rd",
    "city": "Cottage Grove",
    "county": "Lane County",
    "created_at": "2012-01-04T20:16:59Z",
    "id": 20178,
    "latitude": "43.737835",
    "longitude": "-122.983044",
    "mascot": null,
    "name": "The Blue Mountain School",
    "primary_color": null,
    "secondary_color": null,
    "state": "OR",
    "timezone": "America/Los_Angeles",
    "updated_at": "2012-07-08T00:55:42Z",
    "zip": "97424"
  },
  {
    "address": "1201 S Alameda",
    "city": "Klamath Falls",
    "county": "Klamath County",
    "created_at": "2012-01-04T20:16:59Z",
    "id": 20179,
    "latitude": "42.173750",
    "longitude": "-121.737519",
    "mascot": null,
    "name": "Hilltop Christian Academy",
    "primary_color": null,
    "secondary_color": null,
    "state": "OR",
    "timezone": "America/Los_Angeles",
    "updated_at": "2012-07-08T00:55:43Z",
    "zip": "97603"
  },
  {
    "address": "21945 NW Wagon Way",
    "city": "Hillsboro",
    "county": "Washington County",
    "created_at": "2012-01-04T20:16:59Z",
    "id": 20180,
    "latitude": "45.561445",
    "longitude": "-122.903880",
    "mascot": "Falcons",
    "name": "Liberty High School",
    "primary_color": "Navy",
    "secondary_color": "Gold",
    "state": "OR",
    "timezone": "America/Los_Angeles",
    "updated_at": "2012-07-08T00:55:43Z",
    "zip": "97124"
  },
  {
    "address": "1428 NE 14th Pl",
    "city": "Canby",
    "county": "Clackamas County",
    "created_at": "2012-01-04T20:16:59Z",
    "id": 20181,
    "latitude": "45.273652",
    "longitude": "-122.677225",
    "mascot": "Timberwolves",
    "name": "Tualatin High School",
    "primary_color": "Maroon",
    "secondary_color": "Black",
    "state": "OR",
    "timezone": "America/Los_Angeles",
    "updated_at": "2012-07-08T00:55:43Z",
    "zip": "97013"
  },
  {
    "address": "204 S John Adams St",
    "city": "Oregon City",
    "county": "Clackamas County",
    "created_at": "2012-01-04T20:16:59Z",
    "id": 20182,
    "latitude": "45.350702",
    "longitude": "-122.611498",
    "mascot": null,
    "name": "Northwest School of Success",
    "primary_color": null,
    "secondary_color": null,
    "state": "OR",
    "timezone": "America/Los_Angeles",
    "updated_at": "2012-07-08T00:55:44Z",
    "zip": "97045"
  },
  {
    "address": "8950 S Schneider Rd",
    "city": "Canby",
    "county": "Clackamas County",
    "created_at": "2012-01-04T20:16:59Z",
    "id": 20183,
    "latitude": "45.136274",
    "longitude": "-122.686063",
    "mascot": null,
    "name": "South Clackamas Christian School",
    "primary_color": null,
    "secondary_color": null,
    "state": "OR",
    "timezone": "America/Los_Angeles",
    "updated_at": "2012-07-08T00:55:44Z",
    "zip": "97013"
  },
  {
    "address": "3802 NE Martin Luther King Blvd",
    "city": "Portland",
    "county": "Multnomah County",
    "created_at": "2012-01-04T20:16:59Z",
    "id": 20184,
    "latitude": "45.550438",
    "longitude": "-122.661564",
    "mascot": null,
    "name": "Oregon Outreach McCoy Academy",
    "primary_color": null,
    "secondary_color": null,
    "state": "OR",
    "timezone": "America/Los_Angeles",
    "updated_at": "2012-07-08T00:55:44Z",
    "zip": "97212"
  },
  {
    "address": "19729 Hwy 213",
    "city": "Oregon City",
    "county": "Clackamas County",
    "created_at": "2012-01-04T20:16:59Z",
    "id": 20185,
    "latitude": "45.321061",
    "longitude": "-122.577906",
    "mascot": null,
    "name": "Clackamas Middle College",
    "primary_color": "Blue",
    "secondary_color": "White",
    "state": "OR",
    "timezone": "America/Los_Angeles",
    "updated_at": "2012-07-08T00:55:44Z",
    "zip": "97045"
  },
  {
    "address": "1201 JQ Adams St",
    "city": "Oregon City",
    "county": "Clackamas County",
    "created_at": "2012-01-04T20:16:59Z",
    "id": 20186,
    "latitude": "45.357858",
    "longitude": "-122.597075",
    "mascot": "Lions",
    "name": "Kings Academy",
    "primary_color": "Maroon",
    "secondary_color": "White",
    "state": "OR",
    "timezone": "America/Los_Angeles",
    "updated_at": "2012-07-08T00:55:45Z",
    "zip": "97045"
  },
  {
    "address": "5747 SE 87th Ave",
    "city": "Portland",
    "county": "Multnomah County",
    "created_at": "2012-01-04T20:16:59Z",
    "id": 20187,
    "latitude": "45.480785",
    "longitude": "-122.573293",
    "mascot": null,
    "name": "Village Free School",
    "primary_color": null,
    "secondary_color": null,
    "state": "OR",
    "timezone": "America/Los_Angeles",
    "updated_at": "2012-07-08T00:55:45Z",
    "zip": "97266"
  },
  {
    "address": "1154 NW A St.",
    "city": "Toledo",
    "county": "Lincoln County",
    "created_at": "2012-01-04T20:16:59Z",
    "id": 20188,
    "latitude": "44.627537",
    "longitude": "-123.939270",
    "mascot": null,
    "name": "Abundant Life Academy",
    "primary_color": null,
    "secondary_color": null,
    "state": "OR",
    "timezone": "America/Los_Angeles",
    "updated_at": "2012-07-08T00:55:45Z",
    "zip": "97391"
  },
  {
    "address": "45581 Vida Park",
    "city": "Vida",
    "county": "Lane County",
    "created_at": "2012-01-04T20:16:59Z",
    "id": 20189,
    "latitude": "44.149964",
    "longitude": "-122.570975",
    "mascot": null,
    "name": "McKenzie River Christian School",
    "primary_color": null,
    "secondary_color": null,
    "state": "OR",
    "timezone": "America/Los_Angeles",
    "updated_at": "2012-07-08T00:55:46Z",
    "zip": "97488"
  }
]