[
  {
    "address": "1000 Turpin St",
    "city": "Augusta",
    "county": "Richmond County",
    "created_at": "2012-01-04T20:14:06Z",
    "id": 5845,
    "latitude": "33.449505",
    "longitude": "-81.988536",
    "mascot": null,
    "name": "A C Criggs Opp Magnet School",
    "primary_color": "Black",
    "secondary_color": "White",
    "state": "GA",
    "timezone": "America/New_York",
    "updated_at": "2012-07-07T23:34:59Z",
    "zip": "30901"
  },
  {
    "address": "9769 Tara Blvd",
    "city": "Jonesboro",
    "county": "Clayton County",
    "created_at": "2012-01-04T20:14:06Z",
    "id": 5846,
    "latitude": "33.488548",
    "longitude": "-84.341191",
    "mascot": "Flames",
    "name": "A C T S",
    "primary_color": "Royal",
    "secondary_color": "Red",
    "state": "GA",
    "timezone": "America/New_York",
    "updated_at": "2012-07-07T23:34:59Z",
    "zip": "30236"
  },
  {
    "address": "1324 Laney-Walker Blvd",
    "city": "Augusta",
    "county": "Richmond County",
    "created_at": "2012-01-04T20:14:06Z",
    "id": 5847,
    "latitude": "33.466588",
    "longitude": "-81.981961",
    "mascot": "Panthers",
    "name": "A R Johnson High School",
    "primary_color": "Purple",
    "secondary_color": "White",
    "state": "GA",
    "timezone": "America/New_York",
    "updated_at": "2012-07-07T23:34:59Z",
    "zip": "30901"
  },
  {
    "address": "120 Copeland Rd Ste 254",
    "city": "Atlanta",
    "county": "Fulton County",
    "created_at": "2012-01-04T20:14:06Z",
    "id": 5848,
    "latitude": "33.884812",
    "longitude": "-84.371241",
    "mascot": "Wolverines",
    "name": "Academy High School",
    "primary_color": "Royal",
    "secondary_color": "White",
    "state": "GA",
    "timezone": "America/New_York",
    "updated_at": "2012-07-07T23:35:00Z",
    "zip": "30342"
  },
  {
    "address": "910 Russell St",
    "city": "Augusta",
    "county": "Richmond County",
    "created_at": "2012-01-04T20:14:06Z",
    "id": 5849,
    "latitude": "33.474921",
    "longitude": "-82.005659",
    "mascot": "Musketeers",
    "name": "Academy Of Richmond County",
    "primary_color": "Purple",
    "secondary_color": "Gold",
    "state": "GA",
    "timezone": "America/New_York",
    "updated_at": "2012-07-07T23:35:00Z",
    "zip": "30904"
  },
  {
    "address": "519 Old Highway 41 ",
    "city": "Adairsville",
    "county": "Bartow County",
    "created_at": "2012-01-04T20:14:06Z",
    "id": 5850,
    "latitude": "34.341041",
    "longitude": "-84.913299",
    "mascot": "Tigers",
    "name": "Adairsville High School",
    "primary_color": "Kelly Green",
    "secondary_color": "White",
    "state": "GA",
    "timezone": "America/New_York",
    "updated_at": "2012-07-07T23:35:01Z",
    "zip": "30103"
  },
  {
    "address": "801 Residence Ave",
    "city": "Albany",
    "county": "Dougherty County",
    "created_at": "2012-01-04T20:14:06Z",
    "id": 5851,
    "latitude": "31.583073",
    "longitude": "-84.168139",
    "mascot": "Indians",
    "name": "Albany High School",
    "primary_color": "Orange",
    "secondary_color": "Kelly Green",
    "state": "GA",
    "timezone": "America/New_York",
    "updated_at": "2012-07-07T23:35:01Z",
    "zip": "31701"
  },
  {
    "address": "3001 Hopkins St",
    "city": "Savannah",
    "county": "Chatham County",
    "created_at": "2012-01-04T20:14:06Z",
    "id": 5852,
    "latitude": "32.053568",
    "longitude": "-81.115461",
    "mascot": "Bulldogs",
    "name": "Alfred Beach High School",
    "primary_color": "Gold",
    "secondary_color": "Royal",
    "state": "GA",
    "timezone": "America/New_York",
    "updated_at": "2012-07-07T23:35:02Z",
    "zip": "31405"
  },
  {
    "address": "2819 Peach Orchard Rd",
    "city": "Augusta",
    "county": "Richmond County",
    "created_at": "2012-01-04T20:14:06Z",
    "id": 5853,
    "latitude": "33.419815",
    "longitude": "-82.021841",
    "mascot": "Angels",
    "name": "Alleluia Community School",
    "primary_color": "Gold",
    "secondary_color": "Red",
    "state": "GA",
    "timezone": "America/New_York",
    "updated_at": "2012-07-07T23:35:02Z",
    "zip": "30906"
  },
  {
    "address": "2114 Dorothy St",
    "city": "Waycross",
    "county": "Ware County",
    "created_at": "2012-01-04T20:14:06Z",
    "id": 5854,
    "latitude": "31.239748",
    "longitude": "-82.357626",
    "mascot": null,
    "name": "Alpha Center",
    "primary_color": null,
    "secondary_color": null,
    "state": "GA",
    "timezone": "America/New_York",
    "updated_at": "2012-07-07T23:35:02Z",
    "zip": "31501"
  },
  {
    "address": "PO Box 1138",
    "city": "Hawkinsville",
    "county": "Houston County",
    "created_at": "2012-01-04T20:14:06Z",
    "id": 5855,
    "latitude": "32.304470",
    "longitude": "-83.615889",
    "mascot": null,
    "name": "Alternative Learning Center",
    "primary_color": null,
    "secondary_color": null,
    "state": "GA",
    "timezone": "America/New_York",
    "updated_at": "2012-07-07T23:35:03Z",
    "zip": "31036"
  },
  {
    "address": "200 Industrial Blvd",
    "city": "Americus",
    "county": "Sumter County",
    "created_at": "2012-01-04T20:14:06Z",
    "id": 5856,
    "latitude": "32.113754",
    "longitude": "-84.210024",
    "mascot": "Rams",
    "name": "Americus Sumter High School North",
    "primary_color": "Gold",
    "secondary_color": "Royal",
    "state": "GA",
    "timezone": "America/New_York",
    "updated_at": "2012-07-07T23:35:03Z",
    "zip": "31709"
  },
  {
    "address": "805 Harrold Ave",
    "city": "Americus",
    "county": "Sumter County",
    "created_at": "2012-01-04T20:14:06Z",
    "id": 5857,
    "latitude": "32.059631",
    "longitude": "-84.232333",
    "mascot": "Panthers",
    "name": "Americus Sumter High School South",
    "primary_color": "Royal",
    "secondary_color": "White",
    "state": "GA",
    "timezone": "America/New_York",
    "updated_at": "2012-07-07T23:35:04Z",
    "zip": "31709"
  },
  {
    "address": "3800 Linecrest Rd",
    "city": "Ellenwood",
    "county": "DeKalb County",
    "created_at": "2012-01-04T20:14:06Z",
    "id": 5858,
    "latitude": "33.653619",
    "longitude": "-84.236173",
    "mascot": "Eagles",
    "name": "Anointed Word School",
    "primary_color": "Royal",
    "secondary_color": "White",
    "state": "GA",
    "timezone": "America/New_York",
    "updated_at": "2012-07-07T23:35:04Z",
    "zip": "30294"
  },
  {
    "address": "5166 Old Norcross Rd",
    "city": "Norcross",
    "county": "Gwinnett County",
    "created_at": "2012-01-04T20:14:06Z",
    "id": 5859,
    "latitude": "33.949800",
    "longitude": "-84.194839",
    "mascot": "Patriots",
    "name": "Answer Center Christian Academy",
    "primary_color": "Red",
    "secondary_color": "White",
    "state": "GA",
    "timezone": "America/New_York",
    "updated_at": "2012-07-07T23:35:04Z",
    "zip": "30091"
  },
  {
    "address": "940 Haymon Morris Road",
    "city": "Winder",
    "county": "Barrow County",
    "created_at": "2012-01-04T20:14:06Z",
    "id": 5860,
    "latitude": "33.950610",
    "longitude": "-83.785453",
    "mascot": "Wildcats",
    "name": "Apalachee High School",
    "primary_color": "Navy",
    "secondary_color": "Gold",
    "state": "GA",
    "timezone": "America/New_York",
    "updated_at": "2012-07-07T23:35:05Z",
    "zip": "30680"
  },
  {
    "address": "1479 Hatch Pky S",
    "city": "Baxley",
    "county": "Appling County",
    "created_at": "2012-01-04T20:14:06Z",
    "id": 5861,
    "latitude": "31.758493",
    "longitude": "-82.358687",
    "mascot": "Eagles",
    "name": "Appling Christian Academy",
    "primary_color": "Royal",
    "secondary_color": "White",
    "state": "GA",
    "timezone": "America/New_York",
    "updated_at": "2012-07-07T23:35:05Z",
    "zip": "31513"
  },
  {
    "address": "482 Blackshear Highway",
    "city": "Baxley",
    "county": "Appling County",
    "created_at": "2012-01-04T20:14:06Z",
    "id": 5862,
    "latitude": "31.758181",
    "longitude": "-82.352940",
    "mascot": "Pirates",
    "name": "Appling County Comprehensive High School",
    "primary_color": "Red",
    "secondary_color": "Black",
    "state": "GA",
    "timezone": "America/New_York",
    "updated_at": "2012-07-07T23:35:06Z",
    "zip": "31513"
  },
  {
    "address": "1920 Highland Ave",
    "city": "Augusta",
    "county": "Richmond County",
    "created_at": "2012-01-04T20:14:06Z",
    "id": 5863,
    "latitude": "33.462267",
    "longitude": "-82.038711",
    "mascot": "Fighting Irish",
    "name": "Aquinas High School",
    "primary_color": "Kelly Green",
    "secondary_color": "Gold",
    "state": "GA",
    "timezone": "America/New_York",
    "updated_at": "2012-07-07T23:35:07Z",
    "zip": "30904"
  },
  {
    "address": "4500 Ridge Rd",
    "city": "Fairburn",
    "county": "Fulton County",
    "created_at": "2012-01-04T20:14:06Z",
    "id": 5864,
    "latitude": "33.634931",
    "longitude": "-84.649769",
    "mascot": "Eagles",
    "name": "Arlington Christian School",
    "primary_color": "Gold",
    "secondary_color": "Hunter Green",
    "state": "GA",
    "timezone": "America/New_York",
    "updated_at": "2012-07-07T23:35:08Z",
    "zip": "30213"
  },
  {
    "address": "4203 Martha Berry Hwy",
    "city": "Rome",
    "county": "Floyd County",
    "created_at": "2012-01-04T20:14:06Z",
    "id": 5865,
    "latitude": "34.340822",
    "longitude": "-85.172379",
    "mascot": "Indians",
    "name": "Armuchee High School",
    "primary_color": "Gray",
    "secondary_color": "Royal",
    "state": "GA",
    "timezone": "America/New_York",
    "updated_at": "2012-07-07T23:35:09Z",
    "zip": "30165"
  },
  {
    "address": "1281 Spartan Ln",
    "city": "Athens",
    "county": "Oconee County",
    "created_at": "2012-01-04T20:14:06Z",
    "id": 5866,
    "latitude": "33.897384",
    "longitude": "-83.401563",
    "mascot": "Spartans",
    "name": "Athens Academy",
    "primary_color": "Hunter Green",
    "secondary_color": "White",
    "state": "GA",
    "timezone": "America/New_York",
    "updated_at": "2012-07-07T23:35:09Z",
    "zip": "30606"
  },
  {
    "address": "1270 Hwy 29 N",
    "city": "Athens",
    "county": "Clarke County",
    "created_at": "2012-01-04T20:14:06Z",
    "id": 5867,
    "latitude": "34.011625",
    "longitude": "-83.326734",
    "mascot": "Eagles",
    "name": "Athens Christian School",
    "primary_color": "Gold",
    "secondary_color": "Purple",
    "state": "GA",
    "timezone": "America/New_York",
    "updated_at": "2012-07-07T23:35:09Z",
    "zip": "30601"
  },
  {
    "address": "145 Rebel Lane",
    "city": "Pearson",
    "county": "Atkinson County",
    "created_at": "2012-01-04T20:14:06Z",
    "id": 5868,
    "latitude": "31.321077",
    "longitude": "-82.847943",
    "mascot": "Rebels",
    "name": "Atkinson County High School",
    "primary_color": "Red",
    "secondary_color": "Gray",
    "state": "GA",
    "timezone": "America/New_York",
    "updated_at": "2012-07-07T23:35:10Z",
    "zip": "31642"
  },
  {
    "address": "3870 Cascade Rd SW",
    "city": "Atlanta",
    "county": "Fulton County",
    "created_at": "2012-01-04T20:14:06Z",
    "id": 5869,
    "latitude": "33.725208",
    "longitude": "-84.514519",
    "mascot": "Aardvarks",
    "name": "Atlanta Adventist Academy",
    "primary_color": "Gray",
    "secondary_color": "Maroon",
    "state": "GA",
    "timezone": "America/New_York",
    "updated_at": "2012-07-07T23:35:10Z",
    "zip": "30331"
  },
  {
    "address": "890 N Indian Creek Dr",
    "city": "Clarkston",
    "county": "DeKalb County",
    "created_at": "2012-01-04T20:14:06Z",
    "id": 5870,
    "latitude": "33.802816",
    "longitude": "-84.238640",
    "mascot": "Apaches",
    "name": "Atlanta Area School For The Deaf",
    "primary_color": "Navy",
    "secondary_color": "Gold",
    "state": "GA",
    "timezone": "America/New_York",
    "updated_at": "2012-07-07T23:35:11Z",
    "zip": "30021"
  },
  {
    "address": "2890 N Fulton Dr",
    "city": "Atlanta",
    "county": "Fulton County",
    "created_at": "2012-01-04T20:14:06Z",
    "id": 5871,
    "latitude": "33.834423",
    "longitude": "-84.377834",
    "mascot": "Eagles",
    "name": "Atlanta International School",
    "primary_color": "Royal",
    "secondary_color": "White",
    "state": "GA",
    "timezone": "America/New_York",
    "updated_at": "2012-07-07T23:35:11Z",
    "zip": "30305"
  },
  {
    "address": "285 Flowing Wells Rd",
    "city": "Martinez",
    "county": "Richmond County",
    "created_at": "2012-01-04T20:14:06Z",
    "id": 5872,
    "latitude": "33.499414",
    "longitude": "-82.107892",
    "mascot": "Cavaliers",
    "name": "Augusta Preparatory Day School",
    "primary_color": "Gold",
    "secondary_color": "Royal",
    "state": "GA",
    "timezone": "America/New_York",
    "updated_at": "2012-07-07T23:35:11Z",
    "zip": "30907"
  },
  {
    "address": "4299 Wheeler Rd",
    "city": "Augusta",
    "county": "Columbia County",
    "created_at": "2012-01-04T20:14:06Z",
    "id": 5873,
    "latitude": "33.487845",
    "longitude": "-82.123366",
    "mascot": null,
    "name": "Augusta SDA Christian School",
    "primary_color": null,
    "secondary_color": null,
    "state": "GA",
    "timezone": "America/New_York",
    "updated_at": "2012-07-07T23:35:12Z",
    "zip": "30906"
  },
  {
    "address": "1192 Clarendon Ave",
    "city": "Avondale Estates",
    "county": "DeKalb County",
    "created_at": "2012-01-04T20:14:06Z",
    "id": 5874,
    "latitude": "33.759333",
    "longitude": "-84.268643",
    "mascot": "Blue Devils",
    "name": "Avondale High School",
    "primary_color": "Royal",
    "secondary_color": "White",
    "state": "GA",
    "timezone": "America/New_York",
    "updated_at": "2012-07-07T23:35:13Z",
    "zip": "30002"
  },
  {
    "address": "903 N Pierce St",
    "city": "Alma",
    "county": "Bacon County",
    "created_at": "2012-01-04T20:14:06Z",
    "id": 5875,
    "latitude": "31.547424",
    "longitude": "-82.461840",
    "mascot": "Raiders",
    "name": "Bacon County High School",
    "primary_color": "Red",
    "secondary_color": "White",
    "state": "GA",
    "timezone": "America/New_York",
    "updated_at": "2012-07-07T23:35:13Z",
    "zip": "31510"
  },
  {
    "address": "260 E Walton St",
    "city": "Baconton",
    "county": "Mitchell County",
    "created_at": "2012-01-04T20:14:06Z",
    "id": 5876,
    "latitude": "31.375818",
    "longitude": "-84.157488",
    "mascot": null,
    "name": "Baconton Community Charter School",
    "primary_color": null,
    "secondary_color": null,
    "state": "GA",
    "timezone": "America/New_York",
    "updated_at": "2012-07-07T23:35:13Z",
    "zip": "31716"
  },
  {
    "address": "1301 E College St",
    "city": "Bainbridge",
    "county": "Decatur County",
    "created_at": "2012-01-04T20:14:06Z",
    "id": 5877,
    "latitude": "30.897657",
    "longitude": "-84.557791",
    "mascot": "Bear Cats",
    "name": "Bainbridge High School",
    "primary_color": "Gold",
    "secondary_color": "Purple",
    "state": "GA",
    "timezone": "America/New_York",
    "updated_at": "2012-07-07T23:35:14Z",
    "zip": "39819"
  },
  {
    "address": "348 Hwy 37 E",
    "city": "Newton",
    "county": "Richmond County",
    "created_at": "2012-01-04T20:14:06Z",
    "id": 5878,
    "latitude": "33.462224",
    "longitude": "-81.969913",
    "mascot": "Black Bears",
    "name": "Baker High School",
    "primary_color": "Gold",
    "secondary_color": "Black",
    "state": "GA",
    "timezone": "America/New_York",
    "updated_at": "2012-07-07T23:35:14Z",
    "zip": "30901"
  },
  {
    "address": "348 Hwy 37 E",
    "city": "Newton",
    "county": "Richmond County",
    "created_at": "2012-01-04T20:14:06Z",
    "id": 5879,
    "latitude": "33.462224",
    "longitude": "-81.969913",
    "mascot": "Black Bear",
    "name": "Baker Middle School",
    "primary_color": "Gold",
    "secondary_color": "Black",
    "state": "GA",
    "timezone": "America/New_York",
    "updated_at": "2012-07-07T23:35:14Z",
    "zip": "30901"
  },
  {
    "address": "155 Hwy 49 W",
    "city": "Milledgeville",
    "county": "Baldwin County",
    "created_at": "2012-01-04T20:14:06Z",
    "id": 5880,
    "latitude": "33.071258",
    "longitude": "-83.256965",
    "mascot": "Braves",
    "name": "Baldwin High School",
    "primary_color": "Red",
    "secondary_color": "White",
    "state": "GA",
    "timezone": "America/New_York",
    "updated_at": "2012-07-07T23:35:15Z",
    "zip": "31061"
  },
  {
    "address": "1486 A Historic Homer Hwy",
    "city": "Homer",
    "county": "Banks County",
    "created_at": "2012-01-04T20:14:06Z",
    "id": 5881,
    "latitude": "34.309343",
    "longitude": "-83.496703",
    "mascot": "Leopards",
    "name": "Banks County High School",
    "primary_color": "Royal",
    "secondary_color": "White",
    "state": "GA",
    "timezone": "America/New_York",
    "updated_at": "2012-07-07T23:35:15Z",
    "zip": "30547"
  },
  {
    "address": "385 Lumpkin County Pky Ste F",
    "city": "Dahlonega",
    "county": "Lumpkin County",
    "created_at": "2012-01-04T20:14:06Z",
    "id": 5882,
    "latitude": "34.440401",
    "longitude": "-83.984690",
    "mascot": null,
    "name": "Bay Creek Christian Academy",
    "primary_color": "Kelly Green",
    "secondary_color": "White",
    "state": "GA",
    "timezone": "America/New_York",
    "updated_at": "2012-07-07T23:35:16Z",
    "zip": "30533"
  },
  {
    "address": "6502 Seawright",
    "city": "Savannah",
    "county": "Chatham County",
    "created_at": "2012-01-04T20:14:06Z",
    "id": 5883,
    "latitude": "32.009723",
    "longitude": "-81.094745",
    "mascot": "Cadets",
    "name": "Benedictine Military School",
    "primary_color": "Maroon",
    "secondary_color": "White",
    "state": "GA",
    "timezone": "America/New_York",
    "updated_at": "2012-07-07T23:35:16Z",
    "zip": "31406"
  },
  {
    "address": "5935 Feldwood Rd",
    "city": "College Park",
    "county": "Fulton County",
    "created_at": "2012-01-04T20:14:06Z",
    "id": 5884,
    "latitude": "33.594013",
    "longitude": "-84.515844",
    "mascot": "Trojans",
    "name": "Benjamin Banneker High School",
    "primary_color": "Red",
    "secondary_color": "Gray",
    "state": "GA",
    "timezone": "America/New_York",
    "updated_at": "2012-07-07T23:35:17Z",
    "zip": "30349"
  },
  {
    "address": "3450 Benjamin E Mays Dr W",
    "city": "Atlanta",
    "county": "Fulton County",
    "created_at": "2012-01-04T20:14:06Z",
    "id": 5885,
    "latitude": "33.739015",
    "longitude": "-84.503242",
    "mascot": "Raiders",
    "name": "Benjamin E Mays High School",
    "primary_color": "Royal",
    "secondary_color": "Gold",
    "state": "GA",
    "timezone": "America/New_York",
    "updated_at": "2012-07-07T23:35:18Z",
    "zip": "30331"
  },
  {
    "address": "230 W View Place",
    "city": "Atlanta",
    "county": "Fulton County",
    "created_at": "2012-01-04T20:14:06Z",
    "id": 5886,
    "latitude": "33.758192",
    "longitude": "-84.425422",
    "mascot": "Trojans",
    "name": "Berean Greater Atlanta Adventist Academy",
    "primary_color": "Royal",
    "secondary_color": "White",
    "state": "GA",
    "timezone": "America/New_York",
    "updated_at": "2012-07-07T23:35:19Z",
    "zip": "30314"
  },
  {
    "address": "405 Pleasant Hill Rd NW",
    "city": "Lilburn",
    "county": "Gwinnett County",
    "created_at": "2012-01-04T20:14:06Z",
    "id": 5887,
    "latitude": "33.908607",
    "longitude": "-84.112406",
    "mascot": "Patriots",
    "name": "Berkmar High School",
    "primary_color": "Red",
    "secondary_color": "White",
    "state": "GA",
    "timezone": "America/New_York",
    "updated_at": "2012-07-07T23:35:19Z",
    "zip": "30047"
  },
  {
    "address": "1015 Exum Rd",
    "city": "Nashville",
    "county": "Berrien County",
    "created_at": "2012-01-04T20:14:06Z",
    "id": 5888,
    "latitude": "31.286620",
    "longitude": "-83.119219",
    "mascot": "Phoenix",
    "name": "Berrien Academy Charter School",
    "primary_color": "Royal Blue",
    "secondary_color": "Black",
    "state": "GA",
    "timezone": "America/New_York",
    "updated_at": "2012-07-07T23:35:20Z",
    "zip": "31639"
  },
  {
    "address": "500 E Smith Ave",
    "city": "Nashville",
    "county": "Berrien County",
    "created_at": "2012-01-04T20:14:06Z",
    "id": 5889,
    "latitude": "31.217183",
    "longitude": "-83.244829",
    "mascot": "Rebels",
    "name": "Berrien High School",
    "primary_color": "Gray",
    "secondary_color": "Red",
    "state": "GA",
    "timezone": "America/New_York",
    "updated_at": "2012-07-07T23:35:20Z",
    "zip": "31639"
  },
  {
    "address": "3981 Union Point Hwy",
    "city": "Union Point",
    "county": "Greene County",
    "created_at": "2012-01-04T20:14:06Z",
    "id": 5890,
    "latitude": "33.610800",
    "longitude": "-83.065849",
    "mascot": "Knights",
    "name": "Bethel Baptist Church And School",
    "primary_color": "Gray",
    "secondary_color": "Navy",
    "state": "GA",
    "timezone": "America/New_York",
    "updated_at": "2012-07-07T23:35:20Z",
    "zip": "30669"
  },
  {
    "address": "2840 Hollis Rd",
    "city": "Macon",
    "county": "Bibb County",
    "created_at": "2012-01-04T20:14:06Z",
    "id": 5891,
    "latitude": "32.810557",
    "longitude": "-83.659587",
    "mascot": null,
    "name": "Bibb County Alternative School",
    "primary_color": null,
    "secondary_color": null,
    "state": "GA",
    "timezone": "America/New_York",
    "updated_at": "2012-07-07T23:35:21Z",
    "zip": "31206"
  },
  {
    "address": "2780 Mt Carmel Rd",
    "city": "Hampton",
    "county": "Henry County",
    "created_at": "2012-01-04T20:14:06Z",
    "id": 5892,
    "latitude": "33.432502",
    "longitude": "-84.274950",
    "mascot": "Eagles",
    "name": "Bible Baptist Christian School",
    "primary_color": "Red",
    "secondary_color": "Black",
    "state": "GA",
    "timezone": "America/New_York",
    "updated_at": "2012-07-07T23:35:21Z",
    "zip": "30228"
  },
  {
    "address": "889 Hwy 24",
    "city": "Statesboro",
    "county": "Bulloch County",
    "created_at": "2012-01-04T20:14:06Z",
    "id": 5893,
    "latitude": "32.455164",
    "longitude": "-81.742911",
    "mascot": "Raiders",
    "name": "Bible Baptist School",
    "primary_color": "Red",
    "secondary_color": "Black",
    "state": "GA",
    "timezone": "America/New_York",
    "updated_at": "2012-07-07T23:35:22Z",
    "zip": "30461"
  },
  {
    "address": "4700 Skidaway Rd",
    "city": "Savannah",
    "county": "Chatham County",
    "created_at": "2012-01-04T20:14:06Z",
    "id": 5894,
    "latitude": "32.024577",
    "longitude": "-81.072266",
    "mascot": "Braves",
    "name": "Bible Baptist School",
    "primary_color": "Red",
    "secondary_color": "Navy",
    "state": "GA",
    "timezone": "America/New_York",
    "updated_at": "2012-07-07T23:35:22Z",
    "zip": "31404"
  },
  {
    "address": "794 Boon Ford Rd",
    "city": "Calhoun",
    "county": "Gordon County",
    "created_at": "2012-01-04T20:14:06Z",
    "id": 5895,
    "latitude": "34.476595",
    "longitude": "-84.895257",
    "mascot": "Liberties",
    "name": "Bible Church Academy",
    "primary_color": "Gold",
    "secondary_color": "Navy",
    "state": "GA",
    "timezone": "America/New_York",
    "updated_at": "2012-07-07T23:35:22Z",
    "zip": "30701"
  },
  {
    "address": "1 Royal Drive",
    "city": "Cochran",
    "county": "Bleckley County",
    "created_at": "2012-01-04T20:14:06Z",
    "id": 5896,
    "latitude": "32.400027",
    "longitude": "-83.331853",
    "mascot": "Royals",
    "name": "Bleckley County High School",
    "primary_color": "Gold",
    "secondary_color": "Purple",
    "state": "GA",
    "timezone": "America/New_York",
    "updated_at": "2012-07-07T23:35:23Z",
    "zip": "31014"
  },
  {
    "address": "11320 Woodstock Rd",
    "city": "Roswell",
    "county": "Fulton County",
    "created_at": "2012-01-04T20:14:06Z",
    "id": 5897,
    "latitude": "34.055504",
    "longitude": "-84.383195",
    "mascot": "Titan Soldiers",
    "name": "Blessed Trinity Catholic High School",
    "primary_color": "Gold",
    "secondary_color": "Kelly Green",
    "state": "GA",
    "timezone": "America/New_York",
    "updated_at": "2012-07-07T23:35:23Z",
    "zip": "30075"
  },
  {
    "address": "45 Whitehouse Dr SW",
    "city": "Atlanta",
    "county": "Fulton County",
    "created_at": "2012-01-04T20:14:06Z",
    "id": 5898,
    "latitude": "33.753241",
    "longitude": "-84.419828",
    "mascot": "Bulldogs",
    "name": "Booker T Washington High School",
    "primary_color": "Royal",
    "secondary_color": "White",
    "state": "GA",
    "timezone": "America/New_York",
    "updated_at": "2012-07-07T23:35:24Z",
    "zip": "30314"
  },
  {
    "address": "504 W College St",
    "city": "Bowdon",
    "county": "Carroll County",
    "created_at": "2012-01-04T20:14:06Z",
    "id": 5899,
    "latitude": "33.537172",
    "longitude": "-85.261101",
    "mascot": "Red Devils",
    "name": "Bowdon High School",
    "primary_color": "Red",
    "secondary_color": "Black",
    "state": "GA",
    "timezone": "America/New_York",
    "updated_at": "2012-07-07T23:35:24Z",
    "zip": "30108"
  },
  {
    "address": "1721 Bowens Mill Hwy",
    "city": "Fitzgerald",
    "county": "Ben Hill County",
    "created_at": "2012-01-04T20:14:06Z",
    "id": 5900,
    "latitude": "31.839690",
    "longitude": "-83.207528",
    "mascot": null,
    "name": "Bowens Mill Christian Center",
    "primary_color": "Royal",
    "secondary_color": "White",
    "state": "GA",
    "timezone": "America/New_York",
    "updated_at": "2012-07-07T23:35:25Z",
    "zip": "31750"
  },
  {
    "address": "410 S Broad St",
    "city": "Toccoa",
    "county": "Stephens County",
    "created_at": "2012-01-04T20:14:06Z",
    "id": 5901,
    "latitude": "34.571478",
    "longitude": "-83.332810",
    "mascot": null,
    "name": "Boys And Girls Club Toccoa",
    "primary_color": null,
    "secondary_color": null,
    "state": "GA",
    "timezone": "America/New_York",
    "updated_at": "2012-07-07T23:35:25Z",
    "zip": "30577"
  },
  {
    "address": "100 Pafford St",
    "city": "Hinesville",
    "county": "Liberty County",
    "created_at": "2012-01-04T20:14:06Z",
    "id": 5902,
    "latitude": "31.850411",
    "longitude": "-81.605821",
    "mascot": "Tigers",
    "name": "Bradwell Institute High School",
    "primary_color": "Royal",
    "secondary_color": "Gold",
    "state": "GA",
    "timezone": "America/New_York",
    "updated_at": "2012-07-07T23:35:26Z",
    "zip": "31313"
  },
  {
    "address": "263 Jackson St",
    "city": "Lawrenceville",
    "county": "Gwinnett County",
    "created_at": "2012-01-04T20:14:07Z",
    "id": 5903,
    "latitude": "33.954022",
    "longitude": "-83.984703",
    "mascot": "Doves",
    "name": "Branch Christian Academy",
    "primary_color": "Navy",
    "secondary_color": "White",
    "state": "GA",
    "timezone": "America/New_York",
    "updated_at": "2012-07-07T23:35:26Z",
    "zip": "30044"
  },
  {
    "address": "1701 Brandon Hall Dr",
    "city": "Atlanta",
    "county": "Fulton County",
    "created_at": "2012-01-04T20:14:07Z",
    "id": 5904,
    "latitude": "33.983817",
    "longitude": "-84.302689",
    "mascot": "Panthers",
    "name": "Brandon Hall School",
    "primary_color": "Royal",
    "secondary_color": "Gold",
    "state": "GA",
    "timezone": "America/New_York",
    "updated_at": "2012-07-07T23:35:27Z",
    "zip": "30350"
  },
  {
    "address": "Rt 1 Box 4",
    "city": "Nahunta",
    "county": "Brantley County",
    "created_at": "2012-01-04T20:14:07Z",
    "id": 5905,
    "latitude": "31.196985",
    "longitude": "-81.980939",
    "mascot": "Herons",
    "name": "Brantley County High School",
    "primary_color": "Gold",
    "secondary_color": "Columbia Blue",
    "state": "GA",
    "timezone": "America/New_York",
    "updated_at": "2012-07-07T23:35:27Z",
    "zip": "31553"
  },
  {
    "address": "504 Georgia Ave",
    "city": "Bremen",
    "county": "Haralson County",
    "created_at": "2012-01-04T20:14:07Z",
    "id": 5906,
    "latitude": "33.717651",
    "longitude": "-85.139841",
    "mascot": "Blue Devils",
    "name": "Bremen High School",
    "primary_color": "Royal",
    "secondary_color": "White",
    "state": "GA",
    "timezone": "America/New_York",
    "updated_at": "2012-07-07T23:35:27Z",
    "zip": "30110"
  },
  {
    "address": "725 Linton Rd",
    "city": "Sandersville",
    "county": "Washington County",
    "created_at": "2012-01-04T20:14:07Z",
    "id": 5907,
    "latitude": "33.081639",
    "longitude": "-82.918128",
    "mascot": "Eagles",
    "name": "Brentwood School",
    "primary_color": "Royal",
    "secondary_color": "White",
    "state": "GA",
    "timezone": "America/New_York",
    "updated_at": "2012-07-07T23:35:28Z",
    "zip": "31082"
  },
  {
    "address": "4859 Thomson Highway",
    "city": "Warrenton",
    "county": "Warren County",
    "created_at": "2012-01-04T20:14:07Z",
    "id": 5908,
    "latitude": "33.426285",
    "longitude": "-82.576142",
    "mascot": "Buccaneers",
    "name": "Briarwood Academy",
    "primary_color": "Red",
    "secondary_color": "Black",
    "state": "GA",
    "timezone": "America/New_York",
    "updated_at": "2012-07-07T23:35:28Z",
    "zip": "30828"
  },
  {
    "address": "4755 Kimball Bridge Rd",
    "city": "Alpharetta",
    "county": "Fulton County",
    "created_at": "2012-01-04T20:14:07Z",
    "id": 5909,
    "latitude": "34.062803",
    "longitude": "-84.220466",
    "mascot": null,
    "name": "Bridgeway Christian Academy",
    "primary_color": null,
    "secondary_color": null,
    "state": "GA",
    "timezone": "America/New_York",
    "updated_at": "2012-07-07T23:35:28Z",
    "zip": "30005"
  },
  {
    "address": "1081 Barwick Rd",
    "city": "Quitman",
    "county": "Brooks County",
    "created_at": "2012-01-04T20:14:07Z",
    "id": 5910,
    "latitude": "30.796640",
    "longitude": "-83.573452",
    "mascot": "Trojans",
    "name": "Brooks County High School",
    "primary_color": "Royal",
    "secondary_color": "Red",
    "state": "GA",
    "timezone": "America/New_York",
    "updated_at": "2012-07-07T23:35:29Z",
    "zip": "31643"
  },
  {
    "address": "440 Bradley Park Dr",
    "city": "Columbus",
    "county": "Muscogee County",
    "created_at": "2012-01-04T20:14:07Z",
    "id": 5911,
    "latitude": "32.529807",
    "longitude": "-84.985978",
    "mascot": "Cougars",
    "name": "Brookstone School",
    "primary_color": "Royal",
    "secondary_color": "White",
    "state": "GA",
    "timezone": "America/New_York",
    "updated_at": "2012-07-07T23:35:29Z",
    "zip": "31904"
  },
  {
    "address": "1255 Dogwood Rd",
    "city": "Snellville",
    "county": "Gwinnett County",
    "created_at": "2012-01-04T20:14:07Z",
    "id": 5912,
    "latitude": "33.884107",
    "longitude": "-84.037989",
    "mascot": "Broncos",
    "name": "Brookwood High School",
    "primary_color": "Maroon",
    "secondary_color": "Gold",
    "state": "GA",
    "timezone": "America/New_York",
    "updated_at": "2012-07-07T23:35:29Z",
    "zip": "30078"
  },
  {
    "address": "301 Cardinal Ridge Rd",
    "city": "Thomasville",
    "county": "Thomas County",
    "created_at": "2012-01-04T20:14:07Z",
    "id": 5913,
    "latitude": "30.813782",
    "longitude": "-84.014116",
    "mascot": "Warriors",
    "name": "Brookwood School",
    "primary_color": "Navy",
    "secondary_color": "White",
    "state": "GA",
    "timezone": "America/New_York",
    "updated_at": "2012-07-07T23:35:30Z",
    "zip": "31792"
  },
  {
    "address": "4231 US Hwy 17 North",
    "city": "Brunswick",
    "county": "Glynn County",
    "created_at": "2012-01-04T20:14:07Z",
    "id": 5914,
    "latitude": "31.228661",
    "longitude": "-81.457649",
    "mascot": "Eagles",
    "name": "Brunswick Christian Academy",
    "primary_color": "Navy",
    "secondary_color": "White",
    "state": "GA",
    "timezone": "America/New_York",
    "updated_at": "2012-07-07T23:35:30Z",
    "zip": "31525"
  },
  {
    "address": "3920 Habersham St",
    "city": "Brunswick",
    "county": "Glynn County",
    "created_at": "2012-01-04T20:14:07Z",
    "id": 5915,
    "latitude": "31.182866",
    "longitude": "-81.491883",
    "mascot": "Pirates",
    "name": "Brunswick High School",
    "primary_color": "Gold",
    "secondary_color": "Navy",
    "state": "GA",
    "timezone": "America/New_York",
    "updated_at": "2012-07-07T23:35:31Z",
    "zip": "31520"
  },
  {
    "address": "1234 Camellia Dr",
    "city": "Pembroke",
    "county": "Bryan County",
    "created_at": "2012-01-04T20:14:07Z",
    "id": 5916,
    "latitude": "32.149490",
    "longitude": "-81.610813",
    "mascot": "Redskins",
    "name": "Bryan County High School",
    "primary_color": "Red",
    "secondary_color": "White",
    "state": "GA",
    "timezone": "America/New_York",
    "updated_at": "2012-07-07T23:35:31Z",
    "zip": "31321"
  },
  {
    "address": "2750 Sawnee Ave",
    "city": "Buford",
    "county": "Gwinnett County",
    "created_at": "2012-01-04T20:14:07Z",
    "id": 5917,
    "latitude": "34.130701",
    "longitude": "-83.987232",
    "mascot": "Wolves",
    "name": "Buford High School",
    "primary_color": "Kelly Green",
    "secondary_color": "Gold",
    "state": "GA",
    "timezone": "America/New_York",
    "updated_at": "2012-07-07T23:35:31Z",
    "zip": "30518"
  },
  {
    "address": "873 Westside Rd",
    "city": "Statesboro",
    "county": "Bulloch County",
    "created_at": "2012-01-04T20:14:07Z",
    "id": 5918,
    "latitude": "32.449358",
    "longitude": "-81.813610",
    "mascot": "Alligators",
    "name": "Bulloch Academy",
    "primary_color": "Gold",
    "secondary_color": "Hunter Green",
    "state": "GA",
    "timezone": "America/New_York",
    "updated_at": "2012-07-07T23:35:32Z",
    "zip": "30458"
  },
  {
    "address": "305 Park Drive",
    "city": "Waynesboro",
    "county": "Burke County",
    "created_at": "2012-01-04T20:14:07Z",
    "id": 5919,
    "latitude": "33.079762",
    "longitude": "-82.018926",
    "mascot": "School With The Heart",
    "name": "Burke County Alternative School",
    "primary_color": "Mauve",
    "secondary_color": "Black",
    "state": "GA",
    "timezone": "America/New_York",
    "updated_at": "2012-07-07T23:35:32Z",
    "zip": "30830"
  },
  {
    "address": "1057 Perimeter Rd",
    "city": "Waynesboro",
    "county": "Burke County",
    "created_at": "2012-01-04T20:14:07Z",
    "id": 5920,
    "latitude": "33.088919",
    "longitude": "-81.992691",
    "mascot": "Bears",
    "name": "Burke County Comprehensive High School",
    "primary_color": "Gray",
    "secondary_color": "Royal",
    "state": "GA",
    "timezone": "America/New_York",
    "updated_at": "2012-07-07T23:35:32Z",
    "zip": "30830"
  },
  {
    "address": "2011 Lumpkin Rd",
    "city": "Augusta",
    "county": "Richmond County",
    "created_at": "2012-01-04T20:14:07Z",
    "id": 5921,
    "latitude": "33.418108",
    "longitude": "-82.017421",
    "mascot": "Bulldogs",
    "name": "Butler High School",
    "primary_color": "Gold",
    "secondary_color": "Black",
    "state": "GA",
    "timezone": "America/New_York",
    "updated_at": "2012-07-07T23:35:33Z",
    "zip": "30906"
  },
  {
    "address": "2832 Ledo Road",
    "city": "Albany",
    "county": "Dougherty County",
    "created_at": "2012-01-04T20:14:07Z",
    "id": 5922,
    "latitude": "31.622552",
    "longitude": "-84.213224",
    "mascot": "Saints",
    "name": "Byne Memorial Baptist School",
    "primary_color": "Orange",
    "secondary_color": "White",
    "state": "GA",
    "timezone": "America/New_York",
    "updated_at": "2012-07-07T23:35:33Z",
    "zip": "31707"
  },
  {
    "address": "69 Burnett Rd",
    "city": "Byron",
    "county": "Peach County",
    "created_at": "2012-01-04T20:14:07Z",
    "id": 5923,
    "latitude": "32.644672",
    "longitude": "-83.788168",
    "mascot": "Cardinals",
    "name": "Byron Christian Academy",
    "primary_color": "Red",
    "secondary_color": "White",
    "state": "GA",
    "timezone": "America/New_York",
    "updated_at": "2012-07-07T23:35:33Z",
    "zip": "31008"
  },
  {
    "address": "455 5th St SE",
    "city": "Cairo",
    "county": "Grady County",
    "created_at": "2012-01-04T20:14:07Z",
    "id": 5924,
    "latitude": "30.872449",
    "longitude": "-84.201431",
    "mascot": "Shields",
    "name": "Cairo High School",
    "primary_color": "Red",
    "secondary_color": "Black",
    "state": "GA",
    "timezone": "America/New_York",
    "updated_at": "2012-07-07T23:35:34Z",
    "zip": "39828"
  },
  {
    "address": "700 Manry St",
    "city": "Edison",
    "county": "Calhoun County",
    "created_at": "2012-01-04T20:14:07Z",
    "id": 5925,
    "latitude": "31.564067",
    "longitude": "-84.733241",
    "mascot": "Cougars",
    "name": "Calhoun County Junior Senior High School",
    "primary_color": "Royal",
    "secondary_color": "White",
    "state": "GA",
    "timezone": "America/New_York",
    "updated_at": "2012-07-07T23:35:34Z",
    "zip": "39813"
  },
  {
    "address": "315 S River St",
    "city": "Calhoun",
    "county": "Gordon County",
    "created_at": "2012-01-04T20:14:07Z",
    "id": 5926,
    "latitude": "34.500373",
    "longitude": "-84.954936",
    "mascot": "Yellow Jackets",
    "name": "Calhoun High School",
    "primary_color": "Gold",
    "secondary_color": "Black",
    "state": "GA",
    "timezone": "America/New_York",
    "updated_at": "2012-07-07T23:35:34Z",
    "zip": "30701"
  },
  {
    "address": "221 Whitfield Rd",
    "city": "Hogansville",
    "county": "Troup County",
    "created_at": "2012-01-04T20:14:07Z",
    "id": 5927,
    "latitude": "33.082956",
    "longitude": "-84.982116",
    "mascot": "Cavaliers",
    "name": "Callaway High School",
    "primary_color": "Red",
    "secondary_color": "Black",
    "state": "GA",
    "timezone": "America/New_York",
    "updated_at": "2012-07-07T23:35:35Z",
    "zip": "30230"
  },
  {
    "address": "4625 Waters Ave",
    "city": "Savannah",
    "county": "Chatham County",
    "created_at": "2012-01-04T20:14:07Z",
    "id": 5928,
    "latitude": "32.032608",
    "longitude": "-81.091532",
    "mascot": "Cavaliers",
    "name": "Calvary Baptist Day School",
    "primary_color": "Gold",
    "secondary_color": "Purple",
    "state": "GA",
    "timezone": "America/New_York",
    "updated_at": "2012-07-07T23:35:35Z",
    "zip": "31404"
  },
  {
    "address": "Hwy 441 S",
    "city": "McIntyre",
    "county": "Wilkinson County",
    "created_at": "2012-01-04T20:14:07Z",
    "id": 5929,
    "latitude": "32.842407",
    "longitude": "-83.189485",
    "mascot": "Patriots",
    "name": "Calvary Christian Academy",
    "primary_color": "Gray",
    "secondary_color": "Maroon",
    "state": "GA",
    "timezone": "America/New_York",
    "updated_at": "2012-07-07T23:35:36Z",
    "zip": "31054"
  },
  {
    "address": "160 Springdale Rd",
    "city": "Rockmart",
    "county": "Polk County",
    "created_at": "2012-01-04T20:14:07Z",
    "id": 5930,
    "latitude": "33.990800",
    "longitude": "-85.037298",
    "mascot": "Eagles",
    "name": "Calvary Christian School",
    "primary_color": "Navy",
    "secondary_color": "Gold",
    "state": "GA",
    "timezone": "America/New_York",
    "updated_at": "2012-07-07T23:35:36Z",
    "zip": "30153"
  },
  {
    "address": "7556 Old Moon Rd",
    "city": "Columbus",
    "county": "Muscogee County",
    "created_at": "2012-01-04T20:14:07Z",
    "id": 5931,
    "latitude": "32.557100",
    "longitude": "-84.935043",
    "mascot": "Knights",
    "name": "Calvary Christian School",
    "primary_color": "Gold",
    "secondary_color": "Hunter Green",
    "state": "GA",
    "timezone": "America/New_York",
    "updated_at": "2012-07-07T23:35:36Z",
    "zip": "31909"
  },
  {
    "address": "6300 Laurel Island Pky",
    "city": "Kingsland",
    "county": "Camden County",
    "created_at": "2012-01-04T20:14:07Z",
    "id": 5932,
    "latitude": "30.823863",
    "longitude": "-81.652871",
    "mascot": "Wildcats",
    "name": "Camden County High School",
    "primary_color": "Columbia Blue",
    "secondary_color": "White",
    "state": "GA",
    "timezone": "America/New_York",
    "updated_at": "2012-07-07T23:35:37Z",
    "zip": "31548"
  },
  {
    "address": "5265 Ward St",
    "city": "Smyrna",
    "county": "Cobb County",
    "created_at": "2012-01-04T20:14:07Z",
    "id": 5933,
    "latitude": "33.893259",
    "longitude": "-84.527341",
    "mascot": "Spartans",
    "name": "Campbell High School",
    "primary_color": "Royal",
    "secondary_color": "Gray",
    "state": "GA",
    "timezone": "America/New_York",
    "updated_at": "2012-07-07T23:35:37Z",
    "zip": "30080"
  },
  {
    "address": "7624 Hwy 225 S",
    "city": "Chatsworth",
    "county": "Murray County",
    "created_at": "2012-01-04T20:14:07Z",
    "id": 5934,
    "latitude": "34.657859",
    "longitude": "-84.837657",
    "mascot": "Giants",
    "name": "Canaanland Christian School",
    "primary_color": "Red",
    "secondary_color": "Black",
    "state": "GA",
    "timezone": "America/New_York",
    "updated_at": "2012-07-07T23:35:37Z",
    "zip": "30705"
  },
  {
    "address": "4500 Due West Rd",
    "city": "Kennesaw",
    "county": "Cobb County",
    "created_at": "2012-01-04T20:14:07Z",
    "id": 5935,
    "latitude": "33.964724",
    "longitude": "-84.681112",
    "mascot": "Bulldogs",
    "name": "Carl Harrison High School",
    "primary_color": "Kelly Green",
    "secondary_color": "Navy",
    "state": "GA",
    "timezone": "America/New_York",
    "updated_at": "2012-07-07T23:35:38Z",
    "zip": "30152"
  },
  {
    "address": "1075 Newnan Hwy",
    "city": "Carrollton",
    "county": "Carroll County",
    "created_at": "2012-01-04T20:14:07Z",
    "id": 5936,
    "latitude": "33.566275",
    "longitude": "-85.045660",
    "mascot": null,
    "name": "Carroll County Technical High School",
    "primary_color": "Navy",
    "secondary_color": "Gray",
    "state": "GA",
    "timezone": "America/New_York",
    "updated_at": "2012-07-07T23:35:38Z",
    "zip": "30116"
  },
  {
    "address": "202 Trojan Dr",
    "city": "Carrollton",
    "county": "Carroll County",
    "created_at": "2012-01-04T20:14:07Z",
    "id": 5937,
    "latitude": "33.567577",
    "longitude": "-85.078922",
    "mascot": "Trojans",
    "name": "Carrollton High School",
    "primary_color": "Gold",
    "secondary_color": "Black",
    "state": "GA",
    "timezone": "America/New_York",
    "updated_at": "2012-07-07T23:35:38Z",
    "zip": "30117"
  },
  {
    "address": "320 E Church St",
    "city": "Cartersville",
    "county": "Bartow County",
    "created_at": "2012-01-04T20:14:07Z",
    "id": 5938,
    "latitude": "34.168436",
    "longitude": "-84.790498",
    "mascot": "Purple Hurricanes",
    "name": "Cartersville High School",
    "primary_color": "Purple",
    "secondary_color": "Gold",
    "state": "GA",
    "timezone": "America/New_York",
    "updated_at": "2012-07-07T23:35:39Z",
    "zip": "30120"
  },
  {
    "address": "435 E Walton St",
    "city": "Milledgeville",
    "county": "Baldwin County",
    "created_at": "2012-01-04T20:14:07Z",
    "id": 5939,
    "latitude": "33.092144",
    "longitude": "-83.224515",
    "mascot": null,
    "name": "Carver Crossroads School",
    "primary_color": null,
    "secondary_color": null,
    "state": "GA",
    "timezone": "America/New_York",
    "updated_at": "2012-07-07T23:35:39Z",
    "zip": "31061"
  },
  {
    "address": "3100 8th St",
    "city": "Columbus",
    "county": "Muscogee County",
    "created_at": "2012-01-04T20:14:07Z",
    "id": 5940,
    "latitude": "32.461245",
    "longitude": "-84.944732",
    "mascot": "Tigers",
    "name": "Carver High School",
    "primary_color": "Columbia Blue",
    "secondary_color": "Red",
    "state": "GA",
    "timezone": "America/New_York",
    "updated_at": "2012-07-07T23:35:40Z",
    "zip": "31906"
  },
  {
    "address": "738 Grassdale Rd",
    "city": "Cartersville",
    "county": "Bartow County",
    "created_at": "2012-01-04T20:14:07Z",
    "id": 5941,
    "latitude": "34.206170",
    "longitude": "-84.819459",
    "mascot": "Colonels",
    "name": "Cass High School",
    "primary_color": "Gold",
    "secondary_color": "Royal",
    "state": "GA",
    "timezone": "America/New_York",
    "updated_at": "2012-07-07T23:35:40Z",
    "zip": "30120"
  },
  {
    "address": "4650 Flat Shoals Parkway",
    "city": "Decatur",
    "county": "DeKalb County",
    "created_at": "2012-01-04T20:14:07Z",
    "id": 5942,
    "latitude": "33.683329",
    "longitude": "-84.233549",
    "mascot": "Warriors",
    "name": "Cathedral Academy",
    "primary_color": "Gray",
    "secondary_color": "Navy",
    "state": "GA",
    "timezone": "America/New_York",
    "updated_at": "2012-07-07T23:35:40Z",
    "zip": "30034"
  },
  {
    "address": "2 Barnhardt Cir",
    "city": "Fort Oglethorpe",
    "county": "Catoosa County",
    "created_at": "2012-01-04T20:14:07Z",
    "id": 5943,
    "latitude": "34.943582",
    "longitude": "-85.260036",
    "mascot": "Soaring Eagles",
    "name": "Catoosa Crossroads Academy",
    "primary_color": "Black",
    "secondary_color": "Gold",
    "state": "GA",
    "timezone": "America/New_York",
    "updated_at": "2012-07-07T23:35:40Z",
    "zip": "30742"
  },
  {
    "address": "2360 River Rd",
    "city": "Ellenwood",
    "county": "DeKalb County",
    "created_at": "2012-01-04T20:14:07Z",
    "id": 5944,
    "latitude": "33.675382",
    "longitude": "-84.295538",
    "mascot": "Saints",
    "name": "Cedar Grove High School",
    "primary_color": "Columbia Blue",
    "secondary_color": "Navy",
    "state": "GA",
    "timezone": "America/New_York",
    "updated_at": "2012-07-07T23:35:41Z",
    "zip": "30294"
  },
  {
    "address": "1300 Cedar Shoals Dr",
    "city": "Athens",
    "county": "Clarke County",
    "created_at": "2012-01-04T20:14:07Z",
    "id": 5945,
    "latitude": "33.923152",
    "longitude": "-83.329728",
    "mascot": "Jaguar",
    "name": "Cedar Shoals High School",
    "primary_color": "Orange",
    "secondary_color": "Royal",
    "state": "GA",
    "timezone": "America/New_York",
    "updated_at": "2012-07-07T23:35:41Z",
    "zip": "30605"
  },
  {
    "address": "2744 Cleveland Hwy",
    "city": "Dalton",
    "county": "Whitfield County",
    "created_at": "2012-01-04T20:14:07Z",
    "id": 5946,
    "latitude": "34.831652",
    "longitude": "-84.943561",
    "mascot": "Tigers",
    "name": "Cedar Valley Christian Academy",
    "primary_color": "Royal",
    "secondary_color": "White",
    "state": "GA",
    "timezone": "America/New_York",
    "updated_at": "2012-07-07T23:35:42Z",
    "zip": "30721"
  },
  {
    "address": "167 Frank Lot Dr",
    "city": "Cedartown",
    "county": "Polk County",
    "created_at": "2012-01-04T20:14:07Z",
    "id": 5947,
    "latitude": "34.016719",
    "longitude": "-85.223985",
    "mascot": "Bulldogs",
    "name": "Cedartown High School",
    "primary_color": "Black",
    "secondary_color": "Red",
    "state": "GA",
    "timezone": "America/New_York",
    "updated_at": "2012-07-07T23:35:42Z",
    "zip": "30125"
  },
  {
    "address": "9310 Scott Rd",
    "city": "Roswell",
    "county": "Fulton County",
    "created_at": "2012-01-04T20:14:07Z",
    "id": 5948,
    "latitude": "34.005540",
    "longitude": "-84.291006",
    "mascot": "Knights",
    "name": "Centennial High School",
    "primary_color": "Royal",
    "secondary_color": "White",
    "state": "GA",
    "timezone": "America/New_York",
    "updated_at": "2012-07-07T23:35:42Z",
    "zip": "30076"
  },
  {
    "address": "1550 Pebblebrook Circle",
    "city": "Mableton",
    "county": "Cobb County",
    "created_at": "2012-01-04T20:14:07Z",
    "id": 5949,
    "latitude": "33.819432",
    "longitude": "-84.510741",
    "mascot": "Shields",
    "name": "Central Alternative School",
    "primary_color": "Maroon",
    "secondary_color": "Gray",
    "state": "GA",
    "timezone": "America/New_York",
    "updated_at": "2012-07-07T23:35:42Z",
    "zip": "30126"
  },
  {
    "address": "160 Martin Luther King Jr Dr",
    "city": "Newman",
    "county": "Coweta County",
    "created_at": "2012-01-04T20:14:07Z",
    "id": 5950,
    "latitude": "33.363896",
    "longitude": "-84.782786",
    "mascot": null,
    "name": "Central Education Center",
    "primary_color": "Orange",
    "secondary_color": "Royal",
    "state": "GA",
    "timezone": "America/New_York",
    "updated_at": "2012-07-07T23:35:44Z",
    "zip": "30263"
  },
  {
    "address": "945 N Washington Ave",
    "city": "Talbotton",
    "county": "Talbot County",
    "created_at": "2012-01-04T20:14:07Z",
    "id": 5951,
    "latitude": "32.685700",
    "longitude": "-84.539846",
    "mascot": "Hawks",
    "name": "Central Elementary/High School",
    "primary_color": "Royal",
    "secondary_color": "Gold",
    "state": "GA",
    "timezone": "America/New_York",
    "updated_at": "2012-07-07T23:35:44Z",
    "zip": "31827"
  },
  {
    "address": "8460 Hawkinsville Rd",
    "city": "Macon",
    "county": "Bibb County",
    "created_at": "2012-01-04T20:14:07Z",
    "id": 5952,
    "latitude": "32.690011",
    "longitude": "-83.636251",
    "mascot": "Lancers",
    "name": "Central Fellowship Christian Academy",
    "primary_color": "Gray",
    "secondary_color": "Royal",
    "state": "GA",
    "timezone": "America/New_York",
    "updated_at": "2012-07-07T23:35:45Z",
    "zip": "31216"
  },
  {
    "address": "564 W Crogan St",
    "city": "Lawrenceville",
    "county": "Gwinnett County",
    "created_at": "2012-01-04T20:14:07Z",
    "id": 5953,
    "latitude": "33.949936",
    "longitude": "-84.000506",
    "mascot": "Black Knights",
    "name": "Central Gwinnett High School",
    "primary_color": "Gold",
    "secondary_color": "Black",
    "state": "GA",
    "timezone": "America/New_York",
    "updated_at": "2012-07-07T23:35:45Z",
    "zip": "30045"
  },
  {
    "address": "2155 Napier Ave",
    "city": "Macon",
    "county": "Bibb County",
    "created_at": "2012-01-04T20:14:07Z",
    "id": 5954,
    "latitude": "32.835953",
    "longitude": "-83.655788",
    "mascot": "Chargers",
    "name": "Central High School",
    "primary_color": "Royal",
    "secondary_color": "Orange",
    "state": "GA",
    "timezone": "America/New_York",
    "updated_at": "2012-07-07T23:35:45Z",
    "zip": "31204"
  },
  {
    "address": "113 Central High Rd",
    "city": "Carrollton",
    "county": "Carroll County",
    "created_at": "2012-01-04T20:14:07Z",
    "id": 5955,
    "latitude": "33.554003",
    "longitude": "-85.060081",
    "mascot": "Lions",
    "name": "Central High School",
    "primary_color": "Maroon",
    "secondary_color": "Gold",
    "state": "GA",
    "timezone": "America/New_York",
    "updated_at": "2012-07-07T23:35:46Z",
    "zip": "30116"
  },
  {
    "address": "3688 Chamblee Dunwoody Rd",
    "city": "Chamblee",
    "county": "DeKalb County",
    "created_at": "2012-01-04T20:14:07Z",
    "id": 5956,
    "latitude": "33.898786",
    "longitude": "-84.305178",
    "mascot": "Bulldogs",
    "name": "Chamblee High School",
    "primary_color": "Royal",
    "secondary_color": "Gold",
    "state": "GA",
    "timezone": "America/New_York",
    "updated_at": "2012-07-07T23:35:46Z",
    "zip": "30341"
  },
  {
    "address": "4899 Chapel Hill Rd",
    "city": "Douglasville",
    "county": "Douglas County",
    "created_at": "2012-01-04T20:14:07Z",
    "id": 5957,
    "latitude": "33.672332",
    "longitude": "-84.720250",
    "mascot": "Panthers",
    "name": "Chapel Hill High School",
    "primary_color": "Gold",
    "secondary_color": "Purple",
    "state": "GA",
    "timezone": "America/New_York",
    "updated_at": "2012-07-07T23:35:46Z",
    "zip": "30135"
  },
  {
    "address": "Hwy 121 S",
    "city": "Folkston",
    "county": "Charlton County",
    "created_at": "2012-01-04T20:14:07Z",
    "id": 5958,
    "latitude": "30.831255",
    "longitude": "-82.010239",
    "mascot": null,
    "name": "Charlton Christian Academy",
    "primary_color": "Red",
    "secondary_color": "Royal",
    "state": "GA",
    "timezone": "America/New_York",
    "updated_at": "2012-07-07T23:35:47Z",
    "zip": "31537"
  },
  {
    "address": "500 Indian Trl",
    "city": "Folkston",
    "county": "Charlton County",
    "created_at": "2012-01-04T20:14:07Z",
    "id": 5959,
    "latitude": "30.842070",
    "longitude": "-81.997604",
    "mascot": "Indians",
    "name": "Charlton County High School",
    "primary_color": "Red",
    "secondary_color": "Black",
    "state": "GA",
    "timezone": "America/New_York",
    "updated_at": "2012-07-07T23:35:47Z",
    "zip": "31537"
  },
  {
    "address": "4 Oglethorpe Professional Blvd",
    "city": "Savannah",
    "county": "Chatham County",
    "created_at": "2012-01-04T20:14:07Z",
    "id": 5960,
    "latitude": "32.002424",
    "longitude": "-81.108275",
    "mascot": "Dolphins",
    "name": "Chatham Academy / Brice Learning Center",
    "primary_color": "Gray",
    "secondary_color": "White",
    "state": "GA",
    "timezone": "America/New_York",
    "updated_at": "2012-07-07T23:35:49Z",
    "zip": "31406"
  },
  {
    "address": "5230 Taylor Rd",
    "city": "Alpharetta",
    "county": "Fulton County",
    "created_at": "2012-01-04T20:14:07Z",
    "id": 5961,
    "latitude": "34.047991",
    "longitude": "-84.208326",
    "mascot": "Cougars",
    "name": "Chattahoochee High School",
    "primary_color": "Gold",
    "secondary_color": "Royal",
    "state": "GA",
    "timezone": "America/New_York",
    "updated_at": "2012-07-07T23:35:49Z",
    "zip": "30022"
  },
  {
    "address": "989 Hwy 114",
    "city": "Summerville",
    "county": "Chattooga County",
    "created_at": "2012-01-04T20:14:07Z",
    "id": 5962,
    "latitude": "34.466434",
    "longitude": "-85.359149",
    "mascot": "Indians",
    "name": "Chattooga High School",
    "primary_color": "Red",
    "secondary_color": "Black",
    "state": "GA",
    "timezone": "America/New_York",
    "updated_at": "2012-07-07T23:35:50Z",
    "zip": "30747"
  },
  {
    "address": "3075 Trickum Rd",
    "city": "Woodstock",
    "county": "Cherokee County",
    "created_at": "2012-01-04T20:14:07Z",
    "id": 5963,
    "latitude": "34.117363",
    "longitude": "-84.470043",
    "mascot": "Warriors",
    "name": "Cherokee Christian School",
    "primary_color": "Gray",
    "secondary_color": "Maroon",
    "state": "GA",
    "timezone": "America/New_York",
    "updated_at": "2012-07-07T23:35:50Z",
    "zip": "30188"
  },
  {
    "address": "930 Marietta Hwy",
    "city": "Canton",
    "county": "Cherokee County",
    "created_at": "2012-01-04T20:14:07Z",
    "id": 5964,
    "latitude": "34.235062",
    "longitude": "-84.499965",
    "mascot": "Warriors",
    "name": "Cherokee High School",
    "primary_color": "White",
    "secondary_color": "Red",
    "state": "GA",
    "timezone": "America/New_York",
    "updated_at": "2012-07-07T23:35:51Z",
    "zip": "30114"
  },
  {
    "address": "PO Box 1047",
    "city": "Roswell",
    "county": "Fulton County",
    "created_at": "2012-01-04T20:14:07Z",
    "id": 5965,
    "latitude": "34.022270",
    "longitude": "-84.361579",
    "mascot": null,
    "name": "Christian Center Academy",
    "primary_color": null,
    "secondary_color": null,
    "state": "GA",
    "timezone": "America/New_York",
    "updated_at": "2012-07-07T23:35:51Z",
    "zip": "30077"
  },
  {
    "address": "3564 Forrest Rd",
    "city": "Columbus",
    "county": "Muscogee County",
    "created_at": "2012-01-04T20:14:07Z",
    "id": 5966,
    "latitude": "32.484904",
    "longitude": "-84.934187",
    "mascot": "Eagles",
    "name": "Christian Heritage Academy",
    "primary_color": "Red",
    "secondary_color": "White",
    "state": "GA",
    "timezone": "America/New_York",
    "updated_at": "2012-07-07T23:35:52Z",
    "zip": "31907"
  },
  {
    "address": "1600 Martin Luther King Jr Blvd",
    "city": "Dalton",
    "county": "Whitfield County",
    "created_at": "2012-01-04T20:14:07Z",
    "id": 5967,
    "latitude": "34.776730",
    "longitude": "-84.939603",
    "mascot": "Lions",
    "name": "Christian Heritage School",
    "primary_color": "Gold",
    "secondary_color": "Red",
    "state": "GA",
    "timezone": "America/New_York",
    "updated_at": "2012-07-07T23:35:52Z",
    "zip": "30720"
  },
  {
    "address": "504 E Price St",
    "city": "Sylvester",
    "county": "Worth County",
    "created_at": "2012-01-04T20:14:07Z",
    "id": 5968,
    "latitude": "31.534776",
    "longitude": "-83.829964",
    "mascot": null,
    "name": "Cities & Schools Academy",
    "primary_color": "Gold",
    "secondary_color": "Black",
    "state": "GA",
    "timezone": "America/New_York",
    "updated_at": "2012-07-07T23:35:53Z",
    "zip": "31791"
  },
  {
    "address": "1548 Hwy 158 W",
    "city": "Douglas",
    "county": "Coffee County",
    "created_at": "2012-01-04T20:14:07Z",
    "id": 5969,
    "latitude": "31.496610",
    "longitude": "-82.875331",
    "mascot": "Patriots",
    "name": "Citizens Christian Academy",
    "primary_color": "Royal",
    "secondary_color": "White",
    "state": "GA",
    "timezone": "America/New_York",
    "updated_at": "2012-07-07T23:35:53Z",
    "zip": "31533"
  },
  {
    "address": "735 Fayettville Rd",
    "city": "Atlanta",
    "county": "DeKalb County",
    "created_at": "2012-01-04T20:14:07Z",
    "id": 5970,
    "latitude": "33.736171",
    "longitude": "-84.313845",
    "mascot": "Caliphs",
    "name": "Clara W D Mohammed Schools",
    "primary_color": "Yellow",
    "secondary_color": "Kelly Green",
    "state": "GA",
    "timezone": "America/New_York",
    "updated_at": "2012-07-07T23:35:53Z",
    "zip": "30316"
  },
  {
    "address": "350 S Milledge Ave",
    "city": "Athens",
    "county": "Clarke County",
    "created_at": "2012-01-04T20:14:07Z",
    "id": 5971,
    "latitude": "33.951552",
    "longitude": "-83.387203",
    "mascot": "Gladiators",
    "name": "Clarke Central High School",
    "primary_color": "Red",
    "secondary_color": "Gold",
    "state": "GA",
    "timezone": "America/New_York",
    "updated_at": "2012-07-07T23:35:54Z",
    "zip": "30605"
  },
  {
    "address": "618 N Indian Creek Dr",
    "city": "Clarkston",
    "county": "DeKalb County",
    "created_at": "2012-01-04T20:14:07Z",
    "id": 5972,
    "latitude": "33.792393",
    "longitude": "-84.235919",
    "mascot": "Angoras",
    "name": "Clarkston High School",
    "primary_color": "Kelly Green",
    "secondary_color": "Gold",
    "state": "GA",
    "timezone": "America/New_York",
    "updated_at": "2012-07-07T23:35:54Z",
    "zip": "30021"
  },
  {
    "address": "240 Mitchell Bridge Road ",
    "city": "Athens",
    "county": "Clarke County",
    "created_at": "2012-01-04T20:14:07Z",
    "id": 5973,
    "latitude": "33.962679",
    "longitude": "-83.430756",
    "mascot": "Stars",
    "name": "Classic City High School",
    "primary_color": "Green",
    "secondary_color": "Gold",
    "state": "GA",
    "timezone": "America/New_York",
    "updated_at": "2012-07-07T23:35:54Z",
    "zip": "30606"
  },
  {
    "address": "102 N Clark St",
    "city": "Claxton",
    "county": "Evans County",
    "created_at": "2012-01-04T20:14:07Z",
    "id": 5974,
    "latitude": "32.164860",
    "longitude": "-81.915650",
    "mascot": "Tigers",
    "name": "Claxton High School",
    "primary_color": "Black",
    "secondary_color": "Gold",
    "state": "GA",
    "timezone": "America/New_York",
    "updated_at": "2012-07-07T23:35:55Z",
    "zip": "30417"
  },
  {
    "address": "863 N Carswell Avenue",
    "city": "Homerville",
    "county": "Clinch County",
    "created_at": "2012-01-04T20:14:07Z",
    "id": 5975,
    "latitude": "31.045429",
    "longitude": "-82.748069",
    "mascot": "Panthers",
    "name": "Clinch County High School",
    "primary_color": "Red",
    "secondary_color": "White",
    "state": "GA",
    "timezone": "America/New_York",
    "updated_at": "2012-07-07T23:35:56Z",
    "zip": "31634"
  },
  {
    "address": "1585 Laurel Island Pkwy",
    "city": "Kingsland",
    "county": "Camden County",
    "created_at": "2012-01-04T20:14:07Z",
    "id": 5976,
    "latitude": "30.826190",
    "longitude": "-81.681739",
    "mascot": null,
    "name": "Coastal Academy",
    "primary_color": null,
    "secondary_color": null,
    "state": "GA",
    "timezone": "America/New_York",
    "updated_at": "2012-07-07T23:35:57Z",
    "zip": "31548"
  },
  {
    "address": "545 Lorene Dr",
    "city": "Marietta",
    "county": "Cobb County",
    "created_at": "2012-01-04T20:14:07Z",
    "id": 5977,
    "latitude": "33.900326",
    "longitude": "-84.568265",
    "mascot": "Crusaders",
    "name": "Cobb County Christian School",
    "primary_color": "Navy Blue",
    "secondary_color": "Orange",
    "state": "GA",
    "timezone": "America/New_York",
    "updated_at": "2012-07-07T23:35:57Z",
    "zip": "30060"
  },
  {
    "address": "159 Trojan Way",
    "city": "Douglas",
    "county": "Coffee County",
    "created_at": "2012-01-04T20:14:07Z",
    "id": 5978,
    "latitude": "31.552401",
    "longitude": "-82.857623",
    "mascot": "Trojans",
    "name": "Coffee High School",
    "primary_color": "Maroon",
    "secondary_color": "White",
    "state": "GA",
    "timezone": "America/New_York",
    "updated_at": "2012-07-07T23:35:58Z",
    "zip": "31533"
  },
  {
    "address": "50 Taylor Rd",
    "city": "Suwanee",
    "county": "Gwinnett County",
    "created_at": "2012-01-04T20:14:07Z",
    "id": 5979,
    "latitude": "34.017252",
    "longitude": "-84.022147",
    "mascot": "Eagles",
    "name": "Collins Hill High School",
    "primary_color": "Hunter Green",
    "secondary_color": "Gray",
    "state": "GA",
    "timezone": "America/New_York",
    "updated_at": "2012-07-07T23:35:59Z",
    "zip": "30024"
  },
  {
    "address": "7131 Mount Vernon Rd",
    "city": "Lithia Springs",
    "county": "Douglas County",
    "created_at": "2012-01-04T20:14:07Z",
    "id": 5980,
    "latitude": "33.781735",
    "longitude": "-84.636517",
    "mascot": "Rams",
    "name": "Colonial Hills Christian School",
    "primary_color": "Royal",
    "secondary_color": "White",
    "state": "GA",
    "timezone": "America/New_York",
    "updated_at": "2012-07-07T23:35:59Z",
    "zip": "30122"
  },
  {
    "address": "1800 Park Ave",
    "city": "Moultrie",
    "county": "Colquitt County",
    "created_at": "2012-01-04T20:14:07Z",
    "id": 5981,
    "latitude": "31.171697",
    "longitude": "-83.761971",
    "mascot": "Packers",
    "name": "Colquitt County High School",
    "primary_color": "Gold",
    "secondary_color": "Black",
    "state": "GA",
    "timezone": "America/New_York",
    "updated_at": "2012-07-07T23:36:00Z",
    "zip": "31768"
  },
  {
    "address": "2106 Columbia Dr",
    "city": "Decatur",
    "county": "DeKalb County",
    "created_at": "2012-01-04T20:14:07Z",
    "id": 5982,
    "latitude": "33.728085",
    "longitude": "-84.251848",
    "mascot": "Eagles",
    "name": "Columbia High School",
    "primary_color": "Royal",
    "secondary_color": "Orange",
    "state": "GA",
    "timezone": "America/New_York",
    "updated_at": "2012-07-07T23:36:00Z",
    "zip": "30032"
  },
  {
    "address": "1700 Cherokee Ave",
    "city": "Columbus",
    "county": "Muscogee County",
    "created_at": "2012-01-04T20:14:07Z",
    "id": 5983,
    "latitude": "32.478974",
    "longitude": "-84.964268",
    "mascot": "Blue Devils",
    "name": "Columbus High School",
    "primary_color": "Royal",
    "secondary_color": "Orange",
    "state": "GA",
    "timezone": "America/New_York",
    "updated_at": "2012-07-07T23:36:01Z",
    "zip": "31906"
  },
  {
    "address": "272 Lakeview Dr",
    "city": "Commerce",
    "county": "Jackson County",
    "created_at": "2012-01-04T20:14:07Z",
    "id": 5984,
    "latitude": "34.199609",
    "longitude": "-83.465071",
    "mascot": "Tigers",
    "name": "Commerce High School",
    "primary_color": "Black",
    "secondary_color": "Gold",
    "state": "GA",
    "timezone": "America/New_York",
    "updated_at": "2012-07-07T23:36:01Z",
    "zip": "30529"
  },
  {
    "address": "101 Roundtree Rd",
    "city": "Sparks",
    "county": "Cook County",
    "created_at": "2012-01-04T20:14:07Z",
    "id": 5985,
    "latitude": "31.167390",
    "longitude": "-83.451039",
    "mascot": null,
    "name": "Community Christian Academy",
    "primary_color": null,
    "secondary_color": null,
    "state": "GA",
    "timezone": "America/New_York",
    "updated_at": "2012-07-07T23:36:01Z",
    "zip": "31647"
  },
  {
    "address": "1882 Irwin Bridge Rd",
    "city": "Conyers",
    "county": "Rockdale County",
    "created_at": "2012-01-04T20:14:07Z",
    "id": 5986,
    "latitude": "33.693009",
    "longitude": "-84.021953",
    "mascot": "School Houses",
    "name": "Conyers Apostolic Christian School",
    "primary_color": "Royal",
    "secondary_color": "White",
    "state": "GA",
    "timezone": "America/New_York",
    "updated_at": "2012-07-07T23:36:02Z",
    "zip": "30012"
  },
  {
    "address": "1200 N Hutchinson Ave",
    "city": "Adel",
    "county": "Cook County",
    "created_at": "2012-01-04T20:14:07Z",
    "id": 5987,
    "latitude": "31.148082",
    "longitude": "-83.427297",
    "mascot": "Hornets",
    "name": "Cook High School",
    "primary_color": "Gold",
    "secondary_color": "Black",
    "state": "GA",
    "timezone": "America/New_York",
    "updated_at": "2012-07-07T23:36:02Z",
    "zip": "31620"
  },
  {
    "address": "4454 Alabama Hwy",
    "city": "Rome",
    "county": "Floyd County",
    "created_at": "2012-01-04T20:14:07Z",
    "id": 5988,
    "latitude": "34.261960",
    "longitude": "-85.304287",
    "mascot": "Eagles",
    "name": "Coosa High School",
    "primary_color": "Black",
    "secondary_color": "Gold",
    "state": "GA",
    "timezone": "America/New_York",
    "updated_at": "2012-07-07T23:36:03Z",
    "zip": "30165"
  },
  {
    "address": "839 Hwy 314",
    "city": "Fayetteville",
    "county": "Fayette County",
    "created_at": "2012-01-04T20:14:08Z",
    "id": 5989,
    "latitude": "33.515049",
    "longitude": "-84.448500",
    "mascot": "Cobras",
    "name": "Counterpane School",
    "primary_color": "Royal",
    "secondary_color": "Kelly Green",
    "state": "GA",
    "timezone": "America/New_York",
    "updated_at": "2012-07-07T23:36:03Z",
    "zip": "30214"
  },
  {
    "address": "2175 North Norcross Tucker Rd",
    "city": "Norcross",
    "county": "Gwinnett County",
    "created_at": "2012-01-04T20:14:08Z",
    "id": 5990,
    "latitude": "33.923981",
    "longitude": "-84.211676",
    "mascot": null,
    "name": "Country Brook Montessori School",
    "primary_color": null,
    "secondary_color": null,
    "state": "GA",
    "timezone": "America/New_York",
    "updated_at": "2012-07-07T23:36:03Z",
    "zip": "30071"
  },
  {
    "address": "4652 Ayers Rd",
    "city": "Macon",
    "county": "Bibb County",
    "created_at": "2012-01-04T20:14:08Z",
    "id": 5991,
    "latitude": "32.859172",
    "longitude": "-83.705180",
    "mascot": "Rams",
    "name": "Covenant Academy",
    "primary_color": "Royal",
    "secondary_color": "Red",
    "state": "GA",
    "timezone": "America/New_York",
    "updated_at": "2012-07-07T23:36:04Z",
    "zip": "31210"
  },
  {
    "address": "6905 Post Rd",
    "city": "Cumming",
    "county": "Forsyth County",
    "created_at": "2012-01-04T20:14:08Z",
    "id": 5992,
    "latitude": "34.166733",
    "longitude": "-84.234950",
    "mascot": "Rams",
    "name": "Covenant Christian Academy",
    "primary_color": "Gold",
    "secondary_color": "Navy",
    "state": "GA",
    "timezone": "America/New_York",
    "updated_at": "2012-07-07T23:36:04Z",
    "zip": "30040"
  },
  {
    "address": "3425 Hwy 20",
    "city": "Loganville",
    "county": "Walton County",
    "created_at": "2012-01-04T20:14:08Z",
    "id": 5993,
    "latitude": "33.829610",
    "longitude": "-83.914939",
    "mascot": "Cougars",
    "name": "Covenant Christian Academy",
    "primary_color": "Red",
    "secondary_color": "Royal",
    "state": "GA",
    "timezone": "America/New_York",
    "updated_at": "2012-07-07T23:36:05Z",
    "zip": "30052"
  },
  {
    "address": "216 S Peterson Ave",
    "city": "Douglas",
    "county": "Coffee County",
    "created_at": "2012-01-04T20:14:08Z",
    "id": 5994,
    "latitude": "31.507752",
    "longitude": "-82.850409",
    "mascot": null,
    "name": "Covenant Christian Learning Center",
    "primary_color": "Purple",
    "secondary_color": "Gold",
    "state": "GA",
    "timezone": "America/New_York",
    "updated_at": "2012-07-07T23:36:05Z",
    "zip": "31533"
  },
  {
    "address": "268 N Fairground St",
    "city": "Marietta",
    "county": "Cobb County",
    "created_at": "2012-01-04T20:14:08Z",
    "id": 5995,
    "latitude": "33.957630",
    "longitude": "-84.536507",
    "mascot": null,
    "name": "Covenant Christian School",
    "primary_color": "Gold",
    "secondary_color": "Red",
    "state": "GA",
    "timezone": "America/New_York",
    "updated_at": "2012-07-07T23:36:05Z",
    "zip": "30060"
  },
  {
    "address": "400 E Agency St",
    "city": "Roberta",
    "county": "Crawford County",
    "created_at": "2012-01-04T20:14:08Z",
    "id": 5996,
    "latitude": "32.721621",
    "longitude": "-84.006139",
    "mascot": "Eagles",
    "name": "Crawford County Comprehensive School",
    "primary_color": "Gold",
    "secondary_color": "Purple",
    "state": "GA",
    "timezone": "America/New_York",
    "updated_at": "2012-07-07T23:36:07Z",
    "zip": "31078"
  },
  {
    "address": "7405 Herndon Rd",
    "city": "Fairburn",
    "county": "Fulton County",
    "created_at": "2012-01-04T20:14:08Z",
    "id": 5997,
    "latitude": "33.552577",
    "longitude": "-84.629561",
    "mascot": "Seminoles",
    "name": "Creekside High School",
    "primary_color": "Gold",
    "secondary_color": "Maroon",
    "state": "GA",
    "timezone": "America/New_York",
    "updated_at": "2012-07-07T23:36:07Z",
    "zip": "30213"
  },
  {
    "address": "1550 Owens Store Rd",
    "city": "Canton",
    "county": "Cherokee County",
    "created_at": "2012-01-04T20:14:08Z",
    "id": 5998,
    "latitude": "34.232798",
    "longitude": "-84.333487",
    "mascot": "Grizzlies",
    "name": "Creekview High School",
    "primary_color": "Blue",
    "secondary_color": "Green",
    "state": "GA",
    "timezone": "America/New_York",
    "updated_at": "2012-07-07T23:36:07Z",
    "zip": "30115"
  },
  {
    "address": "734 Senoia Rd",
    "city": "Tyrone",
    "county": "Fayette County",
    "created_at": "2012-01-04T20:14:08Z",
    "id": 5999,
    "latitude": "33.466197",
    "longitude": "-84.596794",
    "mascot": null,
    "name": "Crestwood Christian Academy",
    "primary_color": "Gray",
    "secondary_color": "Maroon",
    "state": "GA",
    "timezone": "America/New_York",
    "updated_at": "2012-07-07T23:36:08Z",
    "zip": "30290"
  },
  {
    "address": "256 Clifton St SE",
    "city": "Atlanta",
    "county": "DeKalb County",
    "created_at": "2012-01-04T20:14:08Z",
    "id": 6000,
    "latitude": "33.746299",
    "longitude": "-84.331848",
    "mascot": "Eagles",
    "name": "Crim Comprehensive High School",
    "primary_color": "Royal",
    "secondary_color": "White",
    "state": "GA",
    "timezone": "America/New_York",
    "updated_at": "2012-07-07T23:36:08Z",
    "zip": "30317"
  },
  {
    "address": "150 Crisp Academy Dr",
    "city": "Cordele",
    "county": "Crisp County",
    "created_at": "2012-01-04T20:14:08Z",
    "id": 6001,
    "latitude": "31.905923",
    "longitude": "-83.855654",
    "mascot": "Wildcats",
    "name": "Crisp Academy",
    "primary_color": "Gold",
    "secondary_color": "Black",
    "state": "GA",
    "timezone": "America/New_York",
    "updated_at": "2012-07-07T23:36:18Z",
    "zip": "31015"
  },
  {
    "address": "2402 Cougar Alley",
    "city": "Cordele",
    "county": "Crisp County",
    "created_at": "2012-01-04T20:14:08Z",
    "id": 6002,
    "latitude": "31.944476",
    "longitude": "-83.749718",
    "mascot": "Cougars",
    "name": "Crisp County High School",
    "primary_color": "Gold",
    "secondary_color": "Royal",
    "state": "GA",
    "timezone": "America/New_York",
    "updated_at": "2012-07-07T23:36:18Z",
    "zip": "31015"
  },
  {
    "address": "3855 Old Waynesboro Rd",
    "city": "Augusta",
    "county": "Richmond County",
    "created_at": "2012-01-04T20:14:08Z",
    "id": 6003,
    "latitude": "33.355082",
    "longitude": "-81.998844",
    "mascot": "Razorbacks",
    "name": "Cross Creek High School",
    "primary_color": "Maroon",
    "secondary_color": "Gold",
    "state": "GA",
    "timezone": "America/New_York",
    "updated_at": "2012-07-07T23:36:18Z",
    "zip": "30906"
  },
  {
    "address": "1626 N Druid Hills Rd NE",
    "city": "Atlanta",
    "county": "DeKalb County",
    "created_at": "2012-01-04T20:14:08Z",
    "id": 6004,
    "latitude": "33.844043",
    "longitude": "-84.339359",
    "mascot": "Indians",
    "name": "Cross Keys High School",
    "primary_color": "Gold",
    "secondary_color": "Hunter Green",
    "state": "GA",
    "timezone": "America/New_York",
    "updated_at": "2012-07-07T23:36:18Z",
    "zip": "30319"
  },
  {
    "address": "802 Ashley St",
    "city": "Americus",
    "county": "Sumter County",
    "created_at": "2012-01-04T20:14:08Z",
    "id": 6005,
    "latitude": "32.066570",
    "longitude": "-84.191729",
    "mascot": null,
    "name": "Cross Roads Academy",
    "primary_color": null,
    "secondary_color": null,
    "state": "GA",
    "timezone": "America/New_York",
    "updated_at": "2012-07-07T23:36:19Z",
    "zip": "31709"
  },
  {
    "address": "3921 Holly Springs Pky",
    "city": "Holly Springs",
    "county": "Cherokee County",
    "created_at": "2012-01-04T20:14:08Z",
    "id": 6006,
    "latitude": "34.157299",
    "longitude": "-84.508438",
    "mascot": "Hawks",
    "name": "Cross Roads Middle High School",
    "primary_color": "Gold",
    "secondary_color": "Kelly Green",
    "state": "GA",
    "timezone": "America/New_York",
    "updated_at": "2012-07-07T23:36:21Z",
    "zip": "30142"
  },
  {
    "address": "101 Pearl St",
    "city": "Carrollton",
    "county": "Carroll County",
    "created_at": "2012-01-04T20:14:08Z",
    "id": 6007,
    "latitude": "33.581477",
    "longitude": "-85.081981",
    "mascot": null,
    "name": "Crossroads Academy",
    "primary_color": "Royal",
    "secondary_color": "Yellow",
    "state": "GA",
    "timezone": "America/New_York",
    "updated_at": "2012-07-07T23:36:21Z",
    "zip": "30117"
  },
  {
    "address": "415 Jefferson Ave",
    "city": "Griffin",
    "county": "Spalding County",
    "created_at": "2012-01-04T20:14:08Z",
    "id": 6008,
    "latitude": "33.256007",
    "longitude": "-84.258261",
    "mascot": null,
    "name": "Crossroads School",
    "primary_color": "Red",
    "secondary_color": "White",
    "state": "GA",
    "timezone": "America/New_York",
    "updated_at": "2012-07-07T23:36:21Z",
    "zip": "30223"
  },
  {
    "address": "1326 Broad St",
    "city": "Augusta",
    "county": "Richmond County",
    "created_at": "2012-01-04T20:14:08Z",
    "id": 6009,
    "latitude": "33.478839",
    "longitude": "-81.976466",
    "mascot": "Crusaders",
    "name": "Curtis Baptist High School",
    "primary_color": "Red",
    "secondary_color": "White",
    "state": "GA",
    "timezone": "America/New_York",
    "updated_at": "2012-07-07T23:36:22Z",
    "zip": "30904"
  },
  {
    "address": "1326 Broad St",
    "city": "Augusta",
    "county": "Richmond County",
    "created_at": "2012-01-04T20:14:08Z",
    "id": 6010,
    "latitude": "33.478839",
    "longitude": "-81.976466",
    "mascot": "Crusaders",
    "name": "Curtis Baptist School",
    "primary_color": "Red",
    "secondary_color": "White",
    "state": "GA",
    "timezone": "America/New_York",
    "updated_at": "2012-07-07T23:36:22Z",
    "zip": "30901"
  },
  {
    "address": "425 Washington St",
    "city": "Montezuma",
    "county": "Macon County",
    "created_at": "2012-01-04T20:14:08Z",
    "id": 6011,
    "latitude": "32.310152",
    "longitude": "-84.031767",
    "mascot": null,
    "name": "D F Douglass Alternative Center",
    "primary_color": null,
    "secondary_color": null,
    "state": "GA",
    "timezone": "America/New_York",
    "updated_at": "2012-07-07T23:36:22Z",
    "zip": "31063"
  },
  {
    "address": "123 Broad St",
    "city": "Dacula",
    "county": "Gwinnett County",
    "created_at": "2012-01-04T20:14:08Z",
    "id": 6012,
    "latitude": "33.989814",
    "longitude": "-83.898187",
    "mascot": "Falcons",
    "name": "Dacula High School",
    "primary_color": "Gold",
    "secondary_color": "Navy",
    "state": "GA",
    "timezone": "America/New_York",
    "updated_at": "2012-07-07T23:36:23Z",
    "zip": "30019"
  },
  {
    "address": "300 Tradition Ln",
    "city": "Trenton",
    "county": "Dade County",
    "created_at": "2012-01-04T20:14:08Z",
    "id": 6013,
    "latitude": "34.863308",
    "longitude": "-85.505773",
    "mascot": "Wolverines",
    "name": "Dade County High School",
    "primary_color": "Gold",
    "secondary_color": "Maroon",
    "state": "GA",
    "timezone": "America/New_York",
    "updated_at": "2012-07-07T23:36:23Z",
    "zip": "30752"
  },
  {
    "address": "1500 Manly St",
    "city": "Dalton",
    "county": "Whitfield County",
    "created_at": "2012-01-04T20:14:08Z",
    "id": 6014,
    "latitude": "34.778781",
    "longitude": "-84.987395",
    "mascot": "Catamounts",
    "name": "Dalton High School",
    "primary_color": "White",
    "secondary_color": "Red",
    "state": "GA",
    "timezone": "America/New_York",
    "updated_at": "2012-07-07T23:36:23Z",
    "zip": "30720"
  },
  {
    "address": "1014 Cave Springs Rd",
    "city": "Rome",
    "county": "Floyd County",
    "created_at": "2012-01-04T20:14:08Z",
    "id": 6015,
    "latitude": "34.224229",
    "longitude": "-85.182655",
    "mascot": "Tigers",
    "name": "Darlington School",
    "primary_color": "Purple",
    "secondary_color": "White",
    "state": "GA",
    "timezone": "America/New_York",
    "updated_at": "2012-07-07T23:36:23Z",
    "zip": "30161"
  },
  {
    "address": "1201 W Oglethorpe Blvd",
    "city": "Albany",
    "county": "Dougherty County",
    "created_at": "2012-01-04T20:14:08Z",
    "id": 6016,
    "latitude": "31.575697",
    "longitude": "-84.179596",
    "mascot": "Eagles",
    "name": "Darsey Private School",
    "primary_color": "Kelly Green",
    "secondary_color": "White",
    "state": "GA",
    "timezone": "America/New_York",
    "updated_at": "2012-07-07T23:36:24Z",
    "zip": "31707"
  },
  {
    "address": "602 N 4",
    "city": "Stillmore",
    "county": "Emanuel County",
    "created_at": "2012-01-04T20:14:08Z",
    "id": 6017,
    "latitude": "32.445096",
    "longitude": "-82.212277",
    "mascot": "Eagles",
    "name": "David Emanuel Academy",
    "primary_color": "Royal",
    "secondary_color": "Red",
    "state": "GA",
    "timezone": "America/New_York",
    "updated_at": "2012-07-07T23:36:24Z",
    "zip": "30464"
  },
  {
    "address": "615 12th St",
    "city": "Augusta",
    "county": "Richmond County",
    "created_at": "2012-01-04T20:14:08Z",
    "id": 6018,
    "latitude": "33.472986",
    "longitude": "-81.975102",
    "mascot": null,
    "name": "Davidson Fine Arts School",
    "primary_color": "Gray",
    "secondary_color": "Maroon",
    "state": "GA",
    "timezone": "America/New_York",
    "updated_at": "2012-07-07T23:36:24Z",
    "zip": "30901"
  },
  {
    "address": "516 Allen Street",
    "city": "Dawsonville",
    "county": "Dawson County",
    "created_at": "2012-01-04T20:14:08Z",
    "id": 6019,
    "latitude": "34.419240",
    "longitude": "-84.105467",
    "mascot": "Tigers",
    "name": "Dawson County Crossroads School",
    "primary_color": "Gold",
    "secondary_color": "Maroon",
    "state": "GA",
    "timezone": "America/New_York",
    "updated_at": "2012-07-07T23:36:24Z",
    "zip": "30534"
  },
  {
    "address": "1665 Perimeter Rd",
    "city": "Dawsonville",
    "county": "Dawson County",
    "created_at": "2012-01-04T20:14:08Z",
    "id": 6020,
    "latitude": "34.414645",
    "longitude": "-84.105269",
    "mascot": "Tigers",
    "name": "Dawson County High School",
    "primary_color": "Gold",
    "secondary_color": "Maroon",
    "state": "GA",
    "timezone": "America/New_York",
    "updated_at": "2012-07-07T23:36:25Z",
    "zip": "30534"
  },
  {
    "address": "200 N Dawson St",
    "city": "La Grange",
    "county": "Troup County",
    "created_at": "2012-01-04T20:14:08Z",
    "id": 6021,
    "latitude": "33.042043",
    "longitude": "-85.022806",
    "mascot": "Stars",
    "name": "Dawson Street Christian School",
    "primary_color": "Gold",
    "secondary_color": "Black",
    "state": "GA",
    "timezone": "America/New_York",
    "updated_at": "2012-07-07T23:36:25Z",
    "zip": "30240"
  },
  {
    "address": "310 N McDonough St",
    "city": "Decatur",
    "county": "DeKalb County",
    "created_at": "2012-01-04T20:14:08Z",
    "id": 6022,
    "latitude": "33.771209",
    "longitude": "-84.296567",
    "mascot": "Bulldogs",
    "name": "Decatur High School",
    "primary_color": "Gold",
    "secondary_color": "Navy",
    "state": "GA",
    "timezone": "America/New_York",
    "updated_at": "2012-07-07T23:36:25Z",
    "zip": "30030"
  },
  {
    "address": "2500 Nottingham Ln",
    "city": "Albany",
    "county": "Dougherty County",
    "created_at": "2012-01-04T20:14:08Z",
    "id": 6023,
    "latitude": "31.612140",
    "longitude": "-84.204188",
    "mascot": "Knights",
    "name": "Deerfield Windsor School",
    "primary_color": "Navy",
    "secondary_color": "White",
    "state": "GA",
    "timezone": "America/New_York",
    "updated_at": "2012-07-07T23:36:25Z",
    "zip": "31707"
  },
  {
    "address": "1733 Beattie Rd",
    "city": "Albany",
    "county": "Dougherty County",
    "created_at": "2012-01-04T20:14:08Z",
    "id": 6024,
    "latitude": "31.590128",
    "longitude": "-84.237368",
    "mascot": "Knights",
    "name": "Deerfield-Windsor Lower School",
    "primary_color": "Royal",
    "secondary_color": "Red",
    "state": "GA",
    "timezone": "America/New_York",
    "updated_at": "2012-07-07T23:36:26Z",
    "zip": "31707"
  },
  {
    "address": "5843 Memorial Dr",
    "city": "Stone Mountain",
    "county": "DeKalb County",
    "created_at": "2012-01-04T20:14:08Z",
    "id": 6025,
    "latitude": "33.800119",
    "longitude": "-84.199336",
    "mascot": null,
    "name": "DeKalb Alternative High School",
    "primary_color": "Red",
    "secondary_color": "Black",
    "state": "GA",
    "timezone": "America/New_York",
    "updated_at": "2012-07-07T23:36:26Z",
    "zip": "30073"
  },
  {
    "address": "1995 Womack Rd",
    "city": "Dunwoody",
    "county": "DeKalb County",
    "created_at": "2012-01-04T20:14:08Z",
    "id": 6026,
    "latitude": "33.943522",
    "longitude": "-84.307290",
    "mascot": null,
    "name": "DeKalb High School Of Technology North",
    "primary_color": null,
    "secondary_color": null,
    "state": "GA",
    "timezone": "America/New_York",
    "updated_at": "2012-07-07T23:36:27Z",
    "zip": "30338"
  },
  {
    "address": "3303 Panthersville Rd",
    "city": "Decatur",
    "county": "DeKalb County",
    "created_at": "2012-01-04T20:14:08Z",
    "id": 6027,
    "latitude": "33.688566",
    "longitude": "-84.272561",
    "mascot": "Beavers",
    "name": "DeKalb High School Of Technology South",
    "primary_color": "Red",
    "secondary_color": "White",
    "state": "GA",
    "timezone": "America/New_York",
    "updated_at": "2012-07-07T23:36:27Z",
    "zip": "30034"
  },
  {
    "address": "2415 N Druid Hills Rd",
    "city": "Atlanta",
    "county": "DeKalb County",
    "created_at": "2012-01-04T20:14:08Z",
    "id": 6028,
    "latitude": "33.826822",
    "longitude": "-84.325950",
    "mascot": null,
    "name": "DeKalb School Of The Arts",
    "primary_color": "Gold ",
    "secondary_color": "Purple",
    "state": "GA",
    "timezone": "America/New_York",
    "updated_at": "2012-07-07T23:36:27Z",
    "zip": "30329"
  },
  {
    "address": "5911 Oak St",
    "city": "Eastman",
    "county": "Dodge County",
    "created_at": "2012-01-04T20:14:08Z",
    "id": 6029,
    "latitude": "32.211389",
    "longitude": "-83.193534",
    "mascot": "Indians",
    "name": "Dodge County High School",
    "primary_color": "White",
    "secondary_color": "Red",
    "state": "GA",
    "timezone": "America/New_York",
    "updated_at": "2012-07-07T23:36:27Z",
    "zip": "31023"
  },
  {
    "address": "5296 Dogwood Valley Rd",
    "city": "Tunnel Hill",
    "county": "Whitfield County",
    "created_at": "2012-01-04T20:14:08Z",
    "id": 6030,
    "latitude": "34.796820",
    "longitude": "-85.082745",
    "mascot": "Bulldogs",
    "name": "Dogwood Christian Academy",
    "primary_color": "Red",
    "secondary_color": "White",
    "state": "GA",
    "timezone": "America/New_York",
    "updated_at": "2012-07-07T23:36:28Z",
    "zip": "30755"
  },
  {
    "address": "4607 Burnt Hickory Rd NW",
    "city": "Marietta",
    "county": "Cobb County",
    "created_at": "2012-01-04T20:14:08Z",
    "id": 6031,
    "latitude": "33.966100",
    "longitude": "-84.663709",
    "mascot": null,
    "name": "Dominion Christian High School",
    "primary_color": null,
    "secondary_color": null,
    "state": "GA",
    "timezone": "America/New_York",
    "updated_at": "2012-07-07T23:36:28Z",
    "zip": "30064"
  },
  {
    "address": "712 3rd Street North",
    "city": "Vienna",
    "county": "Dooly County",
    "created_at": "2012-01-04T20:14:08Z",
    "id": 6032,
    "latitude": "32.102738",
    "longitude": "-83.798616",
    "mascot": "Bobcats",
    "name": "Dooly County High School",
    "primary_color": "Gold",
    "secondary_color": "Red",
    "state": "GA",
    "timezone": "America/New_York",
    "updated_at": "2012-07-07T23:36:28Z",
    "zip": "31092"
  },
  {
    "address": "1800 Pearce Ave",
    "city": "Albany",
    "county": "Dougherty County",
    "created_at": "2012-01-04T20:14:08Z",
    "id": 6033,
    "latitude": "31.566162",
    "longitude": "-84.107945",
    "mascot": "Trojans",
    "name": "Dougherty Comprehensive High School",
    "primary_color": "Maroon",
    "secondary_color": "White",
    "state": "GA",
    "timezone": "America/New_York",
    "updated_at": "2012-07-07T23:36:29Z",
    "zip": "31705"
  },
  {
    "address": "8705 Campbellton St",
    "city": "Douglasville",
    "county": "Douglas County",
    "created_at": "2012-01-04T20:14:08Z",
    "id": 6034,
    "latitude": "33.743960",
    "longitude": "-84.742739",
    "mascot": "Tigers",
    "name": "Douglas County High School",
    "primary_color": "Royal",
    "secondary_color": "Gold",
    "state": "GA",
    "timezone": "America/New_York",
    "updated_at": "2012-07-07T23:36:29Z",
    "zip": "30134"
  },
  {
    "address": "1798 Haygood Dr NE",
    "city": "Atlanta",
    "county": "DeKalb County",
    "created_at": "2012-01-04T20:14:08Z",
    "id": 6035,
    "latitude": "33.793318",
    "longitude": "-84.317242",
    "mascot": "Red Devils",
    "name": "Druid Hills Senior High School",
    "primary_color": "Red",
    "secondary_color": "Black",
    "state": "GA",
    "timezone": "America/New_York",
    "updated_at": "2012-07-07T23:36:29Z",
    "zip": "30307"
  },
  {
    "address": "1951 Hillcrest Pky",
    "city": "Dublin",
    "county": "Laurens County",
    "created_at": "2012-01-04T20:14:08Z",
    "id": 6036,
    "latitude": "32.542581",
    "longitude": "-82.945961",
    "mascot": "Leprechauns",
    "name": "Dublin High School",
    "primary_color": "Gold",
    "secondary_color": "Kelly Green",
    "state": "GA",
    "timezone": "America/New_York",
    "updated_at": "2012-07-07T23:36:29Z",
    "zip": "31021"
  },
  {
    "address": "1240 New Buck Rd",
    "city": "Dublin",
    "county": "Laurens County",
    "created_at": "2012-01-04T20:14:08Z",
    "id": 6037,
    "latitude": "32.551370",
    "longitude": "-82.905509",
    "mascot": null,
    "name": "Dublin Mennonite School",
    "primary_color": null,
    "secondary_color": null,
    "state": "GA",
    "timezone": "America/New_York",
    "updated_at": "2012-07-07T23:36:30Z",
    "zip": "31021"
  },
  {
    "address": "3737 Brock Rd NW",
    "city": "Duluth",
    "county": "Gwinnett County",
    "created_at": "2012-01-04T20:14:08Z",
    "id": 6038,
    "latitude": "34.010421",
    "longitude": "-84.143597",
    "mascot": "Wildcats",
    "name": "Duluth High School",
    "primary_color": "Purple",
    "secondary_color": "White",
    "state": "GA",
    "timezone": "America/New_York",
    "updated_at": "2012-07-07T23:36:30Z",
    "zip": "30096"
  },
  {
    "address": "915 E Jackson St",
    "city": "Thomasville",
    "county": "Thomas County",
    "created_at": "2012-01-04T20:14:08Z",
    "id": 6039,
    "latitude": "30.846433",
    "longitude": "-83.967383",
    "mascot": null,
    "name": "Dunlap Alternative School",
    "primary_color": null,
    "secondary_color": null,
    "state": "GA",
    "timezone": "America/New_York",
    "updated_at": "2012-07-07T23:36:30Z",
    "zip": "31792"
  },
  {
    "address": "5035 Vermack Rd",
    "city": "Dunwoody",
    "county": "DeKalb County",
    "created_at": "2012-01-04T20:14:08Z",
    "id": 6040,
    "latitude": "33.945817",
    "longitude": "-84.316723",
    "mascot": "Wildcats",
    "name": "Dunwoody High School",
    "primary_color": "Royal",
    "secondary_color": "Red",
    "state": "GA",
    "timezone": "America/New_York",
    "updated_at": "2012-07-07T23:36:30Z",
    "zip": "30338"
  },
  {
    "address": "2400 Hwy 42 N",
    "city": "McDonough",
    "county": "Henry County",
    "created_at": "2012-01-04T20:14:08Z",
    "id": 6041,
    "latitude": "33.505241",
    "longitude": "-84.186409",
    "mascot": "Chargers",
    "name": "Eagle's Landing Christian Academy",
    "primary_color": "Gold",
    "secondary_color": "Navy",
    "state": "GA",
    "timezone": "America/New_York",
    "updated_at": "2012-07-07T23:36:31Z",
    "zip": "30253"
  },
  {
    "address": "301 Tunis Rd",
    "city": "McDonough",
    "county": "Henry County",
    "created_at": "2012-01-04T20:14:08Z",
    "id": 6042,
    "latitude": "33.489301",
    "longitude": "-84.207061",
    "mascot": "Golden Eagles",
    "name": "Eagle's Landing High School",
    "primary_color": "Gold",
    "secondary_color": "Royal",
    "state": "GA",
    "timezone": "America/New_York",
    "updated_at": "2012-07-07T23:36:31Z",
    "zip": "30253"
  },
  {
    "address": "12020 Columbia Hwy",
    "city": "Blakely",
    "county": "Early County",
    "created_at": "2012-01-04T20:14:08Z",
    "id": 6043,
    "latitude": "31.375191",
    "longitude": "-84.941518",
    "mascot": "Bobcats",
    "name": "Early County High School",
    "primary_color": "Gold",
    "secondary_color": "Navy",
    "state": "GA",
    "timezone": "America/New_York",
    "updated_at": "2012-07-07T23:36:31Z",
    "zip": "39823"
  },
  {
    "address": "400 Sharpsburg-McCollum Road",
    "city": "Sharpsburg",
    "county": "Coweta County",
    "created_at": "2012-01-04T20:14:08Z",
    "id": 6044,
    "latitude": "33.345608",
    "longitude": "-84.655365",
    "mascot": "Indians",
    "name": "East Coweta High School",
    "primary_color": "Gold",
    "secondary_color": "Purple",
    "state": "GA",
    "timezone": "America/New_York",
    "updated_at": "2012-07-07T23:36:32Z",
    "zip": "30277"
  },
  {
    "address": "3534 E Hall Rd",
    "city": "Gainesville",
    "county": "Hall County",
    "created_at": "2012-01-04T20:14:08Z",
    "id": 6045,
    "latitude": "34.334177",
    "longitude": "-83.740612",
    "mascot": "Vikings",
    "name": "East Hall High School",
    "primary_color": "Gold",
    "secondary_color": "Black",
    "state": "GA",
    "timezone": "America/New_York",
    "updated_at": "2012-07-07T23:36:32Z",
    "zip": "30507"
  },
  {
    "address": "920 Hwy 80 E",
    "city": "Dublin",
    "county": "Laurens County",
    "created_at": "2012-01-04T20:14:08Z",
    "id": 6046,
    "latitude": "32.560698",
    "longitude": "-82.819317",
    "mascot": "Falcons",
    "name": "East Laurens High School",
    "primary_color": "Gold",
    "secondary_color": "Black",
    "state": "GA",
    "timezone": "America/New_York",
    "updated_at": "2012-07-07T23:36:32Z",
    "zip": "31027"
  },
  {
    "address": "3320 E Paulding Dr",
    "city": "Dallas",
    "county": "Paulding County",
    "created_at": "2012-01-04T20:14:08Z",
    "id": 6047,
    "latitude": "33.941530",
    "longitude": "-84.745747",
    "mascot": "Raiders",
    "name": "East Paulding High School",
    "primary_color": "Gray",
    "secondary_color": "Black",
    "state": "GA",
    "timezone": "America/New_York",
    "updated_at": "2012-07-07T23:36:33Z",
    "zip": "30157"
  },
  {
    "address": "10245 Eagle Dr",
    "city": "Covington",
    "county": "Newton County",
    "created_at": "2012-01-04T20:14:08Z",
    "id": 6048,
    "latitude": "33.579070",
    "longitude": "-83.834882",
    "mascot": "Eagles",
    "name": "Eastside High School",
    "primary_color": "Hunter Green",
    "secondary_color": "Gray",
    "state": "GA",
    "timezone": "America/New_York",
    "updated_at": "2012-07-07T23:36:33Z",
    "zip": "30014"
  },
  {
    "address": "Hwy 94 E",
    "city": "Statenville",
    "county": "Echols County",
    "created_at": "2012-01-04T20:14:08Z",
    "id": 6049,
    "latitude": "30.703430",
    "longitude": "-83.027649",
    "mascot": "Wildcats",
    "name": "Echols County High School",
    "primary_color": "Kelly Green",
    "secondary_color": "White",
    "state": "GA",
    "timezone": "America/New_York",
    "updated_at": "2012-07-07T23:36:34Z",
    "zip": "31648"
  },
  {
    "address": "190 GA Hwy 94 E",
    "city": "Statenville",
    "county": "Echols County",
    "created_at": "2012-01-04T20:14:08Z",
    "id": 6050,
    "latitude": "30.703396",
    "longitude": "-83.024150",
    "mascot": "Wildcats",
    "name": "Echols County School",
    "primary_color": "Kelly Green",
    "secondary_color": "White",
    "state": "GA",
    "timezone": "America/New_York",
    "updated_at": "2012-07-07T23:36:34Z",
    "zip": "31648"
  },
  {
    "address": "1909 Morris Rd",
    "city": "Columbus",
    "county": "Muscogee County",
    "created_at": "2012-01-04T20:14:08Z",
    "id": 6051,
    "latitude": "32.481367",
    "longitude": "-84.923914",
    "mascot": null,
    "name": "Edgewood Christian School",
    "primary_color": null,
    "secondary_color": null,
    "state": "GA",
    "timezone": "America/New_York",
    "updated_at": "2012-07-07T23:36:35Z",
    "zip": "31907"
  },
  {
    "address": "403 Hwy 56 S",
    "city": "Waynesboro",
    "county": "Burke County",
    "created_at": "2012-01-04T20:14:08Z",
    "id": 6052,
    "latitude": "33.077822",
    "longitude": "-82.040805",
    "mascot": null,
    "name": "Edmund Burke Academy",
    "primary_color": null,
    "secondary_color": null,
    "state": "GA",
    "timezone": "America/New_York",
    "updated_at": "2012-07-07T23:36:35Z",
    "zip": "30830"
  },
  {
    "address": "1589 Hwy 119 S",
    "city": "Springfield",
    "county": "Effingham County",
    "created_at": "2012-01-04T20:14:08Z",
    "id": 6053,
    "latitude": "32.347546",
    "longitude": "-81.353981",
    "mascot": "Rebels",
    "name": "Effingham County High School",
    "primary_color": "Navy",
    "secondary_color": "White",
    "state": "GA",
    "timezone": "America/New_York",
    "updated_at": "2012-07-07T23:36:35Z",
    "zip": "31329"
  },
  {
    "address": "3769 Ridge Ave",
    "city": "Macon",
    "county": "Bibb County",
    "created_at": "2012-01-04T20:14:08Z",
    "id": 6054,
    "latitude": "32.862411",
    "longitude": "-83.686122",
    "mascot": null,
    "name": "Elam Alexander School",
    "primary_color": null,
    "secondary_color": null,
    "state": "GA",
    "timezone": "America/New_York",
    "updated_at": "2012-07-07T23:36:35Z",
    "zip": "31204"
  },
  {
    "address": "600 Abernathy Cir",
    "city": "Elberton",
    "county": "Elbert County",
    "created_at": "2012-01-04T20:14:08Z",
    "id": 6055,
    "latitude": "34.118702",
    "longitude": "-82.827833",
    "mascot": "Blue Devils",
    "name": "Elbert County High School",
    "primary_color": "Royal",
    "secondary_color": "White",
    "state": "GA",
    "timezone": "America/New_York",
    "updated_at": "2012-07-07T23:36:36Z",
    "zip": "30635"
  },
  {
    "address": "400 Elberta Rd",
    "city": "Warner Robins",
    "county": "Houston County",
    "created_at": "2012-01-04T20:14:08Z",
    "id": 6056,
    "latitude": "32.654151",
    "longitude": "-83.623627",
    "mascot": null,
    "name": "Elberta Center Alternative High School",
    "primary_color": null,
    "secondary_color": null,
    "state": "GA",
    "timezone": "America/New_York",
    "updated_at": "2012-07-07T23:36:36Z",
    "zip": "31093"
  },
  {
    "address": "102 North College St",
    "city": "Twin City",
    "county": "Emanuel County",
    "created_at": "2012-01-04T20:14:08Z",
    "id": 6057,
    "latitude": "32.583800",
    "longitude": "-82.147909",
    "mascot": "Bulldogs",
    "name": "Emanuel County Institute School",
    "primary_color": "Red",
    "secondary_color": "Black",
    "state": "GA",
    "timezone": "America/New_York",
    "updated_at": "2012-07-07T23:36:36Z",
    "zip": "30471"
  },
  {
    "address": "1010 Old Jessup Rd",
    "city": "Brunswick",
    "county": "Glynn County",
    "created_at": "2012-01-04T20:14:08Z",
    "id": 6058,
    "latitude": "31.221708",
    "longitude": "-81.503301",
    "mascot": "Patriots",
    "name": "Emmanuel Christian School",
    "primary_color": "Red",
    "secondary_color": "Royal",
    "state": "GA",
    "timezone": "America/New_York",
    "updated_at": "2012-07-07T23:36:37Z",
    "zip": "31520"
  },
  {
    "address": "1441 Willamson Rd",
    "city": "Macon",
    "county": "Bibb County",
    "created_at": "2012-01-04T20:14:08Z",
    "id": 6059,
    "latitude": "32.806109",
    "longitude": "-83.666356",
    "mascot": "Lions",
    "name": "Ernest Saloom Academy",
    "primary_color": "Gold",
    "secondary_color": "White",
    "state": "GA",
    "timezone": "America/New_York",
    "updated_at": "2012-07-07T23:36:37Z",
    "zip": "31206"
  },
  {
    "address": "6565 Putnam Ford Rd",
    "city": "Woodstock",
    "county": "Cherokee County",
    "created_at": "2012-01-04T20:14:08Z",
    "id": 6060,
    "latitude": "34.114743",
    "longitude": "-84.561661",
    "mascot": "Eagles",
    "name": "Etowah High School",
    "primary_color": "Gold",
    "secondary_color": "Columbia Blue",
    "state": "GA",
    "timezone": "America/New_York",
    "updated_at": "2012-07-07T23:36:37Z",
    "zip": "30189"
  },
  {
    "address": "4550 Cox Rd",
    "city": "Evans",
    "county": "Columbia County",
    "created_at": "2012-01-04T20:14:08Z",
    "id": 6061,
    "latitude": "33.525706",
    "longitude": "-82.146801",
    "mascot": "Knights",
    "name": "Evans High School",
    "primary_color": "Gold",
    "secondary_color": "Black",
    "state": "GA",
    "timezone": "America/New_York",
    "updated_at": "2012-07-07T23:36:38Z",
    "zip": "30809"
  },