[
  {
    "address": "20264 Blachly Grange Rd",
    "city": "Blachly",
    "county": "Lane County",
    "created_at": "2012-01-04T20:16:55Z",
    "id": 19824,
    "latitude": "44.195777",
    "longitude": "-123.545974",
    "mascot": "Lakers",
    "name": "Triangle Lake School",
    "primary_color": "Gold",
    "secondary_color": "Kelly Green",
    "state": "OR",
    "timezone": "America/Los_Angeles",
    "updated_at": "2012-07-08T00:54:00Z",
    "zip": "97412"
  },
  {
    "address": "675 SW Rimrock Dr",
    "city": "Redmond",
    "county": "Deschutes County",
    "created_at": "2012-01-04T20:16:55Z",
    "id": 19825,
    "latitude": "44.270753",
    "longitude": "-121.190395",
    "mascot": "Panthers",
    "name": "Redmond High School",
    "primary_color": "Gold",
    "secondary_color": "Maroon",
    "state": "OR",
    "timezone": "America/Los_Angeles",
    "updated_at": "2012-07-08T00:54:00Z",
    "zip": "97756"
  },
  {
    "address": "651 Murphy Creek Rd",
    "city": "Grants Pass",
    "county": "Josephine County",
    "created_at": "2012-01-04T20:16:55Z",
    "id": 19826,
    "latitude": "42.326513",
    "longitude": "-123.341803",
    "mascot": "Mustangs",
    "name": "Hidden Valley High School",
    "primary_color": "Orange",
    "secondary_color": "Columbia Blue",
    "state": "OR",
    "timezone": "America/Los_Angeles",
    "updated_at": "2012-07-08T00:54:00Z",
    "zip": "97527"
  },
  {
    "address": "649 Crater Lake Ave",
    "city": "Medford",
    "county": "Jackson County",
    "created_at": "2012-01-04T20:16:55Z",
    "id": 19827,
    "latitude": "42.335521",
    "longitude": "-122.861843",
    "mascot": "Vikings",
    "name": "Grace Christian School",
    "primary_color": "Purple",
    "secondary_color": "White",
    "state": "OR",
    "timezone": "America/Los_Angeles",
    "updated_at": "2012-07-08T00:54:01Z",
    "zip": "97504"
  },
  {
    "address": "200 Silver Ln",
    "city": "Eugene",
    "county": "Lane County",
    "created_at": "2012-01-04T20:16:55Z",
    "id": 19828,
    "latitude": "44.095583",
    "longitude": "-123.131970",
    "mascot": "Highlanders",
    "name": "North Eugene High School",
    "primary_color": "Red",
    "secondary_color": "White",
    "state": "OR",
    "timezone": "America/Los_Angeles",
    "updated_at": "2012-07-08T00:54:01Z",
    "zip": "97404"
  },
  {
    "address": "1653 NW Troost St",
    "city": "Roseburg",
    "county": "Douglas County",
    "created_at": "2012-01-04T20:16:55Z",
    "id": 19829,
    "latitude": "43.228764",
    "longitude": "-123.386813",
    "mascot": "Rockets",
    "name": "Roseburg Junior Academy",
    "primary_color": "Maroon",
    "secondary_color": "White",
    "state": "OR",
    "timezone": "America/Los_Angeles",
    "updated_at": "2012-07-08T00:54:01Z",
    "zip": "97470"
  },
  {
    "address": "26505 SE Kelso Rd",
    "city": "Boring",
    "county": "Clackamas County",
    "created_at": "2012-01-04T20:16:55Z",
    "id": 19830,
    "latitude": "45.418038",
    "longitude": "-122.390267",
    "mascot": null,
    "name": "Hood View Junior Academy",
    "primary_color": "Royal",
    "secondary_color": "White",
    "state": "OR",
    "timezone": "America/Los_Angeles",
    "updated_at": "2012-07-08T00:54:01Z",
    "zip": "97009"
  },
  {
    "address": "14251 SE Rust Way",
    "city": "Boring",
    "county": "Clackamas County",
    "created_at": "2012-01-04T20:16:55Z",
    "id": 19831,
    "latitude": "45.432506",
    "longitude": "-122.345373",
    "mascot": "Eagles",
    "name": "Damascus Christian School",
    "primary_color": "Gold",
    "secondary_color": "Maroon",
    "state": "OR",
    "timezone": "America/Los_Angeles",
    "updated_at": "2012-07-08T00:54:02Z",
    "zip": "97009"
  },
  {
    "address": "3285 SE Rood Bridge Rd",
    "city": "Hillsboro",
    "county": "Washington County",
    "created_at": "2012-01-04T20:16:55Z",
    "id": 19832,
    "latitude": "45.495231",
    "longitude": "-122.953226",
    "mascot": "Spartans",
    "name": "Hillsboro High School",
    "primary_color": "Royal",
    "secondary_color": "White",
    "state": "OR",
    "timezone": "America/Los_Angeles",
    "updated_at": "2012-07-08T00:54:02Z",
    "zip": "97123"
  },
  {
    "address": "501 Bassett St",
    "city": "Jordan Valley",
    "county": "Malheur County",
    "created_at": "2012-01-04T20:16:55Z",
    "id": 19833,
    "latitude": "42.977244",
    "longitude": "-117.053099",
    "mascot": "Mustangs",
    "name": "Jordan Valley School",
    "primary_color": "Red",
    "secondary_color": "Royal Blue",
    "state": "OR",
    "timezone": "America/Boise",
    "updated_at": "2012-07-08T00:54:02Z",
    "zip": "97910"
  },
  {
    "address": "600 S 1st St",
    "city": "Hermiston",
    "county": "Umatilla County",
    "created_at": "2012-01-04T20:16:55Z",
    "id": 19834,
    "latitude": "45.836891",
    "longitude": "-119.290323",
    "mascot": "Bulldogs",
    "name": "Hermiston High School",
    "primary_color": "Gold",
    "secondary_color": "Purple",
    "state": "OR",
    "timezone": "America/Los_Angeles",
    "updated_at": "2012-07-08T00:54:03Z",
    "zip": "97838"
  },
  {
    "address": "540 S Main",
    "city": "Union",
    "county": "Union County",
    "created_at": "2012-01-04T20:16:55Z",
    "id": 19835,
    "latitude": "45.206080",
    "longitude": "-117.865525",
    "mascot": "Bobcats",
    "name": "Union School District 5",
    "primary_color": "Red",
    "secondary_color": "White",
    "state": "OR",
    "timezone": "America/Los_Angeles",
    "updated_at": "2012-07-08T00:54:03Z",
    "zip": "97883"
  },
  {
    "address": "33700 SE High School Way",
    "city": "Scappoose",
    "county": "Columbia County",
    "created_at": "2012-01-04T20:16:55Z",
    "id": 19836,
    "latitude": "45.748857",
    "longitude": "-122.872625",
    "mascot": "Indians",
    "name": "Scappoose High School",
    "primary_color": "Orange",
    "secondary_color": "Black",
    "state": "OR",
    "timezone": "America/Los_Angeles",
    "updated_at": "2012-07-08T00:54:03Z",
    "zip": "97056"
  },
  {
    "address": "6th & Easter Ave",
    "city": "Imbler",
    "county": "Union County",
    "created_at": "2012-01-04T20:16:55Z",
    "id": 19837,
    "latitude": "45.458084",
    "longitude": "-117.962639",
    "mascot": "Panthers",
    "name": "Imbler Junior Senior High School",
    "primary_color": "Orange",
    "secondary_color": "Black",
    "state": "OR",
    "timezone": "America/Los_Angeles",
    "updated_at": "2012-07-08T00:54:04Z",
    "zip": "97841"
  },
  {
    "address": "6741 Monument Dr",
    "city": "Grants Pass",
    "county": "Josephine County",
    "created_at": "2012-01-04T20:16:55Z",
    "id": 19838,
    "latitude": "42.518135",
    "longitude": "-123.380101",
    "mascot": "Knights",
    "name": "North Valley High School",
    "primary_color": "Gold",
    "secondary_color": "Maroon",
    "state": "OR",
    "timezone": "America/Los_Angeles",
    "updated_at": "2012-07-08T00:54:04Z",
    "zip": "97526"
  },
  {
    "address": "830 NE 9th",
    "city": "Grants Pass",
    "county": "Josephine County",
    "created_at": "2012-01-04T20:16:55Z",
    "id": 19839,
    "latitude": "42.444015",
    "longitude": "-123.317530",
    "mascot": "Cavemen",
    "name": "Grants Pass High School",
    "primary_color": "Royal",
    "secondary_color": "White",
    "state": "OR",
    "timezone": "America/Los_Angeles",
    "updated_at": "2012-07-08T00:54:04Z",
    "zip": "97526"
  },
  {
    "address": "1700 S 5th St",
    "city": "Lebanon",
    "county": "Linn County",
    "created_at": "2012-01-04T20:16:55Z",
    "id": 19840,
    "latitude": "44.529963",
    "longitude": "-122.912685",
    "mascot": "Warriors",
    "name": "Lebanon High School",
    "primary_color": "Royal",
    "secondary_color": "Red",
    "state": "OR",
    "timezone": "America/Los_Angeles",
    "updated_at": "2012-07-08T00:54:04Z",
    "zip": "97355"
  },
  {
    "address": "1120 N Main St",
    "city": "Stanfield",
    "county": "Umatilla County",
    "created_at": "2012-01-04T20:16:55Z",
    "id": 19841,
    "latitude": "45.789180",
    "longitude": "-119.220937",
    "mascot": "Tigers",
    "name": "Stanfield Secondary School",
    "primary_color": "Gold",
    "secondary_color": "Royal",
    "state": "OR",
    "timezone": "America/Los_Angeles",
    "updated_at": "2012-07-08T00:54:05Z",
    "zip": "97875"
  },
  {
    "address": "2153 NE Vine St",
    "city": "Roseburg",
    "county": "Douglas County",
    "created_at": "2012-01-04T20:16:55Z",
    "id": 19842,
    "latitude": "43.236046",
    "longitude": "-123.347284",
    "mascot": "Pioneers",
    "name": "Joseph Lane Middle School",
    "primary_color": "Red",
    "secondary_color": "White",
    "state": "OR",
    "timezone": "America/Los_Angeles",
    "updated_at": "2012-07-08T00:54:05Z",
    "zip": "97470"
  },
  {
    "address": "850 W Keady Ct",
    "city": "Roseburg",
    "county": "Douglas County",
    "created_at": "2012-01-04T20:16:55Z",
    "id": 19843,
    "latitude": "43.212111",
    "longitude": "-123.370695",
    "mascot": "Generals",
    "name": "John C Fremont Middle School",
    "primary_color": "Royal",
    "secondary_color": "Gold",
    "state": "OR",
    "timezone": "America/Los_Angeles",
    "updated_at": "2012-07-08T00:54:05Z",
    "zip": "97470"
  },
  {
    "address": "201 Mountain View Dr",
    "city": "Gilchrist",
    "county": "Klamath County",
    "created_at": "2012-01-04T20:16:55Z",
    "id": 19844,
    "latitude": "43.414284",
    "longitude": "-121.592822",
    "mascot": "Grizzlies",
    "name": "Gilchrist Schools",
    "primary_color": "Hunter Green",
    "secondary_color": "White",
    "state": "OR",
    "timezone": "America/Los_Angeles",
    "updated_at": "2012-07-08T00:54:06Z",
    "zip": "97737"
  },
  {
    "address": "400 Wm E Williams St",
    "city": "Joseph",
    "county": "Wallowa County",
    "created_at": "2012-01-04T20:16:55Z",
    "id": 19845,
    "latitude": "45.352470",
    "longitude": "-117.225809",
    "mascot": "Eagles",
    "name": "Joseph Middle & High School",
    "primary_color": "Royal",
    "secondary_color": "Gold",
    "state": "OR",
    "timezone": "America/Los_Angeles",
    "updated_at": "2012-07-08T00:54:06Z",
    "zip": "97846"
  },
  {
    "address": "1800 NE Sturdevant Rd",
    "city": "Toledo",
    "county": "Lincoln County",
    "created_at": "2012-01-04T20:16:55Z",
    "id": 19846,
    "latitude": "44.632989",
    "longitude": "-123.923362",
    "mascot": "Boomers",
    "name": "Toledo High School",
    "primary_color": "Gold",
    "secondary_color": "Royal",
    "state": "OR",
    "timezone": "America/Los_Angeles",
    "updated_at": "2012-07-08T00:54:06Z",
    "zip": "97391"
  },
  {
    "address": "3601 W 10th St",
    "city": "The Dalles",
    "county": "Wasco County",
    "created_at": "2012-01-04T20:16:55Z",
    "id": 19847,
    "latitude": "45.625986",
    "longitude": "-121.226946",
    "mascot": "Eagles",
    "name": "Wahtonka 9th Grade Campus ",
    "primary_color": "Gold",
    "secondary_color": "Black",
    "state": "OR",
    "timezone": "America/Los_Angeles",
    "updated_at": "2012-07-08T00:54:06Z",
    "zip": "97058"
  },
  {
    "address": "1600 NW Carden Ave",
    "city": "Pendleton",
    "county": "Umatilla County",
    "created_at": "2012-01-04T20:16:55Z",
    "id": 19848,
    "latitude": "45.673943",
    "longitude": "-118.803252",
    "mascot": "Buckaroos",
    "name": "Pendleton High School",
    "primary_color": "Gold",
    "secondary_color": "Kelly Green",
    "state": "OR",
    "timezone": "America/Los_Angeles",
    "updated_at": "2012-07-08T00:54:07Z",
    "zip": "97801"
  },
  {
    "address": "2260 Longwood Dr",
    "city": "Reedsport",
    "county": "Douglas County",
    "created_at": "2012-01-04T20:16:55Z",
    "id": 19849,
    "latitude": "43.694214",
    "longitude": "-124.124584",
    "mascot": "Braves",
    "name": "Reedsport High School",
    "primary_color": "Red",
    "secondary_color": "Black",
    "state": "OR",
    "timezone": "America/Los_Angeles",
    "updated_at": "2012-07-08T00:54:07Z",
    "zip": "97467"
  },
  {
    "address": "721 SW 4th Ave",
    "city": "Canby",
    "county": "Clackamas County",
    "created_at": "2012-01-04T20:16:55Z",
    "id": 19850,
    "latitude": "45.258010",
    "longitude": "-122.696899",
    "mascot": "Cougars",
    "name": "Canby High School",
    "primary_color": "Gold",
    "secondary_color": "Royal",
    "state": "OR",
    "timezone": "America/Los_Angeles",
    "updated_at": "2012-07-08T00:54:07Z",
    "zip": "97013"
  },
  {
    "address": "413 NE 91st Ave",
    "city": "Portland",
    "county": "Multnomah County",
    "created_at": "2012-01-04T20:16:55Z",
    "id": 19851,
    "latitude": "45.525875",
    "longitude": "-122.570334",
    "mascot": "Knights",
    "name": "Columbia Christian School",
    "primary_color": "Gold",
    "secondary_color": "Black",
    "state": "OR",
    "timezone": "America/Los_Angeles",
    "updated_at": "2012-07-08T00:54:08Z",
    "zip": "97220"
  },
  {
    "address": "9200 NE Fremont",
    "city": "Portland",
    "county": "Multnomah County",
    "created_at": "2012-01-04T20:16:55Z",
    "id": 19852,
    "latitude": "45.548799",
    "longitude": "-122.568945",
    "mascot": "Lions",
    "name": "City Christian School",
    "primary_color": "Gold",
    "secondary_color": "Royal",
    "state": "OR",
    "timezone": "America/Los_Angeles",
    "updated_at": "2012-07-08T00:54:08Z",
    "zip": "97220"
  },
  {
    "address": "324 Milo Dr",
    "city": "Days Creek",
    "county": "Douglas County",
    "created_at": "2012-01-04T20:16:55Z",
    "id": 19853,
    "latitude": "42.934362",
    "longitude": "-123.035862",
    "mascot": "Mustangs",
    "name": "Milo Adventist Academy",
    "primary_color": "Red",
    "secondary_color": "White",
    "state": "OR",
    "timezone": "America/Los_Angeles",
    "updated_at": "2012-07-08T00:54:08Z",
    "zip": "97429"
  },
  {
    "address": "6300 SW Nicol Rd",
    "city": "Portland",
    "county": "Washington County",
    "created_at": "2012-01-04T20:16:55Z",
    "id": 19854,
    "latitude": "45.475051",
    "longitude": "-122.757851",
    "mascot": null,
    "name": "Oregon Episcopal School",
    "primary_color": "Hunter Green",
    "secondary_color": "White",
    "state": "OR",
    "timezone": "America/Los_Angeles",
    "updated_at": "2012-07-08T00:54:08Z",
    "zip": "97223"
  },
  {
    "address": "11999 SE Fuller Rd",
    "city": "Milwaukie",
    "county": "Clackamas County",
    "created_at": "2012-01-04T20:16:55Z",
    "id": 19855,
    "latitude": "45.435958",
    "longitude": "-122.585463",
    "mascot": "Falcons",
    "name": "La Salle High School",
    "primary_color": "Red",
    "secondary_color": "Royal",
    "state": "OR",
    "timezone": "America/Los_Angeles",
    "updated_at": "2012-07-08T00:54:09Z",
    "zip": "97222"
  },
  {
    "address": "19761 S Beavercreek Rd",
    "city": "Oregon City",
    "county": "Clackamas County",
    "created_at": "2012-01-04T20:16:56Z",
    "id": 19856,
    "latitude": "45.321283",
    "longitude": "-122.559800",
    "mascot": "Pioneer Pete",
    "name": "Oregon City High School Moss Campus",
    "primary_color": "Red",
    "secondary_color": "White",
    "state": "OR",
    "timezone": "America/Los_Angeles",
    "updated_at": "2012-07-08T00:54:13Z",
    "zip": "97045"
  },
  {
    "address": "10th & Ingersoll St",
    "city": "Coos Bay",
    "county": "Coos County",
    "created_at": "2012-01-04T20:16:56Z",
    "id": 19857,
    "latitude": "43.359540",
    "longitude": "-124.221839",
    "mascot": "Pirates",
    "name": "Marshfield High School",
    "primary_color": "Gold",
    "secondary_color": "Purple",
    "state": "OR",
    "timezone": "America/Los_Angeles",
    "updated_at": "2012-07-08T00:54:13Z",
    "zip": "97420"
  },
  {
    "address": "2500 East St",
    "city": "Baker City",
    "county": "Baker County",
    "created_at": "2012-01-04T20:16:56Z",
    "id": 19858,
    "latitude": "44.786247",
    "longitude": "-117.836882",
    "mascot": "Bulldogs",
    "name": "Baker Senior High School",
    "primary_color": "Gold",
    "secondary_color": "Purple",
    "state": "OR",
    "timezone": "America/Los_Angeles",
    "updated_at": "2012-07-08T00:54:14Z",
    "zip": "97814"
  },
  {
    "address": "1400 NW Buchanan St.",
    "city": "Corvallis",
    "county": "Benton County",
    "created_at": "2012-01-04T20:16:56Z",
    "id": 19859,
    "latitude": "44.576081",
    "longitude": "-123.268072",
    "mascot": "Spartans",
    "name": "Corvallis High School",
    "primary_color": "Columbia Blue",
    "secondary_color": "White",
    "state": "OR",
    "timezone": "America/Los_Angeles",
    "updated_at": "2012-07-08T00:54:14Z",
    "zip": "97330"
  },
  {
    "address": "19761 S Beavercreek Rd",
    "city": "Oregon City",
    "county": "Clackamas County",
    "created_at": "2012-01-04T20:16:56Z",
    "id": 19860,
    "latitude": "45.321283",
    "longitude": "-122.559800",
    "mascot": "Pioneers",
    "name": "Oregon City High School",
    "primary_color": "Red",
    "secondary_color": "White",
    "state": "OR",
    "timezone": "America/Los_Angeles",
    "updated_at": "2012-07-08T00:54:14Z",
    "zip": "97045"
  },
  {
    "address": "2501 SW Country Club Rd",
    "city": "Lake Oswego",
    "county": "Clackamas County",
    "created_at": "2012-01-04T20:16:56Z",
    "id": 19861,
    "latitude": "45.424897",
    "longitude": "-122.702072",
    "mascot": "Pilots",
    "name": "Lake Oswego High School",
    "primary_color": "Navy",
    "secondary_color": "White",
    "state": "OR",
    "timezone": "America/Los_Angeles",
    "updated_at": "2012-07-08T00:54:15Z",
    "zip": "97034"
  },
  {
    "address": "1235 SW Overlook",
    "city": "Lake Oswego",
    "county": "Clackamas County",
    "created_at": "2012-01-04T20:16:56Z",
    "id": 19862,
    "latitude": "45.396857",
    "longitude": "-122.693847",
    "mascot": null,
    "name": "Lakeridge High School",
    "primary_color": "Columbia Blue",
    "secondary_color": "White",
    "state": "OR",
    "timezone": "America/Los_Angeles",
    "updated_at": "2012-07-08T00:54:15Z",
    "zip": "97034"
  },
  {
    "address": "547 W Chapman Ave",
    "city": "Roseburg",
    "county": "Douglas County",
    "created_at": "2012-01-04T20:16:56Z",
    "id": 19863,
    "latitude": "43.215285",
    "longitude": "-123.352604",
    "mascot": "Indians",
    "name": "Roseburg Senior High School",
    "primary_color": "Orange",
    "secondary_color": "Black",
    "state": "OR",
    "timezone": "America/Los_Angeles",
    "updated_at": "2012-07-08T00:54:15Z",
    "zip": "97470"
  },
  {
    "address": "1381 NW Douglas St",
    "city": "Winston",
    "county": "Douglas County",
    "created_at": "2012-01-04T20:16:56Z",
    "id": 19864,
    "latitude": "43.114541",
    "longitude": "-123.437218",
    "mascot": "Trojans",
    "name": "Douglas High School",
    "primary_color": "Gray",
    "secondary_color": "Red",
    "state": "OR",
    "timezone": "America/Los_Angeles",
    "updated_at": "2012-07-08T00:54:15Z",
    "zip": "97496"
  },
  {
    "address": "815 S Oakdale Ave",
    "city": "Medford",
    "county": "Jackson County",
    "created_at": "2012-01-04T20:16:56Z",
    "id": 19865,
    "latitude": "42.316324",
    "longitude": "-122.874433",
    "mascot": "Panthers",
    "name": "South Medford High School",
    "primary_color": "Gray",
    "secondary_color": "Royal",
    "state": "OR",
    "timezone": "America/Los_Angeles",
    "updated_at": "2012-07-08T00:54:16Z",
    "zip": "97501"
  },
  {
    "address": "1900 North Keene Way Drive",
    "city": "Medford",
    "county": "Jackson County",
    "created_at": "2012-01-04T20:16:56Z",
    "id": 19866,
    "latitude": "42.346602",
    "longitude": "-122.852517",
    "mascot": "Black Tornados",
    "name": "North Medford High School",
    "primary_color": "Red",
    "secondary_color": "Black",
    "state": "OR",
    "timezone": "America/Los_Angeles",
    "updated_at": "2012-07-08T00:54:16Z",
    "zip": "97504"
  },
  {
    "address": "390 SE 10th St",
    "city": "Madras",
    "county": "Jefferson County",
    "created_at": "2012-01-04T20:16:56Z",
    "id": 19867,
    "latitude": "44.631337",
    "longitude": "-121.124506",
    "mascot": "White Buffalos",
    "name": "Madras High School",
    "primary_color": "Royal",
    "secondary_color": "White",
    "state": "OR",
    "timezone": "America/Los_Angeles",
    "updated_at": "2012-07-08T00:54:16Z",
    "zip": "97741"
  },
  {
    "address": "8245 Hwy 39",
    "city": "Klamath Falls",
    "county": "Klamath County",
    "created_at": "2012-01-04T20:16:56Z",
    "id": 19868,
    "latitude": "42.150571",
    "longitude": "-121.698221",
    "mascot": "Hornets",
    "name": "Henley High School",
    "primary_color": "Gold",
    "secondary_color": "Navy",
    "state": "OR",
    "timezone": "America/Los_Angeles",
    "updated_at": "2012-07-08T00:54:17Z",
    "zip": "97603"
  },
  {
    "address": "1300 Monclaire St",
    "city": "Klamath Falls",
    "county": "Klamath County",
    "created_at": "2012-01-04T20:16:56Z",
    "id": 19869,
    "latitude": "42.231137",
    "longitude": "-121.778879",
    "mascot": "Pelicans",
    "name": "Klamath Union High School",
    "primary_color": "Red",
    "secondary_color": "White",
    "state": "OR",
    "timezone": "America/Los_Angeles",
    "updated_at": "2012-07-08T00:54:17Z",
    "zip": "97601"
  },
  {
    "address": "3009 Summers Ln",
    "city": "Klamath Falls",
    "county": "Klamath County",
    "created_at": "2012-01-04T20:16:56Z",
    "id": 19870,
    "latitude": "42.199045",
    "longitude": "-121.737705",
    "mascot": "Vikings",
    "name": "Mazama High School",
    "primary_color": "Royal",
    "secondary_color": "White",
    "state": "OR",
    "timezone": "America/Los_Angeles",
    "updated_at": "2012-07-08T00:54:17Z",
    "zip": "97603"
  },
  {
    "address": "1801 Echo Hollow Rd",
    "city": "Eugene",
    "county": "Lane County",
    "created_at": "2012-01-04T20:16:56Z",
    "id": 19871,
    "latitude": "44.081443",
    "longitude": "-123.168101",
    "mascot": "Wolverines",
    "name": "Willamette High School",
    "primary_color": "Gold",
    "secondary_color": "Maroon",
    "state": "OR",
    "timezone": "America/Los_Angeles",
    "updated_at": "2012-07-08T00:54:17Z",
    "zip": "97402"
  },
  {
    "address": "1850 Bailey Hill Rd",
    "city": "Eugene",
    "county": "Lane County",
    "created_at": "2012-01-04T20:16:56Z",
    "id": 19872,
    "latitude": "44.039936",
    "longitude": "-123.148599",
    "mascot": "Lancers",
    "name": "Winston Churchill High School",
    "primary_color": "Royal",
    "secondary_color": "Red",
    "state": "OR",
    "timezone": "America/Los_Angeles",
    "updated_at": "2012-07-08T00:54:18Z",
    "zip": "97405"
  },
  {
    "address": "322 NE Eads St",
    "city": "Newport",
    "county": "Lincoln County",
    "created_at": "2012-01-04T20:16:56Z",
    "id": 19873,
    "latitude": "44.638346",
    "longitude": "-124.046685",
    "mascot": "Cubs",
    "name": "Newport High School",
    "primary_color": "Royal",
    "secondary_color": "White",
    "state": "OR",
    "timezone": "America/Los_Angeles",
    "updated_at": "2012-07-08T00:54:18Z",
    "zip": "97365"
  },
  {
    "address": "3705 SE Columbus St",
    "city": "Albany",
    "county": "Linn County",
    "created_at": "2012-01-04T20:16:56Z",
    "id": 19874,
    "latitude": "44.607588",
    "longitude": "-123.079577",
    "mascot": null,
    "name": "South Albany High School",
    "primary_color": "Gray",
    "secondary_color": "Red",
    "state": "OR",
    "timezone": "America/Los_Angeles",
    "updated_at": "2012-07-08T00:54:18Z",
    "zip": "97321"
  },
  {
    "address": "1115 W Idaho Ave",
    "city": "Ontario",
    "county": "Malheur County",
    "created_at": "2012-01-04T20:16:56Z",
    "id": 19875,
    "latitude": "44.028492",
    "longitude": "-116.978586",
    "mascot": "Tigers",
    "name": "Ontario High School",
    "primary_color": "Gold",
    "secondary_color": "Red",
    "state": "OR",
    "timezone": "America/Boise",
    "updated_at": "2012-07-08T00:54:19Z",
    "zip": "97914"
  },
  {
    "address": "2440 Lancaster Dr NE",
    "city": "Salem",
    "county": "Marion County",
    "created_at": "2012-01-04T20:16:56Z",
    "id": 19876,
    "latitude": "44.957774",
    "longitude": "-122.983600",
    "mascot": "Royal Scotsmen",
    "name": "McKay High School",
    "primary_color": "Hunter Green",
    "secondary_color": "Black",
    "state": "OR",
    "timezone": "America/Los_Angeles",
    "updated_at": "2012-07-08T00:54:19Z",
    "zip": "97305"
  },
  {
    "address": "595 Chemawa Rd NE",
    "city": "Keizer",
    "county": "Marion County",
    "created_at": "2012-01-04T20:16:56Z",
    "id": 19877,
    "latitude": "44.996897",
    "longitude": "-123.025825",
    "mascot": "Celtics",
    "name": "McNary High School",
    "primary_color": "Royal",
    "secondary_color": "White",
    "state": "OR",
    "timezone": "America/Los_Angeles",
    "updated_at": "2012-07-08T00:54:19Z",
    "zip": "97303"
  },
  {
    "address": "765 14th St NE",
    "city": "Salem",
    "county": "Marion County",
    "created_at": "2012-01-04T20:16:56Z",
    "id": 19878,
    "latitude": "44.943919",
    "longitude": "-123.020484",
    "mascot": "Vikings",
    "name": "North Salem High School",
    "primary_color": "Red",
    "secondary_color": "Black",
    "state": "OR",
    "timezone": "America/Los_Angeles",
    "updated_at": "2012-07-08T00:54:19Z",
    "zip": "97301"
  },
  {
    "address": "2373 Kuebler Blvd S",
    "city": "Salem",
    "county": "Marion County",
    "created_at": "2012-01-04T20:16:56Z",
    "id": 19879,
    "latitude": "44.883325",
    "longitude": "-123.080204",
    "mascot": "Olympians",
    "name": "Sprague High School",
    "primary_color": "Orange",
    "secondary_color": "Brown",
    "state": "OR",
    "timezone": "America/Los_Angeles",
    "updated_at": "2012-07-08T00:54:20Z",
    "zip": "97302"
  },
  {
    "address": "11717 NE Shaver",
    "city": "Portland",
    "county": "Multnomah County",
    "created_at": "2012-01-04T20:16:56Z",
    "id": 19880,
    "latitude": "45.551768",
    "longitude": "-122.541464",
    "mascot": "Broncos",
    "name": "Parkrose High School",
    "primary_color": "Kelly Green",
    "secondary_color": "Black",
    "state": "OR",
    "timezone": "America/Los_Angeles",
    "updated_at": "2012-07-08T00:54:20Z",
    "zip": "97220"
  },
  {
    "address": "3905 SE 91st",
    "city": "Portland",
    "county": "Multnomah County",
    "created_at": "2012-01-04T20:16:56Z",
    "id": 19881,
    "latitude": "45.493738",
    "longitude": "-122.569998",
    "mascot": "Minutemen/Minutemaids",
    "name": "Marshall High School",
    "primary_color": "Red",
    "secondary_color": "White",
    "state": "OR",
    "timezone": "America/Los_Angeles",
    "updated_at": "2012-07-08T00:54:20Z",
    "zip": "97266"
  },
  {
    "address": "5210 N Kerby Ave",
    "city": "Portland",
    "county": "Multnomah County",
    "created_at": "2012-01-04T20:16:56Z",
    "id": 19882,
    "latitude": "45.560046",
    "longitude": "-122.672961",
    "mascot": "Democrat Fighting Donkeys",
    "name": "Jefferson High School",
    "primary_color": "Gold",
    "secondary_color": "Royal",
    "state": "OR",
    "timezone": "America/Los_Angeles",
    "updated_at": "2012-07-08T00:54:20Z",
    "zip": "97217"
  },
  {
    "address": "1600 SW Salmon",
    "city": "Portland",
    "county": "Multnomah County",
    "created_at": "2012-01-04T20:16:56Z",
    "id": 19883,
    "latitude": "45.519640",
    "longitude": "-122.689343",
    "mascot": "Cardinals",
    "name": "Lincoln High School",
    "primary_color": "Red",
    "secondary_color": "White",
    "state": "OR",
    "timezone": "America/Los_Angeles",
    "updated_at": "2012-07-08T00:54:21Z",
    "zip": "97205"
  },
  {
    "address": "5405 SE Woodward",
    "city": "Portland",
    "county": "Multnomah County",
    "created_at": "2012-01-04T20:16:56Z",
    "id": 19884,
    "latitude": "45.501408",
    "longitude": "-122.606913",
    "mascot": "Quakers",
    "name": "Franklin High School",
    "primary_color": "Gray",
    "secondary_color": "Maroon",
    "state": "OR",
    "timezone": "America/Los_Angeles",
    "updated_at": "2012-07-08T00:54:21Z",
    "zip": "97206"
  },
  {
    "address": "901 SE Ash St",
    "city": "Dallas",
    "county": "Polk County",
    "created_at": "2012-01-04T20:16:56Z",
    "id": 19885,
    "latitude": "44.917297",
    "longitude": "-123.304855",
    "mascot": "Dragons",
    "name": "Dallas High School",
    "primary_color": "Black",
    "secondary_color": "Orange",
    "state": "OR",
    "timezone": "America/Los_Angeles",
    "updated_at": "2012-07-08T00:54:21Z",
    "zip": "97338"
  },
  {
    "address": "1530 Monmouth St",
    "city": "Independence",
    "county": "Polk County",
    "created_at": "2012-01-04T20:16:56Z",
    "id": 19886,
    "latitude": "44.851229",
    "longitude": "-123.209660",
    "mascot": "Panthers",
    "name": "Central High School",
    "primary_color": "Red",
    "secondary_color": "Black",
    "state": "OR",
    "timezone": "America/Los_Angeles",
    "updated_at": "2012-07-08T00:54:22Z",
    "zip": "97351"
  },
  {
    "address": "708 K Ave",
    "city": "La Grande",
    "county": "Union County",
    "created_at": "2012-01-04T20:16:56Z",
    "id": 19887,
    "latitude": "45.321162",
    "longitude": "-118.100403",
    "mascot": "Tigers",
    "name": "La Grande High School",
    "primary_color": "Royal",
    "secondary_color": "White",
    "state": "OR",
    "timezone": "America/Los_Angeles",
    "updated_at": "2012-07-08T00:54:22Z",
    "zip": "97850"
  },
  {
    "address": "220 E 10th St",
    "city": "The Dalles",
    "county": "Wasco County",
    "created_at": "2012-01-04T20:16:56Z",
    "id": 19888,
    "latitude": "45.596319",
    "longitude": "-121.186837",
    "mascot": "Indians",
    "name": "The Dalles Wahtonka Union High School",
    "primary_color": "Gray",
    "secondary_color": "Red",
    "state": "OR",
    "timezone": "America/Los_Angeles",
    "updated_at": "2012-07-08T00:54:22Z",
    "zip": "97058"
  },
  {
    "address": "203 N Platt St",
    "city": "Eagle Point",
    "county": "Jackson County",
    "created_at": "2012-01-04T20:16:56Z",
    "id": 19889,
    "latitude": "42.474285",
    "longitude": "-122.803038",
    "mascot": "Eagles",
    "name": "Eagle Point High School",
    "primary_color": "Gold",
    "secondary_color": "Royal",
    "state": "OR",
    "timezone": "America/Los_Angeles",
    "updated_at": "2012-07-08T00:54:22Z",
    "zip": "97524"
  },
  {
    "address": "500 E 4th St",
    "city": "Sutherlin",
    "county": "Douglas County",
    "created_at": "2012-01-04T20:16:56Z",
    "id": 19890,
    "latitude": "43.394400",
    "longitude": "-123.307247",
    "mascot": "Bulldogs",
    "name": "Sutherlin High School",
    "primary_color": "Royal",
    "secondary_color": "White",
    "state": "OR",
    "timezone": "America/Los_Angeles",
    "updated_at": "2012-07-08T00:54:23Z",
    "zip": "97479"
  },
  {
    "address": "250 E 1st St",
    "city": "Canyonville",
    "county": "Douglas County",
    "created_at": "2012-01-04T20:16:56Z",
    "id": 19891,
    "latitude": "42.928804",
    "longitude": "-123.277702",
    "mascot": "Pilots",
    "name": "Canyonville Christian Academy",
    "primary_color": "Gold",
    "secondary_color": "Royal",
    "state": "OR",
    "timezone": "America/Los_Angeles",
    "updated_at": "2012-07-08T00:54:23Z",
    "zip": "97417"
  },
  {
    "address": "4300 12th St",
    "city": "Tillamook",
    "county": "Tillamook County",
    "created_at": "2012-01-04T20:16:56Z",
    "id": 19892,
    "latitude": "45.448715",
    "longitude": "-123.815566",
    "mascot": "Tigers",
    "name": "Tillamook Adventist School",
    "primary_color": "Black",
    "secondary_color": "Teal",
    "state": "OR",
    "timezone": "America/Los_Angeles",
    "updated_at": "2012-07-08T00:54:23Z",
    "zip": "97141"
  },
  {
    "address": "5771 Fruitland Rd NE",
    "city": "Salem",
    "county": "Marion County",
    "created_at": "2012-01-04T20:16:56Z",
    "id": 19893,
    "latitude": "44.940788",
    "longitude": "-122.942673",
    "mascot": null,
    "name": "Livingstone Junior Academy",
    "primary_color": "Royal",
    "secondary_color": "White",
    "state": "OR",
    "timezone": "America/Los_Angeles",
    "updated_at": "2012-07-08T00:54:24Z",
    "zip": "97301"
  },
  {
    "address": "12425 NE San Rafael St",
    "city": "Portland",
    "county": "Multnomah County",
    "created_at": "2012-01-04T20:16:56Z",
    "id": 19894,
    "latitude": "45.537218",
    "longitude": "-122.535297",
    "mascot": "Royals",
    "name": "Portland Christian School",
    "primary_color": "Gold",
    "secondary_color": "Purple",
    "state": "OR",
    "timezone": "America/Los_Angeles",
    "updated_at": "2012-07-08T00:54:24Z",
    "zip": "97230"
  },
  {
    "address": "3121 SW Hailey",
    "city": "Pendleton",
    "county": "Umatilla County",
    "created_at": "2012-01-04T20:16:56Z",
    "id": 19895,
    "latitude": "45.657917",
    "longitude": "-118.817879",
    "mascot": null,
    "name": "Harris Junior Academy",
    "primary_color": "Royal",
    "secondary_color": "White",
    "state": "OR",
    "timezone": "America/Los_Angeles",
    "updated_at": "2012-07-08T00:54:24Z",
    "zip": "97801"
  },
  {
    "address": "21975 SW Baseline Rd",
    "city": "Hillsboro",
    "county": "Washington County",
    "created_at": "2012-01-04T20:16:56Z",
    "id": 19896,
    "latitude": "45.515893",
    "longitude": "-122.903105",
    "mascot": "Eagles",
    "name": "Tualatin Valley Junior Academy",
    "primary_color": "Royal",
    "secondary_color": "White",
    "state": "OR",
    "timezone": "America/Los_Angeles",
    "updated_at": "2012-07-08T00:54:24Z",
    "zip": "97123"
  },
  {
    "address": "47997 W 1st St",
    "city": "Oakridge",
    "county": "Lane County",
    "created_at": "2012-01-04T20:16:56Z",
    "id": 19897,
    "latitude": "43.748097",
    "longitude": "-122.467531",
    "mascot": "Indian Warriors",
    "name": "Oakridge High School",
    "primary_color": "Gold",
    "secondary_color": "Purple",
    "state": "OR",
    "timezone": "America/Los_Angeles",
    "updated_at": "2012-07-08T00:54:25Z",
    "zip": "97463"
  },
  {
    "address": "1825 W Highland Ave",
    "city": "Hermiston",
    "county": "Umatilla County",
    "created_at": "2012-01-04T20:16:56Z",
    "id": 19898,
    "latitude": "45.835325",
    "longitude": "-119.327116",
    "mascot": "Eagles",
    "name": "Hermiston Christian School",
    "primary_color": "Navy",
    "secondary_color": "White",
    "state": "OR",
    "timezone": "America/Los_Angeles",
    "updated_at": "2012-07-08T00:54:25Z",
    "zip": "97838"
  },
  {
    "address": "359 Roberts Creek Rd",
    "city": "Roseburg",
    "county": "Douglas County",
    "created_at": "2012-01-04T20:16:56Z",
    "id": 19899,
    "latitude": "43.142142",
    "longitude": "-123.379831",
    "mascot": "Monarchs",
    "name": "Umpqua Valley Christian School",
    "primary_color": "Gold",
    "secondary_color": "Purple",
    "state": "OR",
    "timezone": "America/Los_Angeles",
    "updated_at": "2012-07-08T00:54:25Z",
    "zip": "97470"
  },
  {
    "address": "9015 De Jong Rd",
    "city": "Sheridan",
    "county": "Polk County",
    "created_at": "2012-01-04T20:16:56Z",
    "id": 19900,
    "latitude": "45.065035",
    "longitude": "-123.321697",
    "mascot": null,
    "name": "West Valley Academy",
    "primary_color": "Maroon",
    "secondary_color": "White",
    "state": "OR",
    "timezone": "America/Los_Angeles",
    "updated_at": "2012-07-08T00:54:25Z",
    "zip": "97378"
  },
  {
    "address": "31498 S Fifth St",
    "city": "Lebanon",
    "county": "Linn County",
    "created_at": "2012-01-04T20:16:56Z",
    "id": 19901,
    "latitude": "44.504290",
    "longitude": "-122.915154",
    "mascot": "Eagles",
    "name": "East Linn Christian Academy",
    "primary_color": "Gray",
    "secondary_color": "Royal",
    "state": "OR",
    "timezone": "America/Los_Angeles",
    "updated_at": "2012-07-08T00:54:26Z",
    "zip": "97355"
  },
  {
    "address": "16975 S Hwy 211",
    "city": "Molalla",
    "county": "Clackamas County",
    "created_at": "2012-01-04T20:16:56Z",
    "id": 19902,
    "latitude": "45.171078",
    "longitude": "-122.517766",
    "mascot": "Cougars",
    "name": "The Country Christian School",
    "primary_color": "Gold",
    "secondary_color": "Royal",
    "state": "OR",
    "timezone": "America/Los_Angeles",
    "updated_at": "2012-07-08T00:54:26Z",
    "zip": "97038"
  },
  {
    "address": "3131 NE Diamond Lake Blvd",
    "city": "Roseburg",
    "county": "Douglas County",
    "created_at": "2012-01-04T20:16:56Z",
    "id": 19903,
    "latitude": "43.212972",
    "longitude": "-123.310402",
    "mascot": "Phoenix Birds",
    "name": "Phoenix School Of Roseburg",
    "primary_color": "Red",
    "secondary_color": "Black",
    "state": "OR",
    "timezone": "America/Los_Angeles",
    "updated_at": "2012-07-08T00:54:26Z",
    "zip": "97470"
  },
  {
    "address": "6460 Glen Echo",
    "city": "Gladstone",
    "county": "Clackamas County",
    "created_at": "2012-01-04T20:16:56Z",
    "id": 19904,
    "latitude": "45.390707",
    "longitude": "-122.597279",
    "mascot": "Eagles",
    "name": "Grace Christian School",
    "primary_color": "Navy",
    "secondary_color": "Gold",
    "state": "OR",
    "timezone": "America/Los_Angeles",
    "updated_at": "2012-07-08T00:54:27Z",
    "zip": "97027"
  },
  {
    "address": "160 Mill Creek Dr",
    "city": "Prospect",
    "county": "Jackson County",
    "created_at": "2012-01-04T20:16:56Z",
    "id": 19905,
    "latitude": "42.754669",
    "longitude": "-122.488602",
    "mascot": "Cougars",
    "name": "Prospect School",
    "primary_color": "Navy",
    "secondary_color": "White",
    "state": "OR",
    "timezone": "America/Los_Angeles",
    "updated_at": "2012-07-08T00:54:27Z",
    "zip": "97536"
  },
  {
    "address": "600 Gerome St",
    "city": "Echo",
    "county": "Umatilla County",
    "created_at": "2012-01-04T20:16:56Z",
    "id": 19906,
    "latitude": "45.740393",
    "longitude": "-119.190536",
    "mascot": "Cougars",
    "name": "Echo School",
    "primary_color": "Columbia Blue",
    "secondary_color": "White",
    "state": "OR",
    "timezone": "America/Los_Angeles",
    "updated_at": "2012-07-08T00:54:27Z",
    "zip": "97826"
  },
  {
    "address": "57566 Fort Rock Road",
    "city": "Silver Lake",
    "county": "Lake County",
    "created_at": "2012-01-04T20:16:56Z",
    "id": 19907,
    "latitude": "43.245117",
    "longitude": "-120.898314",
    "mascot": "Cowboys",
    "name": "North Lake School",
    "primary_color": "Red",
    "secondary_color": "Black",
    "state": "OR",
    "timezone": "America/Los_Angeles",
    "updated_at": "2012-07-08T00:54:27Z",
    "zip": "97638"
  },
  {
    "address": "1500 SE 96th Ave",
    "city": "Portland",
    "county": "Multnomah County",
    "created_at": "2012-01-04T20:16:56Z",
    "id": 19908,
    "latitude": "45.512420",
    "longitude": "-122.564248",
    "mascot": "Cougars",
    "name": "Portland Adventist Academy",
    "primary_color": "Navy",
    "secondary_color": "Gold",
    "state": "OR",
    "timezone": "America/Los_Angeles",
    "updated_at": "2012-07-08T00:54:27Z",
    "zip": "97216"
  },
  {
    "address": "High School Hill Road",
    "city": "Powers",
    "county": "Coos County",
    "created_at": "2012-01-04T20:16:56Z",
    "id": 19909,
    "latitude": "42.880090",
    "longitude": "-124.066912",
    "mascot": "Cruisers",
    "name": "Powers High School",
    "primary_color": "Orange",
    "secondary_color": "Black",
    "state": "OR",
    "timezone": "America/Los_Angeles",
    "updated_at": "2012-07-08T00:54:28Z",
    "zip": "97466"
  },
  {
    "address": "375 E Main St",
    "city": "Long Creek",
    "county": "Grant County",
    "created_at": "2012-01-04T20:16:56Z",
    "id": 19910,
    "latitude": "44.713744",
    "longitude": "-119.102612",
    "mascot": "Mountaineers",
    "name": "Long Creek School",
    "primary_color": "Red",
    "secondary_color": "White",
    "state": "OR",
    "timezone": "America/Los_Angeles",
    "updated_at": "2012-07-08T00:54:28Z",
    "zip": "97856"
  },
  {
    "address": "816 Black Oak Dr",
    "city": "Medford",
    "county": "Jackson County",
    "created_at": "2012-01-04T20:16:56Z",
    "id": 19911,
    "latitude": "42.313702",
    "longitude": "-122.835658",
    "mascot": "Crusaders",
    "name": "Saint Mary's School",
    "primary_color": "Navy",
    "secondary_color": "White",
    "state": "OR",
    "timezone": "America/Los_Angeles",
    "updated_at": "2012-07-08T00:54:28Z",
    "zip": "97504"
  },
  {
    "address": "1900 Kingsley Rd",
    "city": "Eugene",
    "county": "Lane County",
    "created_at": "2012-01-04T20:16:56Z",
    "id": 19912,
    "latitude": "44.085064",
    "longitude": "-123.114384",
    "mascot": "Spartans",
    "name": "Marist High School",
    "primary_color": "Navy",
    "secondary_color": "White",
    "state": "OR",
    "timezone": "America/Los_Angeles",
    "updated_at": "2012-07-08T00:54:29Z",
    "zip": "97401"
  },
  {
    "address": "550 W Regis St",
    "city": "Stayton",
    "county": "Marion County",
    "created_at": "2012-01-04T20:16:56Z",
    "id": 19913,
    "latitude": "44.807947",
    "longitude": "-122.798431",
    "mascot": "Rams",
    "name": "Regis High School",
    "primary_color": "Gold",
    "secondary_color": "Kelly Green",
    "state": "OR",
    "timezone": "America/Los_Angeles",
    "updated_at": "2012-07-08T00:54:29Z",
    "zip": "97383"
  },
  {
    "address": "2401 SE Stark St",
    "city": "Portland",
    "county": "Multnomah County",
    "created_at": "2012-01-04T20:16:56Z",
    "id": 19914,
    "latitude": "45.519328",
    "longitude": "-122.641250",
    "mascot": "Rams",
    "name": "Central Catholic High School",
    "primary_color": "Red",
    "secondary_color": "Gold",
    "state": "OR",
    "timezone": "America/Los_Angeles",
    "updated_at": "2012-07-08T00:54:29Z",
    "zip": "97214"
  },
  {
    "address": "1615 SW 5th Ave",
    "city": "Portland",
    "county": "Multnomah County",
    "created_at": "2012-01-04T20:16:56Z",
    "id": 19915,
    "latitude": "45.512400",
    "longitude": "-122.681044",
    "mascot": null,
    "name": "Saint Mary's Academy",
    "primary_color": "Royal",
    "secondary_color": "White",
    "state": "OR",
    "timezone": "America/Los_Angeles",
    "updated_at": "2012-07-08T00:54:30Z",
    "zip": "97201"
  },
  {
    "address": "9000 SW Beaverton Hillsdale Hwy",
    "city": "Portland",
    "county": "Washington County",
    "created_at": "2012-01-04T20:16:56Z",
    "id": 19916,
    "latitude": "45.486387",
    "longitude": "-122.769580",
    "mascot": "Crusaders",
    "name": "Jesuit High School",
    "primary_color": "Kelly Green",
    "secondary_color": "Gold",
    "state": "OR",
    "timezone": "America/Los_Angeles",
    "updated_at": "2012-07-08T00:54:30Z",
    "zip": "97225"
  },
  {
    "address": "4275 SW 148th Avenue",
    "city": "Beaverton",
    "county": "Washington County",
    "created_at": "2012-01-04T20:16:56Z",
    "id": 19917,
    "latitude": "45.488802",
    "longitude": "-122.828793",
    "mascot": "Valiants",
    "name": "Valley Catholic School",
    "primary_color": "Royal",
    "secondary_color": "White",
    "state": "OR",
    "timezone": "America/Los_Angeles",
    "updated_at": "2012-07-08T00:54:30Z",
    "zip": "97007"
  },
  {
    "address": "930 NE 162nd St",
    "city": "Portland",
    "county": "Multnomah County",
    "created_at": "2012-01-04T20:16:56Z",
    "id": 19918,
    "latitude": "45.529748",
    "longitude": "-122.496132",
    "mascot": "Wolibees",
    "name": "Wynne Watts School",
    "primary_color": "Royal",
    "secondary_color": "Black",
    "state": "OR",
    "timezone": "America/Los_Angeles",
    "updated_at": "2012-07-08T00:54:30Z",
    "zip": "97230"
  },
  {
    "address": "16535 SW Tualatin Valley",
    "city": "Beaverton",
    "county": "Washington County",
    "created_at": "2012-01-04T20:16:56Z",
    "id": 19919,
    "latitude": "45.491678",
    "longitude": "-122.846244",
    "mascot": "Bulldogs",
    "name": "Levi Anderson School",
    "primary_color": "Red",
    "secondary_color": "Black",
    "state": "OR",
    "timezone": "America/Los_Angeles",
    "updated_at": "2012-07-08T00:54:31Z",
    "zip": "97006"
  },
  {
    "address": "18 SW Boundry Ct",
    "city": "Portland",
    "county": "Multnomah County",
    "created_at": "2012-01-04T20:16:56Z",
    "id": 19920,
    "latitude": "45.484492",
    "longitude": "-122.677665",
    "mascot": null,
    "name": "Boys & Girls Aid / Johns Landing School",
    "primary_color": null,
    "secondary_color": null,
    "state": "OR",
    "timezone": "America/Los_Angeles",
    "updated_at": "2012-07-08T00:54:31Z",
    "zip": "97201"
  },
  {
    "address": "3400 SE 26th Ave Rm 120",
    "city": "Portland",
    "county": "Multnomah County",
    "created_at": "2012-01-04T20:16:56Z",
    "id": 19921,
    "latitude": "45.498510",
    "longitude": "-122.639606",
    "mascot": null,
    "name": "Clinton School",
    "primary_color": "Royal",
    "secondary_color": "White",
    "state": "OR",
    "timezone": "America/Los_Angeles",
    "updated_at": "2012-07-08T00:54:31Z",
    "zip": "97202"
  },
  {
    "address": "650 Hwy 7",
    "city": "Baker City",
    "county": "Baker County",
    "created_at": "2012-01-04T20:16:56Z",
    "id": 19922,
    "latitude": "44.765534",
    "longitude": "-117.836584",
    "mascot": "Knights",
    "name": "Agape Christian School",
    "primary_color": "Gray",
    "secondary_color": "Royal",
    "state": "OR",
    "timezone": "America/Los_Angeles",
    "updated_at": "2012-07-08T00:54:32Z",
    "zip": "97814"
  },
  {
    "address": "1947 College St",
    "city": "Philomath",
    "county": "Benton County",
    "created_at": "2012-01-04T20:16:56Z",
    "id": 19923,
    "latitude": "44.541009",
    "longitude": "-123.358126",
    "mascot": "Sentinels",
    "name": "Nazarene Christian School",
    "primary_color": "Royal",
    "secondary_color": "Gray",
    "state": "OR",
    "timezone": "America/Los_Angeles",
    "updated_at": "2012-07-08T00:54:32Z",
    "zip": "97370"
  },
  {
    "address": "5383 S Schneider Rd",
    "city": "Woodburn",
    "county": "Clackamas County",
    "created_at": "2012-01-04T20:16:56Z",
    "id": 19924,
    "latitude": "45.135400",
    "longitude": "-122.752788",
    "mascot": null,
    "name": "Elliott Prairie Christian School",
    "primary_color": null,
    "secondary_color": null,
    "state": "OR",
    "timezone": "America/Los_Angeles",
    "updated_at": "2012-07-08T00:54:32Z",
    "zip": "97071"
  },
  {
    "address": "21155 Tumalo Rd",
    "city": "Bend",
    "county": "Deschutes County",
    "created_at": "2012-01-04T20:16:56Z",
    "id": 19925,
    "latitude": "44.159431",
    "longitude": "-121.265109",
    "mascot": null,
    "name": "Three Sisters SDA School",
    "primary_color": "Royal",
    "secondary_color": "White",
    "state": "OR",
    "timezone": "America/Los_Angeles",
    "updated_at": "2012-07-08T00:54:32Z",
    "zip": "97701"
  },
  {
    "address": "66 SE H St",
    "city": "Madras",
    "county": "Jefferson County",
    "created_at": "2012-01-04T20:16:56Z",
    "id": 19926,
    "latitude": "44.627593",
    "longitude": "-121.128094",
    "mascot": null,
    "name": "Gibson SDA School",
    "primary_color": null,
    "secondary_color": null,
    "state": "OR",
    "timezone": "America/Los_Angeles",
    "updated_at": "2012-07-08T00:54:33Z",
    "zip": "97741"
  },
  {
    "address": "35582 Zephyr Way",
    "city": "Pleasant Hill",
    "county": "Lane County",
    "created_at": "2012-01-04T20:16:56Z",
    "id": 19927,
    "latitude": "43.979943",
    "longitude": "-122.949183",
    "mascot": "Roadrunners",
    "name": "Emerald Christian Academy",
    "primary_color": "Kelly Green",
    "secondary_color": "White",
    "state": "OR",
    "timezone": "America/Los_Angeles",
    "updated_at": "2012-07-08T00:54:33Z",
    "zip": "97455"
  },
  {
    "address": "8825 SW Barnes Rd",
    "city": "Portland",
    "county": "Washington County",
    "created_at": "2012-01-04T20:16:56Z",
    "id": 19928,
    "latitude": "45.508631",
    "longitude": "-122.767736",
    "mascot": "Eagles",
    "name": "Catlin Gabel School",
    "primary_color": "Royal",
    "secondary_color": "White",
    "state": "OR",
    "timezone": "America/Los_Angeles",
    "updated_at": "2012-07-08T00:54:33Z",
    "zip": "97225"
  },
  {
    "address": "3720 Birch St",
    "city": "Baker City",
    "county": "Baker County",
    "created_at": "2012-01-04T20:16:56Z",
    "id": 19929,
    "latitude": "44.792752",
    "longitude": "-117.814601",
    "mascot": "Knights",
    "name": "Baker Valley Christian School",
    "primary_color": "Gray",
    "secondary_color": "Royal",
    "state": "OR",
    "timezone": "America/Los_Angeles",
    "updated_at": "2012-07-08T00:54:34Z",
    "zip": "97814"
  },
  {
    "address": "PO Box 348",
    "city": "Oregon City",
    "county": "Clackamas County",
    "created_at": "2012-01-04T20:16:56Z",
    "id": 19930,
    "latitude": "45.352470",
    "longitude": "-122.597299",
    "mascot": null,
    "name": "Crossroads Alternative School",
    "primary_color": null,
    "secondary_color": null,
    "state": "OR",
    "timezone": "America/Los_Angeles",
    "updated_at": "2012-07-08T00:54:34Z",
    "zip": "97045"
  },
  {
    "address": "1905 N Maple",
    "city": "Canby",
    "county": "Clackamas County",
    "created_at": "2012-01-04T20:16:56Z",
    "id": 19931,
    "latitude": "45.277659",
    "longitude": "-122.686747",
    "mascot": null,
    "name": "First Baptist Church School",
    "primary_color": "Royal",
    "secondary_color": "Gray",
    "state": "OR",
    "timezone": "America/Los_Angeles",
    "updated_at": "2012-07-08T00:54:34Z",
    "zip": "97013"
  },
  {
    "address": "575 S. Main St",
    "city": "Coos Bay",
    "county": "Coos County",
    "created_at": "2012-01-04T20:16:56Z",
    "id": 19932,
    "latitude": "43.385260",
    "longitude": "-124.275792",
    "mascot": "Snarfs",
    "name": "Alternative Youth Activities Inc",
    "primary_color": "Kelly Green",
    "secondary_color": "Black",
    "state": "OR",
    "timezone": "America/Los_Angeles",
    "updated_at": "2012-07-08T00:54:34Z",
    "zip": "97420"
  },
  {
    "address": "48967 Hwy 101",
    "city": "Bandon",
    "county": "Coos County",
    "created_at": "2012-01-04T20:16:56Z",
    "id": 19933,
    "latitude": "43.066013",
    "longitude": "-124.415225",
    "mascot": "Eagles",
    "name": "Bandon Pacific Christian School",
    "primary_color": "Royal",
    "secondary_color": "White",
    "state": "OR",
    "timezone": "America/Los_Angeles",
    "updated_at": "2012-07-08T00:54:35Z",
    "zip": "97411"
  },
  {
    "address": "19741 Baker Rd",
    "city": "Bend",
    "county": "Deschutes County",
    "created_at": "2012-01-04T20:16:56Z",
    "id": 19934,
    "latitude": "43.992238",
    "longitude": "-121.337106",
    "mascot": "Eagles",
    "name": "Morning Star Christian School",
    "primary_color": "Gold",
    "secondary_color": "Royal",
    "state": "OR",
    "timezone": "America/Los_Angeles",
    "updated_at": "2012-07-08T00:54:35Z",
    "zip": "97702"
  },
  {
    "address": "750 NE Alameda",
    "city": "Roseburg",
    "county": "Douglas County",
    "created_at": "2012-01-04T20:16:56Z",
    "id": 19935,
    "latitude": "43.230694",
    "longitude": "-123.346122",
    "mascot": null,
    "name": "Christian Life Academy",
    "primary_color": "Navy",
    "secondary_color": "Hunter Green",
    "state": "OR",
    "timezone": "America/Los_Angeles",
    "updated_at": "2012-07-08T00:54:35Z",
    "zip": "97470"
  },
  {
    "address": "1100 22nd St",
    "city": "Hood River",
    "county": "Hood River County",
    "created_at": "2012-01-04T20:16:56Z",
    "id": 19936,
    "latitude": "45.702615",
    "longitude": "-121.534338",
    "mascot": "Mount Hoods",
    "name": "Mid Columbia Adventist School",
    "primary_color": "Navy",
    "secondary_color": "White",
    "state": "OR",
    "timezone": "America/Los_Angeles",
    "updated_at": "2012-07-08T00:54:36Z",
    "zip": "97031"
  },
  {
    "address": "1889 Belmont Dr",
    "city": "Hood River",
    "county": "Hood River County",
    "created_at": "2012-01-04T20:16:56Z",
    "id": 19937,
    "latitude": "45.699722",
    "longitude": "-121.532293",
    "mascot": "Bears",
    "name": "Horizon Christian School",
    "primary_color": "Navy",
    "secondary_color": "White",
    "state": "OR",
    "timezone": "America/Los_Angeles",
    "updated_at": "2012-07-08T00:54:36Z",
    "zip": "97031"
  },
  {
    "address": "3675 S Stage Rd",
    "city": "Medford",
    "county": "Jackson County",
    "created_at": "2012-01-04T20:16:56Z",
    "id": 19938,
    "latitude": "42.302132",
    "longitude": "-122.925175",
    "mascot": "Hawks",
    "name": "Rogue Valley Adventist School",
    "primary_color": "Maroon",
    "secondary_color": "White",
    "state": "OR",
    "timezone": "America/Los_Angeles",
    "updated_at": "2012-07-08T00:54:36Z",
    "zip": "97501"
  },
  {
    "address": "525 East E St",
    "city": "Jacksonville",
    "county": "Jackson County",
    "created_at": "2012-01-04T20:16:56Z",
    "id": 19939,
    "latitude": "42.315226",
    "longitude": "-122.963557",
    "mascot": "Challengers",
    "name": "Cascade Christian High School",
    "primary_color": "Gold",
    "secondary_color": "Purple",
    "state": "OR",
    "timezone": "America/Los_Angeles",
    "updated_at": "2012-07-08T00:54:36Z",
    "zip": "97530"
  },
  {
    "address": "2250 NW Heidi Ln",
    "city": "Grants Pass",
    "county": "Josephine County",
    "created_at": "2012-01-04T20:16:56Z",
    "id": 19940,
    "latitude": "42.465444",
    "longitude": "-123.330811",
    "mascot": null,
    "name": "Grants Pass SDA School",
    "primary_color": null,
    "secondary_color": null,
    "state": "OR",
    "timezone": "America/Los_Angeles",
    "updated_at": "2012-07-08T00:54:37Z",
    "zip": "97526"
  },
  {
    "address": "5961 New Hope Rd",
    "city": "Grants Pass",
    "county": "Josephine County",
    "created_at": "2012-01-04T20:16:56Z",
    "id": 19941,
    "latitude": "42.358803",
    "longitude": "-123.367065",
    "mascot": "Warriors",
    "name": "New Hope Christian School",
    "primary_color": "Red",
    "secondary_color": "White",
    "state": "OR",
    "timezone": "America/Los_Angeles",
    "updated_at": "2012-07-08T00:54:37Z",
    "zip": "97527"
  },
  {
    "address": "113 S Caves Ave",
    "city": "Cave Junction",
    "county": "Josephine County",
    "created_at": "2012-01-04T20:16:56Z",
    "id": 19942,
    "latitude": "42.166841",
    "longitude": "-123.645098",
    "mascot": "Lions",
    "name": "Community Christian Academy",
    "primary_color": "Royal",
    "secondary_color": "White",
    "state": "OR",
    "timezone": "America/Los_Angeles",
    "updated_at": "2012-07-08T00:54:37Z",
    "zip": "97523"
  },
  {
    "address": "233 SE Rogue River Hwy",
    "city": "Grants Pass",
    "county": "Josephine County",
    "created_at": "2012-01-04T20:16:56Z",
    "id": 19943,
    "latitude": "42.427001",
    "longitude": "-123.331386",
    "mascot": "Eagles",
    "name": "Josephine County Christian School",
    "primary_color": "Gold",
    "secondary_color": "Royal",
    "state": "OR",
    "timezone": "America/Los_Angeles",
    "updated_at": "2012-07-08T00:54:37Z",
    "zip": "97527"
  },
  {
    "address": "1515 Redwood Ave",
    "city": "Grants Pass",
    "county": "Josephine County",
    "created_at": "2012-01-04T20:16:56Z",
    "id": 19944,
    "latitude": "42.422416",
    "longitude": "-123.356779",
    "mascot": null,
    "name": "New Covenant Christian School",
    "primary_color": "Maroon",
    "secondary_color": "White",
    "state": "OR",
    "timezone": "America/Los_Angeles",
    "updated_at": "2012-07-08T00:54:38Z",
    "zip": "97527"
  },
  {
    "address": "5000 Hosanna Way",
    "city": "Klamath Falls",
    "county": "Klamath County",
    "created_at": "2012-01-04T20:16:56Z",
    "id": 19945,
    "latitude": "42.166340",
    "longitude": "-121.722761",
    "mascot": "Lions",
    "name": "Hosanna Christian Academy",
    "primary_color": "Teal",
    "secondary_color": "Black",
    "state": "OR",
    "timezone": "America/Los_Angeles",
    "updated_at": "2012-07-08T00:54:38Z",
    "zip": "97603"
  },
  {
    "address": "77820 Mosby Creek Rd",
    "city": "Cottage Grove",
    "county": "Lane County",
    "created_at": "2012-01-04T20:16:56Z",
    "id": 19946,
    "latitude": "43.774889",
    "longitude": "-122.999184",
    "mascot": "Cougars",
    "name": "South Lane Christian School",
    "primary_color": "Gold",
    "secondary_color": "Kelly Green",
    "state": "OR",
    "timezone": "America/Los_Angeles",
    "updated_at": "2012-07-08T00:54:38Z",
    "zip": "97424"
  },
  {
    "address": "2126 NE Surf Ave",
    "city": "Lincoln City",
    "county": "Lincoln County",
    "created_at": "2012-01-04T20:16:56Z",
    "id": 19947,
    "latitude": "44.980065",
    "longitude": "-124.002148",
    "mascot": "Eagles",
    "name": "Lincoln City SDA School",
    "primary_color": "Royal Blue",
    "secondary_color": "White",
    "state": "OR",
    "timezone": "America/Los_Angeles",
    "updated_at": "2012-07-08T00:54:39Z",
    "zip": "97367"
  },
  {
    "address": "6631 Logsden Rd",
    "city": "Logsden",
    "county": "Lincoln County",
    "created_at": "2012-01-04T20:16:56Z",
    "id": 19948,
    "latitude": "44.740890",
    "longitude": "-123.795399",
    "mascot": null,
    "name": "Logsden Christian School",
    "primary_color": "Royal",
    "secondary_color": "White",
    "state": "OR",
    "timezone": "America/Los_Angeles",
    "updated_at": "2012-07-08T00:54:39Z",
    "zip": "97357"
  },
  {
    "address": "26585 Peoria Rd",
    "city": "Halsey",
    "county": "Linn County",
    "created_at": "2012-01-04T20:16:56Z",
    "id": 19949,
    "latitude": "44.363199",
    "longitude": "-123.195287",
    "mascot": null,
    "name": "Lake Creek Mennonite School",
    "primary_color": null,
    "secondary_color": null,
    "state": "OR",
    "timezone": "America/Los_Angeles",
    "updated_at": "2012-07-08T00:54:39Z",
    "zip": "97348"
  },
  {
    "address": "31630 SE Hwy 34",
    "city": "Tangent",
    "county": "Linn County",
    "created_at": "2012-01-04T20:16:56Z",
    "id": 19950,
    "latitude": "44.560996",
    "longitude": "-123.124755",
    "mascot": null,
    "name": "Central Valley SDA School",
    "primary_color": "Royal",
    "secondary_color": "White",
    "state": "OR",
    "timezone": "America/Los_Angeles",
    "updated_at": "2012-07-08T00:54:39Z",
    "zip": "97389"
  },
  {
    "address": "35100 Goltra Rd SE",
    "city": "Albany",
    "county": "Linn County",
    "created_at": "2012-01-04T20:16:57Z",
    "id": 19951,
    "latitude": "44.599753",
    "longitude": "-123.008156",
    "mascot": "Falcons",
    "name": "Fairview Christian School",
    "primary_color": "Gray",
    "secondary_color": "Navy",
    "state": "OR",
    "timezone": "America/Los_Angeles",
    "updated_at": "2012-07-08T00:54:40Z",
    "zip": "97321"
  },
  {
    "address": "2900 S Main Rd",
    "city": "Lebanon",
    "county": "Linn County",
    "created_at": "2012-01-04T20:16:57Z",
    "id": 19952,
    "latitude": "44.516690",
    "longitude": "-122.907088",
    "mascot": "Panthers",
    "name": "Lebanon Christian School",
    "primary_color": "Red",
    "secondary_color": "Black",
    "state": "OR",
    "timezone": "America/Los_Angeles",
    "updated_at": "2012-07-08T00:54:40Z",
    "zip": "97355"
  },
  {
    "address": "942 Lancaster Dr NE",
    "city": "Salem",
    "county": "Marion County",
    "created_at": "2012-01-04T20:16:57Z",
    "id": 19953,
    "latitude": "44.942498",
    "longitude": "-122.983272",
    "mascot": "Crusaders",
    "name": "Salem Academy High School",
    "primary_color": "Kelly Green",
    "secondary_color": "White",
    "state": "OR",
    "timezone": "America/Los_Angeles",
    "updated_at": "2012-07-08T00:54:40Z",
    "zip": "97301"
  },
  {
    "address": "3030 Center St NE",
    "city": "Salem",
    "county": "Marion County",
    "created_at": "2012-01-04T20:16:57Z",
    "id": 19954,
    "latitude": "44.939852",
    "longitude": "-122.997748",
    "mascot": null,
    "name": "Marion Court School",
    "primary_color": null,
    "secondary_color": null,
    "state": "OR",
    "timezone": "America/Los_Angeles",
    "updated_at": "2012-07-08T00:54:40Z",
    "zip": "97301"
  },
  {
    "address": "9045 Wallace Rd NW",
    "city": "Salem",
    "county": "Polk County",
    "created_at": "2012-01-04T20:16:57Z",
    "id": 19955,
    "latitude": "45.065801",
    "longitude": "-123.074998",
    "mascot": "Pioneers",
    "name": "Western Mennonite High School",
    "primary_color": "Royal",
    "secondary_color": "White",
    "state": "OR",
    "timezone": "America/Los_Angeles",
    "updated_at": "2012-07-08T00:54:41Z",
    "zip": "97304"
  },
  {
    "address": "15002 Jefferson Hwy 99 E",
    "city": "Jefferson",
    "county": "Marion County",
    "created_at": "2012-01-04T20:16:57Z",
    "id": 19956,
    "latitude": "44.738052",
    "longitude": "-123.010281",
    "mascot": null,
    "name": "Jefferson Christian School",
    "primary_color": "Teal",
    "secondary_color": "Black",
    "state": "OR",
    "timezone": "America/Los_Angeles",
    "updated_at": "2012-07-08T00:54:41Z",
    "zip": "97352"
  },
  {
    "address": "3710 N Mississippi St",
    "city": "Portland",
    "county": "Multnomah County",
    "created_at": "2012-01-04T20:16:57Z",
    "id": 19957,
    "latitude": "45.549760",
    "longitude": "-122.675520",
    "mascot": null,
    "name": "Albina Youth Opportunity School",
    "primary_color": null,
    "secondary_color": null,
    "state": "OR",
    "timezone": "America/Los_Angeles",
    "updated_at": "2012-07-08T00:54:41Z",
    "zip": "97227"
  },
  {
    "address": "6651 SW Capitol Hwy",
    "city": "Portland",
    "county": "Multnomah County",
    "created_at": "2012-01-04T20:16:57Z",
    "id": 19958,
    "latitude": "45.476076",
    "longitude": "-122.703756",
    "mascot": null,
    "name": "Portland Jewish Academy",
    "primary_color": "Royal",
    "secondary_color": "White",
    "state": "OR",
    "timezone": "America/Los_Angeles",
    "updated_at": "2012-07-08T00:54:42Z",
    "zip": "97219"
  },
  {
    "address": "4905 Woodstock",
    "city": "Portland",
    "county": "Multnomah County",
    "created_at": "2012-01-04T20:16:57Z",
    "id": 19959,
    "latitude": "45.479188",
    "longitude": "-122.612256",
    "mascot": null,
    "name": "Lents Education Center",
    "primary_color": null,
    "secondary_color": null,
    "state": "OR",
    "timezone": "America/Los_Angeles",
    "updated_at": "2012-07-08T00:54:42Z",
    "zip": "97206"
  },
  {
    "address": "4565 Carman Dr SW",
    "city": "Lake Oswego",
    "county": "Clackamas County",
    "created_at": "2012-01-04T20:16:57Z",
    "id": 19960,
    "latitude": "45.419567",
    "longitude": "-122.723358",
    "mascot": "Eagles",
    "name": "Westside Christian School",
    "primary_color": "Black",
    "secondary_color": "Red",
    "state": "OR",
    "timezone": "America/Los_Angeles",
    "updated_at": "2012-07-08T00:54:42Z",
    "zip": "97035"
  },
  {
    "address": "740 SE 182nd Ave",
    "city": "Portland",
    "county": "Multnomah County",
    "created_at": "2012-01-04T20:16:57Z",
    "id": 19961,
    "latitude": "45.517435",
    "longitude": "-122.475768",
    "mascot": "Fighting Jays",
    "name": "Portland Lutheran School",
    "primary_color": "Royal",
    "secondary_color": "White",
    "state": "OR",
    "timezone": "America/Los_Angeles",
    "updated_at": "2012-07-08T00:54:42Z",
    "zip": "97233"
  },
  {
    "address": "27710 SE Strebin Rd",
    "city": "Troutdale",
    "county": "Multnomah County",
    "created_at": "2012-01-04T20:16:57Z",
    "id": 19962,
    "latitude": "45.506542",
    "longitude": "-122.376264",
    "mascot": "Huskies",
    "name": "Open Door Christian Academy",
    "primary_color": "Royal",
    "secondary_color": "White",
    "state": "OR",
    "timezone": "America/Los_Angeles",
    "updated_at": "2012-07-08T00:54:43Z",
    "zip": "97060"
  },
  {
    "address": "717 N Killingsworth Ct",
    "city": "Portland",
    "county": "Multnomah County",
    "created_at": "2012-01-04T20:16:57Z",
    "id": 19963,
    "latitude": "45.561873",
    "longitude": "-122.674182",
    "mascot": "Panthers",
    "name": "Portland Opportunities Center",
    "primary_color": "Gold",
    "secondary_color": "Royal",
    "state": "OR",
    "timezone": "America/Los_Angeles",
    "updated_at": "2012-07-08T00:54:43Z",
    "zip": "97217"
  },
  {
    "address": "Hwy 22",
    "city": "Independance",
    "county": "Polk County",
    "created_at": "2012-01-04T20:16:57Z",
    "id": 19964,
    "latitude": "44.932860",
    "longitude": "-123.148164",
    "mascot": "Panters",
    "name": "Eola School",
    "primary_color": "Red",
    "secondary_color": "Black",
    "state": "OR",
    "timezone": "America/Los_Angeles",
    "updated_at": "2012-07-08T00:54:43Z",
    "zip": "97351"
  },
  {
    "address": "2107 NW 21st Dr",
    "city": "Pendleton",
    "county": "Umatilla County",
    "created_at": "2012-01-04T20:16:57Z",
    "id": 19965,
    "latitude": "45.678652",
    "longitude": "-118.807252",
    "mascot": "Eagles",
    "name": "Lighthouse Christian Academy",
    "primary_color": "Royal",
    "secondary_color": "White",
    "state": "OR",
    "timezone": "America/Los_Angeles",
    "updated_at": "2012-07-08T00:54:44Z",
    "zip": "97801"
  },
  {
    "address": "6750 SW 198th Ave",
    "city": "Aloha",
    "county": "Washington County",
    "created_at": "2012-01-04T20:16:57Z",
    "id": 19966,
    "latitude": "45.471365",
    "longitude": "-122.881729",
    "mascot": null,
    "name": "Palace Of Praise Academy",
    "primary_color": "Royal",
    "secondary_color": "White",
    "state": "OR",
    "timezone": "America/Los_Angeles",
    "updated_at": "2012-07-08T00:54:44Z",
    "zip": "97007"
  },
  {
    "address": "16860 SW Blanton St",
    "city": "Aloha",
    "county": "Washington County",
    "created_at": "2012-01-04T20:16:57Z",
    "id": 19967,
    "latitude": "45.490376",
    "longitude": "-122.850654",
    "mascot": "Falcons",
    "name": "Faith Bible Christian School",
    "primary_color": "Royal",
    "secondary_color": "White",
    "state": "OR",
    "timezone": "America/Los_Angeles",
    "updated_at": "2012-07-08T00:54:44Z",
    "zip": "97007"
  },
  {
    "address": "11530 SW 72nd St",
    "city": "Portland",
    "county": "Washington County",
    "created_at": "2012-01-04T20:16:57Z",
    "id": 19968,
    "latitude": "45.436701",
    "longitude": "-122.751211",
    "mascot": null,
    "name": "Learning Skills Resource Center",
    "primary_color": null,
    "secondary_color": null,
    "state": "OR",
    "timezone": "America/Los_Angeles",
    "updated_at": "2012-07-08T00:54:44Z",
    "zip": "97223"
  },
  {
    "address": "20950 SW Rock Creek Rd",
    "city": "Sheridan",
    "county": "Yamhill County",
    "created_at": "2012-01-04T20:16:57Z",
    "id": 19969,
    "latitude": "45.108164",
    "longitude": "-123.429420",
    "mascot": "Delphi Dragons",
    "name": "Delphian School",
    "primary_color": "Kelly Green",
    "secondary_color": "White",
    "state": "OR",
    "timezone": "America/Los_Angeles",
    "updated_at": "2012-07-08T00:54:45Z",
    "zip": "97378"
  },
  {
    "address": "3700 Chemawa Rd NE",
    "city": "Salem",
    "county": "Marion County",
    "created_at": "2012-01-04T20:16:57Z",
    "id": 19970,
    "latitude": "45.004503",
    "longitude": "-122.984002",
    "mascot": "Braves",
    "name": "Chemawa BIA High School",
    "primary_color": "Red",
    "secondary_color": "Black",
    "state": "OR",
    "timezone": "America/Los_Angeles",
    "updated_at": "2012-07-08T00:54:45Z",
    "zip": "97305"
  },
  {
    "address": "Hwy 26",
    "city": "Unity",
    "county": "Baker County",
    "created_at": "2012-01-04T20:16:57Z",
    "id": 19971,
    "latitude": "44.448135",
    "longitude": "-118.193784",
    "mascot": "Bulls",
    "name": "Burnt River School",
    "primary_color": "Gold",
    "secondary_color": "Royal",
    "state": "OR",
    "timezone": "America/Los_Angeles",
    "updated_at": "2012-07-08T00:54:45Z",
    "zip": "97884"
  },
  {
    "address": "375A N Main St",
    "city": "Halfway",
    "county": "Baker County",
    "created_at": "2012-01-04T20:16:57Z",
    "id": 19972,
    "latitude": "44.882744",
    "longitude": "-117.114667",
    "mascot": "Spartans",
    "name": "Pine Eagle High School",
    "primary_color": "Red",
    "secondary_color": "White",
    "state": "OR",
    "timezone": "America/Los_Angeles",
    "updated_at": "2012-07-08T00:54:46Z",
    "zip": "97834"
  },
  {
    "address": "301 S 3rd",
    "city": "Alsea",
    "county": "Benton County",
    "created_at": "2012-01-04T20:16:57Z",
    "id": 19973,
    "latitude": "44.380948",
    "longitude": "-123.595511",
    "mascot": "Wolverines",
    "name": "Alsea School",
    "primary_color": "Royal",
    "secondary_color": "White",
    "state": "OR",
    "timezone": "America/Los_Angeles",
    "updated_at": "2012-07-08T00:54:46Z",
    "zip": "97324"
  },
  {
    "address": "4545 NE Hwy 20",
    "city": "Corvallis",
    "county": "Benton County",
    "created_at": "2012-01-04T20:16:57Z",
    "id": 19974,
    "latitude": "44.609499",
    "longitude": "-123.217048",
    "mascot": "Mustangs",
    "name": "Farm Home School",
    "primary_color": "Navy",
    "secondary_color": "White",
    "state": "OR",
    "timezone": "America/Los_Angeles",
    "updated_at": "2012-07-08T00:54:46Z",
    "zip": "97330"
  },
  {
    "address": "4444 NW Highland Dr",
    "city": "Corvallis",
    "county": "Benton County",
    "created_at": "2012-01-04T20:16:57Z",
    "id": 19975,
    "latitude": "44.615360",
    "longitude": "-123.262278",
    "mascot": "Raiders",
    "name": "Crescent Valley High School",
    "primary_color": "Gold",
    "secondary_color": "Red",
    "state": "OR",
    "timezone": "America/Los_Angeles",
    "updated_at": "2012-07-08T00:54:46Z",
    "zip": "97330"
  },
  {
    "address": "365 N 5th",
    "city": "Monroe",
    "county": "Benton County",
    "created_at": "2012-01-04T20:16:57Z",
    "id": 19976,
    "latitude": "44.318947",
    "longitude": "-123.298068",
    "mascot": "Dragons",
    "name": "Monroe Union High School",
    "primary_color": "Orange",
    "secondary_color": "Royal",
    "state": "OR",
    "timezone": "America/Los_Angeles",
    "updated_at": "2012-07-08T00:54:47Z",
    "zip": "97456"
  },
  {
    "address": "2054 Applegate St",
    "city": "Philomath",
    "county": "Benton County",
    "created_at": "2012-01-04T20:16:57Z",
    "id": 19977,
    "latitude": "44.538855",
    "longitude": "-123.356505",
    "mascot": "Warriors",
    "name": "Philomath High School",
    "primary_color": "Gold",
    "secondary_color": "Black",
    "state": "OR",
    "timezone": "America/Los_Angeles",
    "updated_at": "2012-07-08T00:54:47Z",
    "zip": "97370"
  },
  {
    "address": "355 NE 6th Ave",
    "city": "Estacada",
    "county": "Clackamas County",
    "created_at": "2012-01-04T20:16:57Z",
    "id": 19978,
    "latitude": "45.294349",
    "longitude": "-122.332159",
    "mascot": "Rangers",
    "name": "Estacada High School",
    "primary_color": "Kelly Green",
    "secondary_color": "White",
    "state": "OR",
    "timezone": "America/Los_Angeles",
    "updated_at": "2012-07-08T00:54:47Z",
    "zip": "97023"
  },
  {
    "address": "18800 Portland Ave",
    "city": "Gladstone",
    "county": "Clackamas County",
    "created_at": "2012-01-04T20:16:57Z",
    "id": 19979,
    "latitude": "45.387221",
    "longitude": "-122.599183",
    "mascot": "Gladiators",
    "name": "Gladstone High School",
    "primary_color": "Orange",
    "secondary_color": "Black",
    "state": "OR",
    "timezone": "America/Los_Angeles",
    "updated_at": "2012-07-08T00:54:47Z",
    "zip": "97027"
  },
  {
    "address": "357 Francis St",
    "city": "Molalla",
    "county": "Clackamas County",
    "created_at": "2012-01-04T20:16:57Z",
    "id": 19980,
    "latitude": "45.152446",
    "longitude": "-122.569628",
    "mascot": "Indians",
    "name": "Molalla Union High School",
    "primary_color": "Orange",
    "secondary_color": "Black",
    "state": "OR",
    "timezone": "America/Los_Angeles",
    "updated_at": "2012-07-08T00:54:48Z",
    "zip": "97038"
  },
  {
    "address": "17100 SE Bluff Rd",
    "city": "Sandy",
    "county": "Clackamas County",
    "created_at": "2012-01-04T20:16:57Z",
    "id": 19981,
    "latitude": "45.398703",
    "longitude": "-122.270451",
    "mascot": "Pioneers",
    "name": "Sandy High School",
    "primary_color": "Red",
    "secondary_color": "Black",
    "state": "OR",
    "timezone": "America/Los_Angeles",
    "updated_at": "2012-07-08T00:54:48Z",
    "zip": "97055"
  },
  {
    "address": "5464 W A St",
    "city": "West Linn",
    "county": "Clackamas County",
    "created_at": "2012-01-04T20:16:57Z",
    "id": 19982,
    "latitude": "45.363340",
    "longitude": "-122.614665",
    "mascot": "Lions",
    "name": "West Linn High School",
    "primary_color": "Gold",
    "secondary_color": "Kelly Green",
    "state": "OR",
    "timezone": "America/Los_Angeles",
    "updated_at": "2012-07-08T00:54:48Z",
    "zip": "97068"
  },
  {
    "address": "14486 SE 122nd Ave",
    "city": "Clackamas",
    "county": "Clackamas County",
    "created_at": "2012-01-04T20:16:57Z",
    "id": 19983,
    "latitude": "45.418173",
    "longitude": "-122.537993",
    "mascot": "Cavaliers",
    "name": "Clackamas High School",
    "primary_color": "Red",
    "secondary_color": "Black",
    "state": "OR",
    "timezone": "America/Los_Angeles",
    "updated_at": "2012-07-08T00:54:49Z",
    "zip": "97015"
  },
  {
    "address": "11300 SE 23rd Ave",
    "city": "Milwaukie",
    "county": "Clackamas County",
    "created_at": "2012-01-04T20:16:57Z",
    "id": 19984,
    "latitude": "45.442340",
    "longitude": "-122.638334",
    "mascot": "Mustangs",
    "name": "Milwaukie High School",
    "primary_color": "Gold",
    "secondary_color": "Maroon",
    "state": "OR",
    "timezone": "America/Los_Angeles",
    "updated_at": "2012-07-08T00:54:49Z",
    "zip": "97222"
  },
  {
    "address": "4950 SE Roethe Rd",
    "city": "Milwaukie",
    "county": "Clackamas County",
    "created_at": "2012-01-04T20:16:57Z",
    "id": 19985,
    "latitude": "45.402312",
    "longitude": "-122.611811",
    "mascot": "Kingsmen",
    "name": "Rex Putnam High School",
    "primary_color": "Gold",
    "secondary_color": "Hunter Green",
    "state": "OR",
    "timezone": "America/Los_Angeles",
    "updated_at": "2012-07-08T00:54:49Z",
    "zip": "97267"
  },
  {
    "address": "1001 W Marine Dr",
    "city": "Astoria",
    "county": "Clatsop County",
    "created_at": "2012-01-04T20:16:57Z",
    "id": 19986,
    "latitude": "46.174534",
    "longitude": "-123.847697",
    "mascot": "Fishermen",
    "name": "Astoria High School",
    "primary_color": "Gold",
    "secondary_color": "Purple",
    "state": "OR",
    "timezone": "America/Los_Angeles",
    "updated_at": "2012-07-08T00:54:49Z",
    "zip": "97103"
  },
  {
    "address": "83874 Hwy 103",
    "city": "Seaside",
    "county": "Clatsop County",
    "created_at": "2012-01-04T20:16:57Z",
    "id": 19987,
    "latitude": "45.930222",
    "longitude": "-123.498247",
    "mascot": "Blue Jays",
    "name": "Jewell School",
    "primary_color": "Gold",
    "secondary_color": "Royal",
    "state": "OR",
    "timezone": "America/Los_Angeles",
    "updated_at": "2012-07-08T00:54:49Z",
    "zip": "97138"
  },
  {
    "address": "1901 N Holladay Dr",
    "city": "Seaside",
    "county": "Clatsop County",
    "created_at": "2012-01-04T20:16:57Z",
    "id": 19988,
    "latitude": "46.007128",
    "longitude": "-123.917781",
    "mascot": "Seagulls",
    "name": "Seaside High School",
    "primary_color": "Red",
    "secondary_color": "White",
    "state": "OR",
    "timezone": "America/Los_Angeles",
    "updated_at": "2012-07-08T00:54:50Z",
    "zip": "97138"
  },
  {
    "address": "1700 SE Main St",
    "city": "Warrenton",
    "county": "Clatsop County",
    "created_at": "2012-01-04T20:16:57Z",
    "id": 19989,
    "latitude": "46.147766",
    "longitude": "-123.928750",
    "mascot": "Warriors",
    "name": "Warrenton High School",
    "primary_color": "Purple",
    "secondary_color": "White",
    "state": "OR",
    "timezone": "America/Los_Angeles",
    "updated_at": "2012-07-08T00:54:50Z",
    "zip": "97146"
  },
  {
    "address": "117 SW Billair Dr",
    "city": "Clatskanie",
    "county": "Columbia County",
    "created_at": "2012-01-04T20:16:57Z",
    "id": 19990,
    "latitude": "46.104835",
    "longitude": "-123.206836",
    "mascot": "Tigers",
    "name": "Clatskanie Junior Senior High School",
    "primary_color": "Red",
    "secondary_color": "White",
    "state": "OR",
    "timezone": "America/Los_Angeles",
    "updated_at": "2012-07-08T00:54:51Z",
    "zip": "97016"
  },
  {
    "address": "41535 Old Hwy 30",
    "city": "Astoria",
    "county": "Clatsop County",
    "created_at": "2012-01-04T20:16:57Z",
    "id": 19991,
    "latitude": "46.161247",
    "longitude": "-123.622412",
    "mascot": "Loggers",
    "name": "Knappa High School",
    "primary_color": "Gold",
    "secondary_color": "Royal",
    "state": "OR",
    "timezone": "America/Los_Angeles",
    "updated_at": "2012-07-08T00:54:51Z",
    "zip": "97103"
  },
  {
    "address": "471 SW Belair Dr",
    "city": "Clatskanie",
    "county": "Columbia County",
    "created_at": "2012-01-04T20:16:57Z",
    "id": 19992,
    "latitude": "46.104520",
    "longitude": "-123.209671",
    "mascot": "Tigers",
    "name": "Clatskanie Middle High School",
    "primary_color": "Red",
    "secondary_color": "Black",
    "state": "OR",
    "timezone": "America/Los_Angeles",
    "updated_at": "2012-07-08T00:54:51Z",
    "zip": "97016"
  },
  {
    "address": "28170 Old Rainier Rd",
    "city": "Rainier",
    "county": "Columbia County",
    "created_at": "2012-01-04T20:16:57Z",
    "id": 19993,
    "latitude": "46.094153",
    "longitude": "-122.986255",
    "mascot": "Columbians",
    "name": "Rainier Junior Senior High School",
    "primary_color": "Kelly Green",
    "secondary_color": "White",
    "state": "OR",
    "timezone": "America/Los_Angeles",
    "updated_at": "2012-07-08T00:54:51Z",
    "zip": "97048"
  },
  {
    "address": "2375 Gable Rd",
    "city": "Saint Helens",
    "county": "Columbia County",
    "created_at": "2012-01-04T20:16:57Z",
    "id": 19994,
    "latitude": "45.849956",
    "longitude": "-122.833940",
    "mascot": "Lions",
    "name": "Saint Helens High School",
    "primary_color": "Yellow",
    "secondary_color": "Black",
    "state": "OR",
    "timezone": "America/Los_Angeles",
    "updated_at": "2012-07-08T00:54:52Z",
    "zip": "97051"
  },
  {
    "address": "299 Bridge St",
    "city": "Vernonia",
    "county": "Columbia County",
    "created_at": "2012-01-04T20:16:57Z",
    "id": 19995,
    "latitude": "45.858763",
    "longitude": "-123.188360",
    "mascot": "Loggers",
    "name": "Vernonia High School",
    "primary_color": "Royal",
    "secondary_color": "Gold",
    "state": "OR",
    "timezone": "America/Los_Angeles",
    "updated_at": "2012-07-08T00:54:52Z",
    "zip": "97064"
  },
  {
    "address": "550 9th St SW",
    "city": "Bandon",
    "county": "Coos County",
    "created_at": "2012-01-04T20:16:57Z",
    "id": 19996,
    "latitude": "43.115154",
    "longitude": "-124.420317",
    "mascot": "Tigers",
    "name": "Bandon High School",
    "primary_color": "Gold",
    "secondary_color": "Black",
    "state": "OR",
    "timezone": "America/Los_Angeles",
    "updated_at": "2012-07-08T00:54:52Z",
    "zip": "97411"
  },
  {
    "address": "499 W Central Blvd",
    "city": "Coquille",
    "county": "Coos County",
    "created_at": "2012-01-04T20:16:57Z",
    "id": 19997,
    "latitude": "43.186553",
    "longitude": "-124.194041",
    "mascot": "Red Devils",
    "name": "Coquille High School",
    "primary_color": "Red",
    "secondary_color": "White",
    "state": "OR",
    "timezone": "America/Los_Angeles",
    "updated_at": "2012-07-08T00:54:52Z",
    "zip": "97423"
  },
  {
    "address": "1100 SE Lynn Blvd",
    "city": "Prineville",
    "county": "Crook County",
    "created_at": "2012-01-04T20:16:57Z",
    "id": 19998,
    "latitude": "44.294331",
    "longitude": "-120.835232",
    "mascot": "Cowboys",
    "name": "Crook County High School",
    "primary_color": "Gold",
    "secondary_color": "Royal",
    "state": "OR",
    "timezone": "America/Los_Angeles",
    "updated_at": "2012-07-08T00:54:53Z",
    "zip": "97754"
  },
  {
    "address": "629 Easy Street",
    "city": "Brookings",
    "county": "Curry County",
    "created_at": "2012-01-04T20:16:57Z",
    "id": 19999,
    "latitude": "42.058497",
    "longitude": "-124.280873",
    "mascot": "Bears",
    "name": "Brookings Harbor High School",
    "primary_color": "Gold",
    "secondary_color": "Royal",
    "state": "OR",
    "timezone": "America/Los_Angeles",
    "updated_at": "2012-07-08T00:54:53Z",
    "zip": "97415"
  },
  {
    "address": "29516 Ellensburg Ave",
    "city": "Gold Beach",
    "county": "Curry County",
    "created_at": "2012-01-04T20:16:57Z",
    "id": 20000,
    "latitude": "42.408519",
    "longitude": "-124.420785",
    "mascot": "Panthers",
    "name": "Gold Beach High School",
    "primary_color": "Kelly Green",
    "secondary_color": "Black",
    "state": "OR",
    "timezone": "America/Los_Angeles",
    "updated_at": "2012-07-08T00:54:53Z",
    "zip": "97444"
  },
  {
    "address": "45525 Hwy 101",
    "city": "Port Orford",
    "county": "Curry County",
    "created_at": "2012-01-04T20:16:57Z",
    "id": 20001,
    "latitude": "42.806570",
    "longitude": "-124.484419",
    "mascot": "Pirates",
    "name": "Pacific High School",
    "primary_color": "Purple",
    "secondary_color": "White",
    "state": "OR",
    "timezone": "America/Los_Angeles",
    "updated_at": "2012-07-08T00:54:54Z",
    "zip": "97465"
  },
  {
    "address": "230 NE 6th St",
    "city": "Bend",
    "county": "Deschutes County",
    "created_at": "2012-01-04T20:16:57Z",
    "id": 20002,
    "latitude": "44.052630",
    "longitude": "-121.297171",
    "mascot": "Lava Bears",
    "name": "Bend Senior High School",
    "primary_color": "Gold",
    "secondary_color": "Navy",
    "state": "OR",
    "timezone": "America/Los_Angeles",
    "updated_at": "2012-07-08T00:54:54Z",
    "zip": "97701"
  },
  {
    "address": "2755 NE 27th St",
    "city": "Bend",
    "county": "Deschutes County",
    "created_at": "2012-01-04T20:16:57Z",
    "id": 20003,
    "latitude": "44.078216",
    "longitude": "-121.263757",
    "mascot": "Cougars",
    "name": "Mountain View High School",
    "primary_color": "Red",
    "secondary_color": "Black",
    "state": "OR",
    "timezone": "America/Los_Angeles",
    "updated_at": "2012-07-08T00:54:54Z",
    "zip": "97701"
  },
  {
    "address": "51633 Coach Rd",
    "city": "La Pine",
    "county": "Deschutes County",
    "created_at": "2012-01-04T20:16:57Z",
    "id": 20004,
    "latitude": "43.677014",
    "longitude": "-121.505547",
    "mascot": "Hawks",
    "name": "La Pine High School",
    "primary_color": "Gold",
    "secondary_color": "Navy",
    "state": "OR",
    "timezone": "America/Los_Angeles",
    "updated_at": "2012-07-08T00:54:54Z",
    "zip": "97739"
  },
  {
    "address": "197 Main Camas Rd",
    "city": "Camas Valley",
    "county": "Douglas County",
    "created_at": "2012-01-04T20:16:57Z",
    "id": 20005,
    "latitude": "43.034012",
    "longitude": "-123.675116",
    "mascot": "Hornets",
    "name": "Camas Valley School",
    "primary_color": "Gold",
    "secondary_color": "Black",
    "state": "OR",
    "timezone": "America/Los_Angeles",
    "updated_at": "2012-07-08T00:54:54Z",
    "zip": "97416"
  },
  {
    "address": "11381 Tiller Trail Hwy",
    "city": "Days Creek",
    "county": "Douglas County",
    "created_at": "2012-01-04T20:16:57Z",
    "id": 20006,
    "latitude": "42.969687",
    "longitude": "-123.162937",
    "mascot": "Wolves",
    "name": "Days Creek Middle School",
    "primary_color": "Red",
    "secondary_color": "White",
    "state": "OR",
    "timezone": "America/Los_Angeles",
    "updated_at": "2012-07-08T00:54:55Z",
    "zip": "97429"
  },
  {
    "address": "305 S Maine St",
    "city": "Drain",
    "county": "Douglas County",
    "created_at": "2012-01-04T20:16:57Z",
    "id": 20007,
    "latitude": "43.659981",
    "longitude": "-123.311950",
    "mascot": "Willie Warriors",
    "name": "North Douglas High School",
    "primary_color": "Red",
    "secondary_color": "White",
    "state": "OR",
    "timezone": "America/Los_Angeles",
    "updated_at": "2012-07-08T00:54:55Z",
    "zip": "97435"
  },
  {
    "address": "739 River Drive",
    "city": "Elkton",
    "county": "Douglas County",
    "created_at": "2012-01-04T20:16:57Z",
    "id": 20008,
    "latitude": "43.637513",
    "longitude": "-123.570543",
    "mascot": "Elks",
    "name": "Elkton High School",
    "primary_color": "Red",
    "secondary_color": "White",
    "state": "OR",
    "timezone": "America/Los_Angeles",
    "updated_at": "2012-07-08T00:54:55Z",
    "zip": "97436"
  },
  {
    "address": "10598 Azalea Glen Rd",
    "city": "Glendale",
    "county": "Douglas County",
    "created_at": "2012-01-04T20:16:57Z",
    "id": 20009,
    "latitude": "42.743270",
    "longitude": "-123.415162",
    "mascot": "Pirates",
    "name": "Glendale Junior Senior High School",
    "primary_color": "Red",
    "secondary_color": "White",
    "state": "OR",
    "timezone": "America/Los_Angeles",
    "updated_at": "2012-07-08T00:54:56Z",
    "zip": "97442"
  },
  {
    "address": "18990 N Umpqua Hwy",
    "city": "Glide",
    "county": "Douglas County",
    "created_at": "2012-01-04T20:16:57Z",
    "id": 20010,
    "latitude": "43.298260",
    "longitude": "-123.098049",
    "mascot": "Wildcats",
    "name": "Glide High School",
    "primary_color": "Gold",
    "secondary_color": "Royal",
    "state": "OR",
    "timezone": "America/Los_Angeles",
    "updated_at": "2012-07-08T00:54:56Z",
    "zip": "97443"
  },
  {
    "address": "521 NE Spruce Street",
    "city": "Oakland",
    "county": "Douglas County",
    "created_at": "2012-01-04T20:16:57Z",
    "id": 20011,
    "latitude": "43.427321",
    "longitude": "-123.299459",
    "mascot": "Mighty Oakers",
    "name": "Oakland High School",
    "primary_color": "Gold",
    "secondary_color": "Royal",
    "state": "OR",
    "timezone": "America/Los_Angeles",
    "updated_at": "2012-07-08T00:54:56Z",
    "zip": "97462"
  },
  {
    "address": "147 S. Main Street ",
    "city": "Riddle",
    "county": "Douglas County",
    "created_at": "2012-01-04T20:16:57Z",
    "id": 20012,
    "latitude": "42.948998",
    "longitude": "-123.364490",
    "mascot": "Leprechauns",
    "name": "Riddle Junior Senior High School",
    "primary_color": "Kelly Green",
    "secondary_color": "White",
    "state": "OR",
    "timezone": "America/Los_Angeles",
    "updated_at": "2012-07-08T00:54:56Z",
    "zip": "97469"
  },
  {
    "address": "292 5th Ave",
    "city": "Yoncalla",
    "county": "Douglas County",
    "created_at": "2012-01-04T20:16:57Z",
    "id": 20013,
    "latitude": "43.595848",
    "longitude": "-123.283834",
    "mascot": "Eagles",
    "name": "Yoncalla High School",
    "primary_color": "Gold",
    "secondary_color": "Navy",
    "state": "OR",
    "timezone": "America/Los_Angeles",
    "updated_at": "2012-07-08T00:54:57Z",
    "zip": "97499"
  },
  {
    "address": "501 NW Chadwick Ln",
    "city": "Myrtle Creek",
    "county": "Douglas County",
    "created_at": "2012-01-04T20:16:57Z",
    "id": 20014,
    "latitude": "42.985641",
    "longitude": "-123.328819",
    "mascot": "Lancers",
    "name": "South Umpqua High School",
    "primary_color": "Gold",
    "secondary_color": "Black",
    "state": "OR",
    "timezone": "America/Los_Angeles",
    "updated_at": "2012-07-08T00:54:57Z",
    "zip": "97457"
  },
  {
    "address": "1200 Main St",
    "city": "Arlington",
    "county": "Gilliam County",
    "created_at": "2012-01-04T20:16:57Z",
    "id": 20015,
    "latitude": "45.712900",
    "longitude": "-120.200709",
    "mascot": "Honkers",
    "name": "Arlington High School",
    "primary_color": "Royal",
    "secondary_color": "Gold",
    "state": "OR",
    "timezone": "America/Los_Angeles",
    "updated_at": "2012-07-08T00:54:57Z",
    "zip": "97812"
  },
  {
    "address": "210 E Bayard",
    "city": "Condon",
    "county": "Gilliam County",
    "created_at": "2012-01-04T20:16:57Z",
    "id": 20016,
    "latitude": "45.232282",
    "longitude": "-120.183599",
    "mascot": "Blue Devils",
    "name": "Condon High School",
    "primary_color": "Red",
    "secondary_color": "Royal",
    "state": "OR",
    "timezone": "America/Los_Angeles",
    "updated_at": "2012-07-08T00:54:58Z",
    "zip": "97823"
  },
  {
    "address": "1 Old School Rd",
    "city": "Dayville",
    "county": "Grant County",
    "created_at": "2012-01-04T20:16:57Z",
    "id": 20017,
    "latitude": "44.466031",
    "longitude": "-119.529758",
    "mascot": "MD Tigers",
    "name": "Dayville School District",
    "primary_color": "Orange",
    "secondary_color": "Kelly Green",
    "state": "OR",
    "timezone": "America/Los_Angeles",
    "updated_at": "2012-07-08T00:54:58Z",
    "zip": "97825"
  },
  {
    "address": "911 S Canyon Blvd",
    "city": "John Day",
    "county": "Grant County",
    "created_at": "2012-01-04T20:16:57Z",
    "id": 20018,
    "latitude": "44.405374",
    "longitude": "-118.947898",
    "mascot": "Prospectors",
    "name": "Grant Union High School",
    "primary_color": "Red",
    "secondary_color": "Black",
    "state": "OR",
    "timezone": "America/Los_Angeles",
    "updated_at": "2012-07-08T00:54:58Z",
    "zip": "97845"
  },
  {
    "address": "740 Overholt St",
    "city": "Prairie City",
    "county": "Grant County",
    "created_at": "2012-01-04T20:16:57Z",
    "id": 20019,
    "latitude": "44.456232",
    "longitude": "-118.708439",
    "mascot": "Panthers",
    "name": "Prairie City School",
    "primary_color": "Orange",
    "secondary_color": "Black",
    "state": "OR",
    "timezone": "America/Los_Angeles",
    "updated_at": "2012-07-08T00:54:59Z",
    "zip": "97869"
  },
  {
    "address": "1100 Oregon Ave",
    "city": "Burns",
    "county": "Harney County",
    "created_at": "2012-01-04T20:16:57Z",
    "id": 20020,
    "latitude": "43.576393",
    "longitude": "-119.072544",
    "mascot": "Hilanders",
    "name": "Burns High School",
    "primary_color": "Gold",
    "secondary_color": "Purple",
    "state": "OR",
    "timezone": "America/Los_Angeles",
    "updated_at": "2012-07-08T00:54:59Z",
    "zip": "97720"
  },
  {
    "address": "5th & Donaldson",
    "city": "Crane",
    "county": "Harney County",
    "created_at": "2012-01-04T20:16:57Z",
    "id": 20021,
    "latitude": "43.415081",
    "longitude": "-118.578407",
    "mascot": "Mustangs",
    "name": "Crane Union High School",
    "primary_color": "Royal",
    "secondary_color": "White",
    "state": "OR",
    "timezone": "America/Los_Angeles",
    "updated_at": "2012-07-08T00:54:59Z",
    "zip": "97732"
  },
  {
    "address": "300 Wanapa",
    "city": "Cascade Locks",
    "county": "Hood River County",
    "created_at": "2012-01-04T20:16:57Z",
    "id": 20022,
    "latitude": "45.668811",
    "longitude": "-121.893118",
    "mascot": "Pirates",
    "name": "Cascade Locks School",
    "primary_color": "Gold",
    "secondary_color": "Royal",
    "state": "OR",
    "timezone": "America/Los_Angeles",
    "updated_at": "2012-07-08T00:54:59Z",
    "zip": "97014"
  },
  {
    "address": "1220 Indian Creek Rd",
    "city": "Hood River",
    "county": "Hood River County",
    "created_at": "2012-01-04T20:16:57Z",
    "id": 20023,
    "latitude": "45.685820",
    "longitude": "-121.543238",
    "mascot": "Eagles",
    "name": "Hood River Valley High School",
    "primary_color": "Gold",
    "secondary_color": "Navy",
    "state": "OR",
    "timezone": "America/Los_Angeles",
    "updated_at": "2012-07-08T00:55:00Z",
    "zip": "97031"
  },
  {
    "address": "201 S Mountain Ave",
    "city": "Ashland",
    "county": "Jackson County",
    "created_at": "2012-01-04T20:16:57Z",
    "id": 20024,
    "latitude": "42.190300",
    "longitude": "-122.699258",
    "mascot": "Grizzlies",
    "name": "Ashland High School",
    "primary_color": "Red",
    "secondary_color": "White",
    "state": "OR",
    "timezone": "America/Los_Angeles",
    "updated_at": "2012-07-08T00:55:00Z",
    "zip": "97520"
  },
  {
    "address": "720 Laurel Ave",
    "city": "Butte Falls",
    "county": "Jackson County",
    "created_at": "2012-01-04T20:16:57Z",
    "id": 20025,
    "latitude": "42.541188",
    "longitude": "-122.564560",
    "mascot": "Loggers",
    "name": "Butte Falls High School",
    "primary_color": "Kelly Green",
    "secondary_color": "White",
    "state": "OR",
    "timezone": "America/Los_Angeles",
    "updated_at": "2012-07-08T00:55:00Z",
    "zip": "97522"
  },
  {
    "address": "745 N Rose St",
    "city": "Phoenix",
    "county": "Jackson County",
    "created_at": "2012-01-04T20:16:57Z",
    "id": 20026,
    "latitude": "42.276978",
    "longitude": "-122.823813",
    "mascot": "Pirates",
    "name": "Phoenix High School",
    "primary_color": "Red",
    "secondary_color": "Royal",
    "state": "OR",
    "timezone": "America/Los_Angeles",
    "updated_at": "2012-07-08T00:55:00Z",
    "zip": "97535"
  },
  {
    "address": "160 Mill Crk",
    "city": "Prospect",
    "county": "Jackson County",
    "created_at": "2012-01-04T20:16:57Z",
    "id": 20027,
    "latitude": "42.754669",
    "longitude": "-122.488602",
    "mascot": "Cougars",
    "name": "Prospect High School",
    "primary_color": "Navy",
    "secondary_color": "White",
    "state": "OR",
    "timezone": "America/Los_Angeles",
    "updated_at": "2012-07-08T00:55:01Z",
    "zip": "97536"
  },
  {
    "address": "PO Box 1045",
    "city": "Rogue River",
    "county": "Jackson County",
    "created_at": "2012-01-04T20:16:57Z",
    "id": 20028,
    "latitude": "42.595554",
    "longitude": "-123.135017",
    "mascot": "Chieftains",
    "name": "Rogue River High School",
    "primary_color": "Gold",
    "secondary_color": "Hunter Green",
    "state": "OR",
    "timezone": "America/Los_Angeles",
    "updated_at": "2012-07-08T00:55:01Z",
    "zip": "97537"
  },
  {
    "address": "625 E River St",
    "city": "Cave Junction",
    "county": "Josephine County",
    "created_at": "2012-01-04T20:16:57Z",
    "id": 20029,
    "latitude": "42.168354",
    "longitude": "-123.632461",
    "mascot": "Cougars",
    "name": "Illinois Valley High School",
    "primary_color": "Red",
    "secondary_color": "Black",
    "state": "OR",
    "timezone": "America/Los_Angeles",
    "updated_at": "2012-07-08T00:55:01Z",
    "zip": "97523"
  },
  {
    "address": "31601 Mission St",
    "city": "Bonanza",
    "county": "Klamath County",
    "created_at": "2012-01-04T20:16:57Z",
    "id": 20030,
    "latitude": "42.199536",
    "longitude": "-121.406369",
    "mascot": "Antlers",
    "name": "Bonanza School",
    "primary_color": "Red",
    "secondary_color": "White",
    "state": "OR",
    "timezone": "America/Los_Angeles",
    "updated_at": "2012-07-08T00:55:02Z",
    "zip": "97623"
  },
  {
    "address": "300 Elm St",
    "city": "Chiloquin",
    "county": "Klamath County",
    "created_at": "2012-01-04T20:16:57Z",
    "id": 20031,
    "latitude": "42.568510",
    "longitude": "-121.860419",
    "mascot": "Panthers",
    "name": "Chiloquin Junior Senior High School",
    "primary_color": "Columbia Blue",
    "secondary_color": "White",
    "state": "OR",
    "timezone": "America/Los_Angeles",
    "updated_at": "2012-07-08T00:55:02Z",
    "zip": "97624"
  },
  {
    "address": "23330 Hwy 50",
    "city": "Merrill",
    "county": "Klamath County",
    "created_at": "2012-01-04T20:16:58Z",
    "id": 20032,
    "latitude": "42.016912",
    "longitude": "-121.503267",
    "mascot": "Raiders",
    "name": "Lost River Junior Senior High School",
    "primary_color": "Gold",
    "secondary_color": "Black",
    "state": "OR",
    "timezone": "America/Los_Angeles",
    "updated_at": "2012-07-08T00:55:02Z",
    "zip": "97633"
  },
  {
    "address": "906 S 3rd St",
    "city": "Lakeview",
    "county": "Lake County",
    "created_at": "2012-01-04T20:16:58Z",
    "id": 20033,
    "latitude": "42.185847",
    "longitude": "-120.350205",
    "mascot": "Honkers",
    "name": "Lakeview High School",
    "primary_color": "Gold",
    "secondary_color": "Navy",
    "state": "OR",
    "timezone": "America/Los_Angeles",
    "updated_at": "2012-07-08T00:55:02Z",
    "zip": "97630"
  },
  {
    "address": "260 Green St",
    "city": "Paisley",
    "county": "Lake County",
    "created_at": "2012-01-04T20:16:58Z",
    "id": 20034,
    "latitude": "42.693665",
    "longitude": "-120.543330",
    "mascot": "Broncos",
    "name": "Paisley Charter School",
    "primary_color": "Maroon",
    "secondary_color": "White",
    "state": "OR",
    "timezone": "America/Los_Angeles",
    "updated_at": "2012-07-08T00:55:02Z",
    "zip": "97636"
  },
  {
    "address": "33390 Nieblock Ln",
    "city": "Creswell",
    "county": "Lane County",
    "created_at": "2012-01-04T20:16:58Z",
    "id": 20035,
    "latitude": "43.926391",
    "longitude": "-123.028184",
    "mascot": "Bulldogs",
    "name": "Creswell High School",
    "primary_color": "Red",
    "secondary_color": "White",
    "state": "OR",
    "timezone": "America/Los_Angeles",
    "updated_at": "2012-07-08T00:55:03Z",
    "zip": "97426"
  },
  {
    "address": "25863 Crow Rd",
    "city": "Eugene",
    "county": "Lane County",
    "created_at": "2012-01-04T20:16:58Z",
    "id": 20036,
    "latitude": "43.986172",
    "longitude": "-123.318520",
    "mascot": "Cougars",
    "name": "Crow High School",
    "primary_color": "Columbia Blue",
    "secondary_color": "Red",
    "state": "OR",
    "timezone": "America/Los_Angeles",
    "updated_at": "2012-07-08T00:55:03Z",
    "zip": "97402"
  },
  {
    "address": "2455 Willakenzie Rd",
    "city": "Eugene",
    "county": "Lane County",
    "created_at": "2012-01-04T20:16:58Z",
    "id": 20037,
    "latitude": "44.080161",
    "longitude": "-123.073455",
    "mascot": "Fighting Irish",
    "name": "Henry D Sheldon High School",
    "primary_color": "Kelly Green",
    "secondary_color": "White",
    "state": "OR",
    "timezone": "America/Los_Angeles",
    "updated_at": "2012-07-08T00:55:03Z",
    "zip": "97401"
  },