[
  {
    "address": "45-527 Pakalana St",
    "city": "Honokaa",
    "county": "Hawaii County",
    "created_at": "2012-01-04T20:14:14Z",
    "id": 6539,
    "latitude": "20.074442",
    "longitude": "-155.463935",
    "mascot": "Dragons",
    "name": "Honokaa High & Intermediate School",
    "primary_color": "Gold",
    "secondary_color": "Kelly Green",
    "state": "HI",
    "timezone": "Pacific/Honolulu",
    "updated_at": "2012-07-07T23:39:01Z",
    "zip": "96727"
  },
  {
    "address": "87-138 Gilipake St",
    "city": "Waianae",
    "county": "Honolulu County",
    "created_at": "2012-01-04T20:14:14Z",
    "id": 6540,
    "latitude": "21.416866",
    "longitude": "-158.176184",
    "mascot": null,
    "name": "Maili Bible School",
    "primary_color": "Gold",
    "secondary_color": "Kelly Green",
    "state": "HI",
    "timezone": "Pacific/Honolulu",
    "updated_at": "2012-07-07T23:39:02Z",
    "zip": "96792"
  },
  {
    "address": "941250 Waipahu St",
    "city": "Waipahu",
    "county": "Honolulu County",
    "created_at": "2012-01-04T20:14:14Z",
    "id": 6541,
    "latitude": "21.393266",
    "longitude": "-158.000173",
    "mascot": "Warriors",
    "name": "Lanakila Baptist School",
    "primary_color": "Red",
    "secondary_color": "White",
    "state": "HI",
    "timezone": "Pacific/Honolulu",
    "updated_at": "2012-07-07T23:39:02Z",
    "zip": "96797"
  },
  {
    "address": "2429 Pali Hwy",
    "city": "Honolulu",
    "county": "Honolulu County",
    "created_at": "2012-01-04T20:14:14Z",
    "id": 6542,
    "latitude": "21.328191",
    "longitude": "-157.845364",
    "mascot": "Eagles",
    "name": "Hawaii Baptist Academy",
    "primary_color": "Gold",
    "secondary_color": "Black",
    "state": "HI",
    "timezone": "Pacific/Honolulu",
    "updated_at": "2012-07-07T23:39:02Z",
    "zip": "96817"
  },
  {
    "address": "2140 Farrington Ave",
    "city": "Hoolehua",
    "county": "Maui County",
    "created_at": "2012-01-04T20:14:14Z",
    "id": 6543,
    "latitude": "21.162466",
    "longitude": "-157.048539",
    "mascot": "Farmers",
    "name": "Molokai Junior Senior High School",
    "primary_color": "Kelly Green",
    "secondary_color": "White",
    "state": "HI",
    "timezone": "Pacific/Honolulu",
    "updated_at": "2012-07-07T23:39:02Z",
    "zip": "96729"
  },
  {
    "address": "555 Fraser Ave",
    "city": "Lanai City",
    "county": "Maui County",
    "created_at": "2012-01-04T20:14:15Z",
    "id": 6544,
    "latitude": "20.826502",
    "longitude": "-156.921913",
    "mascot": "Pinelads/Pinelasses",
    "name": "Lanai Elementary High School",
    "primary_color": "Gold",
    "secondary_color": "Kelly Green",
    "state": "HI",
    "timezone": "Pacific/Honolulu",
    "updated_at": "2012-07-07T23:39:02Z",
    "zip": "96763"
  },
  {
    "address": "350 Ulua St",
    "city": "Honolulu",
    "county": "Honolulu County",
    "created_at": "2012-01-04T20:14:15Z",
    "id": 6545,
    "latitude": "21.285879",
    "longitude": "-157.734651",
    "mascot": null,
    "name": "Honolulu Waldorf School",
    "primary_color": "Royal",
    "secondary_color": "White",
    "state": "HI",
    "timezone": "Pacific/Honolulu",
    "updated_at": "2012-07-07T23:39:03Z",
    "zip": "96821"
  },
  {
    "address": "355 N Kainalu Dr",
    "city": "Kailua",
    "county": "Honolulu County",
    "created_at": "2012-01-04T20:14:15Z",
    "id": 6546,
    "latitude": "21.405032",
    "longitude": "-157.743936",
    "mascot": null,
    "name": "Redemption Academy",
    "primary_color": "Gold",
    "secondary_color": "Red",
    "state": "HI",
    "timezone": "Pacific/Honolulu",
    "updated_at": "2012-07-07T23:39:03Z",
    "zip": "96734"
  },
  {
    "address": "730 Iliaina St",
    "city": "Kailua",
    "county": "Honolulu County",
    "created_at": "2012-01-04T20:14:15Z",
    "id": 6547,
    "latitude": "21.409801",
    "longitude": "-157.756013",
    "mascot": "Mustangs",
    "name": "Kalaheo High School",
    "primary_color": "Orange",
    "secondary_color": "Royal",
    "state": "HI",
    "timezone": "Pacific/Honolulu",
    "updated_at": "2012-07-07T23:39:03Z",
    "zip": "96734"
  },
  {
    "address": "3577 Lala Rd",
    "city": "Lihue",
    "county": "Kauai County",
    "created_at": "2012-01-04T20:14:15Z",
    "id": 6548,
    "latitude": "21.959479",
    "longitude": "-159.359720",
    "mascot": "Red Raiders",
    "name": "Kauai High School",
    "primary_color": "Red",
    "secondary_color": "White",
    "state": "HI",
    "timezone": "Pacific/Honolulu",
    "updated_at": "2012-07-07T23:39:03Z",
    "zip": "96766"
  },
  {
    "address": "911219 Renton Rd",
    "city": "Ewa Beach",
    "county": "Honolulu County",
    "created_at": "2012-01-04T20:14:15Z",
    "id": 6549,
    "latitude": "21.340837",
    "longitude": "-158.036230",
    "mascot": null,
    "name": "Lanakila Baptist High School",
    "primary_color": "Red",
    "secondary_color": "White",
    "state": "HI",
    "timezone": "Pacific/Honolulu",
    "updated_at": "2012-07-07T23:39:03Z",
    "zip": "96706"
  },
  {
    "address": "1564 N King St",
    "city": "Honolulu",
    "county": "Honolulu County",
    "created_at": "2012-01-04T20:14:15Z",
    "id": 6550,
    "latitude": "21.330143",
    "longitude": "-157.873789",
    "mascot": null,
    "name": "Farrington, Wallace Rider High School",
    "primary_color": "Maroon",
    "secondary_color": "White",
    "state": "HI",
    "timezone": "Pacific/Honolulu",
    "updated_at": "2012-07-07T23:39:04Z",
    "zip": "96817"
  },
  {
    "address": "1515 California Ave",
    "city": "Wahiawa",
    "county": "Honolulu County",
    "created_at": "2012-01-04T20:14:15Z",
    "id": 6551,
    "latitude": "21.502606",
    "longitude": "-158.013193",
    "mascot": "Mules",
    "name": "Leilehua High School",
    "primary_color": "Gold",
    "secondary_color": "Kelly Green",
    "state": "HI",
    "timezone": "Pacific/Honolulu",
    "updated_at": "2012-07-07T23:39:04Z",
    "zip": "96786"
  },
  {
    "address": "4361 Salt Lake Blvd",
    "city": "Honolulu",
    "county": "Honolulu County",
    "created_at": "2012-01-04T20:14:15Z",
    "id": 6552,
    "latitude": "21.359798",
    "longitude": "-157.927294",
    "mascot": "Rams",
    "name": "Arthur W Radford High School",
    "primary_color": "Black",
    "secondary_color": "White",
    "state": "HI",
    "timezone": "Pacific/Honolulu",
    "updated_at": "2012-07-07T23:39:04Z",
    "zip": "96818"
  },
  {
    "address": "89-980 Nanakuli Ave",
    "city": "Waianae",
    "county": "Honolulu County",
    "created_at": "2012-01-04T20:14:15Z",
    "id": 6553,
    "latitude": "21.387147",
    "longitude": "-158.130463",
    "mascot": "Golden Hawks",
    "name": "Nanakuli High & Intermediate School",
    "primary_color": "Gold",
    "secondary_color": "Black",
    "state": "HI",
    "timezone": "Pacific/Honolulu",
    "updated_at": "2012-07-07T23:39:04Z",
    "zip": "96792"
  },
  {
    "address": "94-1211 Farrington Hwy",
    "city": "Waipahu",
    "county": "Honolulu County",
    "created_at": "2012-01-04T20:14:15Z",
    "id": 6554,
    "latitude": "21.390217",
    "longitude": "-157.993669",
    "mascot": "Marauders",
    "name": "Waipahu High School",
    "primary_color": "Gold",
    "secondary_color": "Navy",
    "state": "HI",
    "timezone": "Pacific/Honolulu",
    "updated_at": "2012-07-07T23:39:05Z",
    "zip": "96797"
  },
  {
    "address": "4695 Mailihuna Rd",
    "city": "Kapaa",
    "county": "Kauai County",
    "created_at": "2012-01-04T20:14:15Z",
    "id": 6555,
    "latitude": "22.091890",
    "longitude": "-159.312555",
    "mascot": "Warriors",
    "name": "Kapaa High School",
    "primary_color": "Kelly Green",
    "secondary_color": "White",
    "state": "HI",
    "timezone": "Pacific/Honolulu",
    "updated_at": "2012-07-07T23:39:05Z",
    "zip": "96746"
  },
  {
    "address": "4000 Kilauea Rd",
    "city": "Kilauea",
    "county": "Kauai County",
    "created_at": "2012-01-04T20:14:15Z",
    "id": 6556,
    "latitude": "22.217259",
    "longitude": "-159.403823",
    "mascot": "Fish",
    "name": "Kauai Christian Academy",
    "primary_color": "Teal",
    "secondary_color": "Columbia Blue",
    "state": "HI",
    "timezone": "Pacific/Honolulu",
    "updated_at": "2012-07-07T23:39:05Z",
    "zip": "96754"
  },
  {
    "address": "913 Alewa Dr",
    "city": "Honolulu",
    "county": "Honolulu County",
    "created_at": "2012-01-04T20:14:15Z",
    "id": 6557,
    "latitude": "21.331400",
    "longitude": "-157.854454",
    "mascot": "Dolphins",
    "name": "Academy Of The Pacific",
    "primary_color": "Royal",
    "secondary_color": "White",
    "state": "HI",
    "timezone": "Pacific/Honolulu",
    "updated_at": "2012-07-07T23:39:05Z",
    "zip": "96817"
  },
  {
    "address": "708 Palekaua St",
    "city": "Honolulu",
    "county": "Honolulu County",
    "created_at": "2012-01-04T20:14:15Z",
    "id": 6558,
    "latitude": "21.263663",
    "longitude": "-157.794582",
    "mascot": "Palm Trees",
    "name": "Special Education Center Of Hawaii",
    "primary_color": "Kelly Green",
    "secondary_color": "White",
    "state": "HI",
    "timezone": "Pacific/Honolulu",
    "updated_at": "2012-07-07T23:39:06Z",
    "zip": "96816"
  },
  {
    "address": "1110 Kailua Rd",
    "city": "Kailua",
    "county": "Honolulu County",
    "created_at": "2012-01-04T20:14:15Z",
    "id": 6559,
    "latitude": "21.386551",
    "longitude": "-157.751012",
    "mascot": "Swordsman",
    "name": "Kailua Christian Academy",
    "primary_color": "Royal",
    "secondary_color": "White",
    "state": "HI",
    "timezone": "Pacific/Honolulu",
    "updated_at": "2012-07-07T23:39:06Z",
    "zip": "96734"
  },
  {
    "address": "1401 Houghtailing St",
    "city": "Honolulu",
    "county": "Honolulu County",
    "created_at": "2012-01-04T20:14:15Z",
    "id": 6560,
    "latitude": "21.330807",
    "longitude": "-157.868582",
    "mascot": "Monarchs",
    "name": "Damien Memorial High School",
    "primary_color": "Purple",
    "secondary_color": "Gold",
    "state": "HI",
    "timezone": "Pacific/Honolulu",
    "updated_at": "2012-07-07T23:39:06Z",
    "zip": "96817"
  },
  {
    "address": "1526 Alexander St",
    "city": "Honolulu",
    "county": "Honolulu County",
    "created_at": "2012-01-04T20:14:15Z",
    "id": 6561,
    "latitude": "21.300493",
    "longitude": "-157.830407",
    "mascot": "Spartans",
    "name": "Maryknoll Schools",
    "primary_color": "Maroon",
    "secondary_color": "Gold",
    "state": "HI",
    "timezone": "Pacific/Honolulu",
    "updated_at": "2012-07-07T23:39:06Z",
    "zip": "96822"
  },
  {
    "address": "2707 Pamoa Rd",
    "city": "Honolulu",
    "county": "Honolulu County",
    "created_at": "2012-01-04T20:14:15Z",
    "id": 6562,
    "latitude": "21.304542",
    "longitude": "-157.812285",
    "mascot": "Troubadours",
    "name": "Saint Francis School",
    "primary_color": "Royal",
    "secondary_color": "White",
    "state": "HI",
    "timezone": "Pacific/Honolulu",
    "updated_at": "2012-07-07T23:39:06Z",
    "zip": "96822"
  },
  {
    "address": "3253 Waialae Ave",
    "city": "Honolulu",
    "county": "Honolulu County",
    "created_at": "2012-01-04T20:14:15Z",
    "id": 6563,
    "latitude": "21.287124",
    "longitude": "-157.807692",
    "mascot": "Lancers",
    "name": "Sacred Hearts Academy",
    "primary_color": "Gold",
    "secondary_color": "White",
    "state": "HI",
    "timezone": "Pacific/Honolulu",
    "updated_at": "2012-07-07T23:39:07Z",
    "zip": "96816"
  },
  {
    "address": "1000 Ululani St",
    "city": "Hilo",
    "county": "Hawaii County",
    "created_at": "2012-01-04T20:14:15Z",
    "id": 6564,
    "latitude": "19.713901",
    "longitude": "-155.083651",
    "mascot": "Cardinals",
    "name": "Saint Joseph Junior Senior High School",
    "primary_color": "Red",
    "secondary_color": "Gold",
    "state": "HI",
    "timezone": "Pacific/Honolulu",
    "updated_at": "2012-07-07T23:39:07Z",
    "zip": "96720"
  },
  {
    "address": "1618 Lower Main St",
    "city": "Wailuku",
    "county": "Maui County",
    "created_at": "2012-01-04T20:14:15Z",
    "id": 6565,
    "latitude": "20.892023",
    "longitude": "-156.495551",
    "mascot": "Trojans",
    "name": "Saint Anthony Junior Senior High School",
    "primary_color": "Gold",
    "secondary_color": "Royal",
    "state": "HI",
    "timezone": "Pacific/Honolulu",
    "updated_at": "2012-07-07T23:39:07Z",
    "zip": "96793"
  },
  {
    "address": "2933 Poni Moi Rd",
    "city": "Honolulu",
    "county": "Honolulu County",
    "created_at": "2012-01-04T20:14:15Z",
    "id": 6566,
    "latitude": "21.260422",
    "longitude": "-157.817326",
    "mascot": null,
    "name": "La Pietra-Hawaii School For Girls",
    "primary_color": "Columbia Blue",
    "secondary_color": "Royal",
    "state": "HI",
    "timezone": "Pacific/Honolulu",
    "updated_at": "2012-07-07T23:39:07Z",
    "zip": "96815"
  },
  {
    "address": "1438 Pensacola St",
    "city": "Honolulu",
    "county": "Honolulu County",
    "created_at": "2012-01-04T20:14:15Z",
    "id": 6567,
    "latitude": "21.304889",
    "longitude": "-157.843709",
    "mascot": null,
    "name": "Hawaiian Mission Academy",
    "primary_color": "Royal",
    "secondary_color": "White",
    "state": "HI",
    "timezone": "Pacific/Honolulu",
    "updated_at": "2012-07-07T23:39:08Z",
    "zip": "96822"
  },
  {
    "address": "563 Kamoku St",
    "city": "Honolulu",
    "county": "Honolulu County",
    "created_at": "2012-01-04T20:14:15Z",
    "id": 6568,
    "latitude": "21.286455",
    "longitude": "-157.824710",
    "mascot": "Raiders",
    "name": "Iolani School",
    "primary_color": "Red",
    "secondary_color": "White",
    "state": "HI",
    "timezone": "Pacific/Honolulu",
    "updated_at": "2012-07-07T23:39:08Z",
    "zip": "96826"
  },
  {
    "address": "1887 Makuakane St",
    "city": "Honolulu",
    "county": "Honolulu County",
    "created_at": "2012-01-04T20:14:15Z",
    "id": 6569,
    "latitude": "21.339294",
    "longitude": "-157.865962",
    "mascot": "Warriors",
    "name": "Kamehameha Schools",
    "primary_color": "Royal",
    "secondary_color": "White",
    "state": "HI",
    "timezone": "Pacific/Honolulu",
    "updated_at": "2012-07-07T23:39:08Z",
    "zip": "96817"
  },
  {
    "address": "224 Queen Emma Sq",
    "city": "Honolulu",
    "county": "Honolulu County",
    "created_at": "2012-01-04T20:14:15Z",
    "id": 6570,
    "latitude": "21.310202",
    "longitude": "-157.856568",
    "mascot": "St Andrew's Cross",
    "name": "Saint Andrews Priory School",
    "primary_color": "Red",
    "secondary_color": "White",
    "state": "HI",
    "timezone": "Pacific/Honolulu",
    "updated_at": "2012-07-07T23:39:09Z",
    "zip": "96813"
  },
  {
    "address": "1601 Punahou St",
    "city": "Honolulu",
    "county": "Honolulu County",
    "created_at": "2012-01-04T20:14:15Z",
    "id": 6571,
    "latitude": "21.303031",
    "longitude": "-157.832417",
    "mascot": "Buffanblu",
    "name": "Punahou School",
    "primary_color": "Yellow",
    "secondary_color": "Royal",
    "state": "HI",
    "timezone": "Pacific/Honolulu",
    "updated_at": "2012-07-07T23:39:09Z",
    "zip": "96822"
  },
  {
    "address": "1404 University Ave",
    "city": "Honolulu",
    "county": "Honolulu County",
    "created_at": "2012-01-04T20:14:15Z",
    "id": 6572,
    "latitude": "21.295491",
    "longitude": "-157.821339",
    "mascot": "Lions",
    "name": "Lutheran High School Of Hawaii",
    "primary_color": "Navy",
    "secondary_color": "White",
    "state": "HI",
    "timezone": "Pacific/Honolulu",
    "updated_at": "2012-07-07T23:39:09Z",
    "zip": "96822"
  },
  {
    "address": "3400 Moanalua Rd",
    "city": "Honolulu",
    "county": "Honolulu County",
    "created_at": "2012-01-04T20:14:15Z",
    "id": 6573,
    "latitude": "21.365096",
    "longitude": "-157.902677",
    "mascot": null,
    "name": "Christian Academy",
    "primary_color": "Royal",
    "secondary_color": "White",
    "state": "HI",
    "timezone": "Pacific/Honolulu",
    "updated_at": "2012-07-07T23:39:09Z",
    "zip": "96819"
  },
  {
    "address": "2678 Kilihau St",
    "city": "Honolulu",
    "county": "Honolulu County",
    "created_at": "2012-01-04T20:14:15Z",
    "id": 6574,
    "latitude": "21.335204",
    "longitude": "-157.895679",
    "mascot": null,
    "name": "Grace Christian Academy",
    "primary_color": "Gold",
    "secondary_color": "Purple",
    "state": "HI",
    "timezone": "Pacific/Honolulu",
    "updated_at": "2012-07-07T23:39:09Z",
    "zip": "96819"
  },
  {
    "address": "94294 Anania Dr",
    "city": "Mililani Town",
    "county": "Honolulu County",
    "created_at": "2012-01-04T20:14:15Z",
    "id": 6575,
    "latitude": "21.440835",
    "longitude": "-158.009709",
    "mascot": "Eagles",
    "name": "Hanalani Schools",
    "primary_color": "Yellow",
    "secondary_color": "Purple",
    "state": "HI",
    "timezone": "Pacific/Honolulu",
    "updated_at": "2012-07-07T23:39:10Z",
    "zip": "96789"
  },
  {
    "address": "1067A California Ave",
    "city": "Wahiawa",
    "county": "Honolulu County",
    "created_at": "2012-01-04T20:14:15Z",
    "id": 6576,
    "latitude": "21.498747",
    "longitude": "-158.022792",
    "mascot": null,
    "name": "Ho'ala School",
    "primary_color": "Red",
    "secondary_color": "White",
    "state": "HI",
    "timezone": "Pacific/Honolulu",
    "updated_at": "2012-07-07T23:39:10Z",
    "zip": "96786"
  },
  {
    "address": "91-2301 Fort Weaver Rd",
    "city": "Ewa Beach",
    "county": "Honolulu County",
    "created_at": "2012-01-04T20:14:15Z",
    "id": 6577,
    "latitude": "21.371260",
    "longitude": "-158.026046",
    "mascot": null,
    "name": "Kahi Mohala School",
    "primary_color": null,
    "secondary_color": null,
    "state": "HI",
    "timezone": "Pacific/Honolulu",
    "updated_at": "2012-07-07T23:39:10Z",
    "zip": "96706"
  },
  {
    "address": "917 Kalanianole Hwy",
    "city": "Kailua",
    "county": "Honolulu County",
    "created_at": "2012-01-04T20:14:15Z",
    "id": 6578,
    "latitude": "21.377822",
    "longitude": "-157.768693",
    "mascot": "Bulldogs",
    "name": "Le Jardin Academy",
    "primary_color": "Royal",
    "secondary_color": "White",
    "state": "HI",
    "timezone": "Pacific/Honolulu",
    "updated_at": "2012-07-07T23:39:10Z",
    "zip": "96734"
  },
  {
    "address": "45-633 Keneke St",
    "city": "Kaneohe",
    "county": "Honolulu County",
    "created_at": "2012-01-04T20:14:15Z",
    "id": 6579,
    "latitude": "21.404477",
    "longitude": "-157.806222",
    "mascot": "Ali's",
    "name": "Koolau Baptist Church Academy",
    "primary_color": "Royal",
    "secondary_color": "White",
    "state": "HI",
    "timezone": "Pacific/Honolulu",
    "updated_at": "2012-07-07T23:39:11Z",
    "zip": "96744"
  },
  {
    "address": "74-4966 Kealaka'a St",
    "city": "Kailua Kona",
    "county": "Hawaii County",
    "created_at": "2012-01-04T20:14:15Z",
    "id": 6580,
    "latitude": "19.676063",
    "longitude": "-155.985628",
    "mascot": "Pueo",
    "name": "Hualalai Academy",
    "primary_color": "Gray",
    "secondary_color": "Teal",
    "state": "HI",
    "timezone": "Pacific/Honolulu",
    "updated_at": "2012-07-07T23:39:11Z",
    "zip": "96740"
  },
  {
    "address": "65-1224 Lindsey Rd",
    "city": "Kamuela",
    "county": "Hawaii County",
    "created_at": "2012-01-04T20:14:15Z",
    "id": 6581,
    "latitude": "20.021900",
    "longitude": "-155.670095",
    "mascot": "Bulls",
    "name": "Parker School",
    "primary_color": "Black",
    "secondary_color": "White",
    "state": "HI",
    "timezone": "Pacific/Honolulu",
    "updated_at": "2012-07-07T23:39:12Z",
    "zip": "96743"
  },
  {
    "address": "65-1692 Kohala Mountain Rd",
    "city": "Kamuela",
    "county": "Hawaii County",
    "created_at": "2012-01-04T20:14:15Z",
    "id": 6582,
    "latitude": "20.027689",
    "longitude": "-155.699640",
    "mascot": "Ka Makani",
    "name": "Hawaii Preparatory Academy",
    "primary_color": "Red",
    "secondary_color": "White",
    "state": "HI",
    "timezone": "Pacific/Honolulu",
    "updated_at": "2012-07-07T23:39:12Z",
    "zip": "96743"
  },
  {
    "address": "595 Kupulau Rd",
    "city": "Hilo",
    "county": "Hawaii County",
    "created_at": "2012-01-04T20:14:15Z",
    "id": 6583,
    "latitude": "19.676431",
    "longitude": "-155.106081",
    "mascot": "Eagles",
    "name": "Hale Aloha Nazarene School",
    "primary_color": "Red",
    "secondary_color": "White",
    "state": "HI",
    "timezone": "Pacific/Honolulu",
    "updated_at": "2012-07-07T23:39:13Z",
    "zip": "96720"
  },
  {
    "address": "480 Olinda Rd",
    "city": "Makawao",
    "county": "Maui County",
    "created_at": "2012-01-04T20:14:15Z",
    "id": 6584,
    "latitude": "20.840958",
    "longitude": "-156.308719",
    "mascot": "Spartans",
    "name": "Seabury Hall School",
    "primary_color": "Royal",
    "secondary_color": "Red",
    "state": "HI",
    "timezone": "Pacific/Honolulu",
    "updated_at": "2012-07-07T23:39:13Z",
    "zip": "96768"
  },
  {
    "address": "777 Mokulele Hwy",
    "city": "Kahului",
    "county": "Maui County",
    "created_at": "2012-01-04T20:14:15Z",
    "id": 6585,
    "latitude": "20.874042",
    "longitude": "-156.459188",
    "mascot": "Lions",
    "name": "Kaahumanu Hou Christian School",
    "primary_color": "Teal",
    "secondary_color": "Purple",
    "state": "HI",
    "timezone": "Pacific/Honolulu",
    "updated_at": "2012-07-07T23:39:13Z",
    "zip": "96732"
  },
  {
    "address": "PO Box 555",
    "city": "Hoolehua",
    "county": "Maui County",
    "created_at": "2012-01-04T20:14:15Z",
    "id": 6586,
    "latitude": "21.162191",
    "longitude": "-157.085779",
    "mascot": "Eagles",
    "name": "Molokai Christian Academy",
    "primary_color": "Red",
    "secondary_color": "White",
    "state": "HI",
    "timezone": "Pacific/Honolulu",
    "updated_at": "2012-07-07T23:39:14Z",
    "zip": "96729"
  },
  {
    "address": "4035 Kaumualii Hwy",
    "city": "Koloa",
    "county": "Kauai County",
    "created_at": "2012-01-04T20:14:15Z",
    "id": 6587,
    "latitude": "21.925322",
    "longitude": "-159.491918",
    "mascot": "Sunsets",
    "name": "Kahili Adventist School",
    "primary_color": "Royal",
    "secondary_color": "Hunter Green",
    "state": "HI",
    "timezone": "Pacific/Honolulu",
    "updated_at": "2012-07-07T23:39:14Z",
    "zip": "96756"
  },
  {
    "address": "3-1875 Kaumualii Hwy",
    "city": "Lihue",
    "county": "Kauai County",
    "created_at": "2012-01-04T20:14:15Z",
    "id": 6588,
    "latitude": "21.966631",
    "longitude": "-159.396248",
    "mascot": null,
    "name": "Island School",
    "primary_color": "Gold",
    "secondary_color": "Royal",
    "state": "HI",
    "timezone": "Pacific/Honolulu",
    "updated_at": "2012-07-07T23:39:15Z",
    "zip": "96766"
  },
  {
    "address": "2705 Kaimuki Ave",
    "city": "Honolulu",
    "county": "Honolulu County",
    "created_at": "2012-01-04T20:14:15Z",
    "id": 6589,
    "latitude": "21.288132",
    "longitude": "-157.816166",
    "mascot": "Bulldogs",
    "name": "Kaimuki Senior High School",
    "primary_color": "Gold",
    "secondary_color": "Hunter Green",
    "state": "HI",
    "timezone": "Pacific/Honolulu",
    "updated_at": "2012-07-07T23:39:15Z",
    "zip": "96816"
  },
  {
    "address": "511 Lunalilo Home Rd",
    "city": "Honolulu",
    "county": "Honolulu County",
    "created_at": "2012-01-04T20:14:15Z",
    "id": 6590,
    "latitude": "21.286503",
    "longitude": "-157.697461",
    "mascot": "Cougars",
    "name": "Henry J Kaiser High School",
    "primary_color": "Royal",
    "secondary_color": "Gold",
    "state": "HI",
    "timezone": "Pacific/Honolulu",
    "updated_at": "2012-07-07T23:39:16Z",
    "zip": "96825"
  },
  {
    "address": "4680 Kalanianaole Hwy",
    "city": "Honolulu",
    "county": "Honolulu County",
    "created_at": "2012-01-04T20:14:15Z",
    "id": 6591,
    "latitude": "21.277329",
    "longitude": "-157.774019",
    "mascot": "Falcons",
    "name": "Kalani High School",
    "primary_color": "Red",
    "secondary_color": "White",
    "state": "HI",
    "timezone": "Pacific/Honolulu",
    "updated_at": "2012-07-07T23:39:16Z",
    "zip": "96821"
  },
  {
    "address": "1310 Punahou St",
    "city": "Honolulu",
    "county": "Honolulu County",
    "created_at": "2012-01-04T20:14:15Z",
    "id": 6592,
    "latitude": "21.299900",
    "longitude": "-157.834669",
    "mascot": null,
    "name": "Shriners Hospital School",
    "primary_color": null,
    "secondary_color": null,
    "state": "HI",
    "timezone": "Pacific/Honolulu",
    "updated_at": "2012-07-07T23:39:17Z",
    "zip": "96826"
  },
  {
    "address": "98-1276 Ulune St",
    "city": "Aiea",
    "county": "Honolulu County",
    "created_at": "2012-01-04T20:14:15Z",
    "id": 6593,
    "latitude": "21.383529",
    "longitude": "-157.930317",
    "mascot": "Warriors",
    "name": "Aiea High School",
    "primary_color": "Kelly Green",
    "secondary_color": "White",
    "state": "HI",
    "timezone": "Pacific/Honolulu",
    "updated_at": "2012-07-07T23:39:17Z",
    "zip": "96701"
  },
  {
    "address": "95-1200 Meheula Pky",
    "city": "Mililani Town",
    "county": "Honolulu County",
    "created_at": "2012-01-04T20:14:15Z",
    "id": 6594,
    "latitude": "21.453037",
    "longitude": "-158.008319",
    "mascot": "Trojans",
    "name": "Mililani High School",
    "primary_color": "Gold",
    "secondary_color": "Brown",
    "state": "HI",
    "timezone": "Pacific/Honolulu",
    "updated_at": "2012-07-07T23:39:18Z",
    "zip": "96789"
  },
  {
    "address": "2825 Ala Ilima St",
    "city": "Honolulu",
    "county": "Honolulu County",
    "created_at": "2012-01-04T20:14:15Z",
    "id": 6595,
    "latitude": "21.345246",
    "longitude": "-157.901233",
    "mascot": "Menehunes",
    "name": "Moanalua High School",
    "primary_color": "Royal",
    "secondary_color": "Gray",
    "state": "HI",
    "timezone": "Pacific/Honolulu",
    "updated_at": "2012-07-07T23:39:19Z",
    "zip": "96818"
  },
  {
    "address": "91-980 North Rd",
    "city": "Ewa Beach",
    "county": "Honolulu County",
    "created_at": "2012-01-04T20:14:15Z",
    "id": 6596,
    "latitude": "21.315407",
    "longitude": "-158.007330",
    "mascot": "Sabers",
    "name": "James Campbell High School",
    "primary_color": "Orange",
    "secondary_color": "Black",
    "state": "HI",
    "timezone": "Pacific/Honolulu",
    "updated_at": "2012-07-07T23:39:20Z",
    "zip": "96706"
  },
  {
    "address": "2100 Hookiekie St",
    "city": "Pearl City",
    "county": "Honolulu County",
    "created_at": "2012-01-04T20:14:15Z",
    "id": 6597,
    "latitude": "21.414986",
    "longitude": "-157.956160",
    "mascot": "Charger Horses",
    "name": "Pearl City High School",
    "primary_color": "Purple",
    "secondary_color": "White",
    "state": "HI",
    "timezone": "Pacific/Honolulu",
    "updated_at": "2012-07-07T23:39:20Z",
    "zip": "96782"
  },
  {
    "address": "45-386 Kaneohe Bay Dr",
    "city": "Kaneohe",
    "county": "Honolulu County",
    "created_at": "2012-01-04T20:14:15Z",
    "id": 6598,
    "latitude": "21.404856",
    "longitude": "-157.794622",
    "mascot": "Knights",
    "name": "James B Castle High School",
    "primary_color": "Gold",
    "secondary_color": "Maroon",
    "state": "HI",
    "timezone": "Pacific/Honolulu",
    "updated_at": "2012-07-07T23:39:21Z",
    "zip": "96744"
  },
  {
    "address": "56-490 Kamehameha Hwy",
    "city": "Kahuku",
    "county": "Honolulu County",
    "created_at": "2012-01-04T20:14:15Z",
    "id": 6599,
    "latitude": "21.676202",
    "longitude": "-157.947053",
    "mascot": "Red Raiders",
    "name": "Kahuku High & Intermediate School",
    "primary_color": "Red",
    "secondary_color": "White",
    "state": "HI",
    "timezone": "Pacific/Honolulu",
    "updated_at": "2012-07-07T23:39:22Z",
    "zip": "96731"
  },
  {
    "address": "451 Ulumanu Dr",
    "city": "Kailua",
    "county": "Honolulu County",
    "created_at": "2012-01-04T20:14:15Z",
    "id": 6600,
    "latitude": "21.384008",
    "longitude": "-157.750008",
    "mascot": "Surf Riders",
    "name": "Kailua High School",
    "primary_color": "Royal",
    "secondary_color": "White",
    "state": "HI",
    "timezone": "Pacific/Honolulu",
    "updated_at": "2012-07-07T23:39:22Z",
    "zip": "96734"
  },
  {
    "address": "42-522 Kalanianaole Hwy",
    "city": "Kailua",
    "county": "Honolulu County",
    "created_at": "2012-01-04T20:14:15Z",
    "id": 6601,
    "latitude": "21.377069",
    "longitude": "-157.749193",
    "mascot": null,
    "name": "Olomana School",
    "primary_color": null,
    "secondary_color": null,
    "state": "HI",
    "timezone": "Pacific/Honolulu",
    "updated_at": "2012-07-07T23:39:23Z",
    "zip": "96734"
  },
  {
    "address": "556 Waianuenue Ave",
    "city": "Hilo",
    "county": "Hawaii County",
    "created_at": "2012-01-04T20:14:15Z",
    "id": 6602,
    "latitude": "19.721098",
    "longitude": "-155.095755",
    "mascot": "Vikings",
    "name": "Hilo High School",
    "primary_color": "Gold",
    "secondary_color": "Royal",
    "state": "HI",
    "timezone": "Pacific/Honolulu",
    "updated_at": "2012-07-07T23:39:24Z",
    "zip": "96720"
  },
  {
    "address": "1043 Konawaena Rd",
    "city": "Kealakekua",
    "county": "Hawaii County",
    "created_at": "2012-01-04T20:14:15Z",
    "id": 6603,
    "latitude": "19.513838",
    "longitude": "-155.934211",
    "mascot": "Wildcats",
    "name": "Konawaena High School",
    "primary_color": "Kelly Green",
    "secondary_color": "White",
    "state": "HI",
    "timezone": "Pacific/Honolulu",
    "updated_at": "2012-07-07T23:39:24Z",
    "zip": "96750"
  },
  {
    "address": "35-2065 Old Mamalahoa Hwy",
    "city": "Laupahoehoe",
    "county": "Hawaii County",
    "created_at": "2012-01-04T20:14:15Z",
    "id": 6604,
    "latitude": "19.980388",
    "longitude": "-155.226434",
    "mascot": "Laupahoehoe Seasiders",
    "name": "Laupahoehoe High & Elementary School",
    "primary_color": "Gold",
    "secondary_color": "Royal",
    "state": "HI",
    "timezone": "Pacific/Honolulu",
    "updated_at": "2012-07-07T23:39:25Z",
    "zip": "96764"
  },
  {
    "address": "431497 Old Main Rd",
    "city": "Pa'Auilo",
    "county": "Hawaii County",
    "created_at": "2012-01-04T20:14:15Z",
    "id": 6605,
    "latitude": "20.040360",
    "longitude": "-155.373305",
    "mascot": "Tigers",
    "name": "Pa'Auilo Elementary Intermediate School",
    "primary_color": "Royal",
    "secondary_color": "White",
    "state": "HI",
    "timezone": "Pacific/Honolulu",
    "updated_at": "2012-07-07T23:39:26Z",
    "zip": "96776"
  },
  {
    "address": "15-3038 Puna Rd",
    "city": "Pahoa",
    "county": "Hawaii County",
    "created_at": "2012-01-04T20:14:15Z",
    "id": 6606,
    "latitude": "19.556140",
    "longitude": "-154.885609",
    "mascot": "Daggers",
    "name": "Pahoa High & Intermediate School",
    "primary_color": "Hunter Green",
    "secondary_color": "White",
    "state": "HI",
    "timezone": "Pacific/Honolulu",
    "updated_at": "2012-07-07T23:39:27Z",
    "zip": "96778"
  },
  {
    "address": "155 W Kawili St",
    "city": "Hilo",
    "county": "Hawaii County",
    "created_at": "2012-01-04T20:14:15Z",
    "id": 6607,
    "latitude": "19.700782",
    "longitude": "-155.077529",
    "mascot": "Warriors",
    "name": "Waiakea High School",
    "primary_color": "Royal",
    "secondary_color": "White",
    "state": "HI",
    "timezone": "Pacific/Honolulu",
    "updated_at": "2012-07-07T23:39:28Z",
    "zip": "96720"
  },
  {
    "address": "1650 Kaahumanu Ave",
    "city": "Wailuku",
    "county": "Maui County",
    "created_at": "2012-01-04T20:14:15Z",
    "id": 6608,
    "latitude": "20.888898",
    "longitude": "-156.491520",
    "mascot": "Bears",
    "name": "Henry Perrine Baldwin High School",
    "primary_color": "Columbia Blue",
    "secondary_color": "Maroon",
    "state": "HI",
    "timezone": "Pacific/Honolulu",
    "updated_at": "2012-07-07T23:39:28Z",
    "zip": "96793"
  },
  {
    "address": "980 Lahainaluna Rd",
    "city": "Lahaina",
    "county": "Maui County",
    "created_at": "2012-01-04T20:14:15Z",
    "id": 6609,
    "latitude": "20.888756",
    "longitude": "-156.659875",
    "mascot": null,
    "name": "Lahainaluna High School",
    "primary_color": "Red",
    "secondary_color": "White",
    "state": "HI",
    "timezone": "Pacific/Honolulu",
    "updated_at": "2012-07-07T23:39:29Z",
    "zip": "96761"
  },
  {
    "address": "660 S Lono Ave",
    "city": "Kahului",
    "county": "Maui County",
    "created_at": "2012-01-04T20:14:15Z",
    "id": 6610,
    "latitude": "20.873948",
    "longitude": "-156.471296",
    "mascot": "Sabers",
    "name": "Maui High School",
    "primary_color": "Royal",
    "secondary_color": "White",
    "state": "HI",
    "timezone": "Pacific/Honolulu",
    "updated_at": "2012-07-07T23:39:30Z",
    "zip": "96732"
  },
  {
    "address": "9707 Tsuchiya Rd",
    "city": "Waimea",
    "county": "Kauai County",
    "created_at": "2012-01-04T20:14:15Z",
    "id": 6611,
    "latitude": "21.957523",
    "longitude": "-159.668905",
    "mascot": "Menehunes",
    "name": "Waimea High School",
    "primary_color": "Royal",
    "secondary_color": "White",
    "state": "HI",
    "timezone": "Pacific/Honolulu",
    "updated_at": "2012-07-07T23:39:30Z",
    "zip": "96796"
  },
  {
    "address": "1039 S King St",
    "city": "Honolulu",
    "county": "Honolulu County",
    "created_at": "2012-01-04T20:14:15Z",
    "id": 6612,
    "latitude": "21.300992",
    "longitude": "-157.847405",
    "mascot": "Tigers",
    "name": "McKinley High School",
    "primary_color": "Black",
    "secondary_color": "Gold",
    "state": "HI",
    "timezone": "Pacific/Honolulu",
    "updated_at": "2012-07-07T23:39:31Z",
    "zip": "96814"
  },
  {
    "address": "128 Maunaloa Rd",
    "city": "Maunaloa",
    "county": "Maui County",
    "created_at": "2012-01-04T20:14:15Z",
    "id": 6613,
    "latitude": "21.132987",
    "longitude": "-157.212379",
    "mascot": "Roadrunners",
    "name": "Maunaloa School",
    "primary_color": "Gold",
    "secondary_color": "Navy",
    "state": "HI",
    "timezone": "Pacific/Honolulu",
    "updated_at": "2012-07-07T23:39:31Z",
    "zip": "96770"
  },
  {
    "address": "3142 Waialae Ave",
    "city": "Honolulu",
    "county": "Honolulu County",
    "created_at": "2012-01-04T20:14:15Z",
    "id": 6614,
    "latitude": "21.287775",
    "longitude": "-157.808913",
    "mascot": "Crusaders",
    "name": "Saint Louis School",
    "primary_color": "Red",
    "secondary_color": "Navy",
    "state": "HI",
    "timezone": "Pacific/Honolulu",
    "updated_at": "2012-07-07T23:39:31Z",
    "zip": "96816"
  },
  {
    "address": "1120 Nehoa St",
    "city": "Honolulu",
    "county": "Honolulu County",
    "created_at": "2012-01-04T20:14:15Z",
    "id": 6615,
    "latitude": "21.309954",
    "longitude": "-157.837701",
    "mascot": "Rough Riders",
    "name": "Theodore Roosevelt High School",
    "primary_color": "Gold",
    "secondary_color": "Red",
    "state": "HI",
    "timezone": "Pacific/Honolulu",
    "updated_at": "2012-07-07T23:39:31Z",
    "zip": "96822"
  },
  {
    "address": "730 Iliaina St",
    "city": "Kailua",
    "county": "Honolulu County",
    "created_at": "2012-01-04T20:14:15Z",
    "id": 6616,
    "latitude": "21.409801",
    "longitude": "-157.756013",
    "mascot": null,
    "name": "Windward School For Adults",
    "primary_color": null,
    "secondary_color": null,
    "state": "HI",
    "timezone": "Pacific/Honolulu",
    "updated_at": "2012-07-07T23:39:32Z",
    "zip": "96734"
  },
  {
    "address": "74-4947 Mamakhoa Hwy",
    "city": "Holualoa",
    "county": "Hawaii County",
    "created_at": "2012-01-04T20:14:15Z",
    "id": 6617,
    "latitude": "19.619950",
    "longitude": "-155.942053",
    "mascot": "Lions",
    "name": "Makua Lani Christian School",
    "primary_color": "Purple",
    "secondary_color": "White",
    "state": "HI",
    "timezone": "Pacific/Honolulu",
    "updated_at": "2012-07-07T23:39:32Z",
    "zip": "96725"
  },
  {
    "address": "121 Kula Hwy",
    "city": "Makawao",
    "county": "Maui County",
    "created_at": "2012-01-04T20:14:15Z",
    "id": 6618,
    "latitude": "20.826899",
    "longitude": "-156.330185",
    "mascot": "Kings",
    "name": "King Kekaulike High School",
    "primary_color": "Teal",
    "secondary_color": "Black",
    "state": "HI",
    "timezone": "Pacific/Honolulu",
    "updated_at": "2012-07-07T23:39:32Z",
    "zip": "96768"
  },
  {
    "address": "1776 University Ave",
    "city": "Honolulu",
    "county": "Honolulu County",
    "created_at": "2012-01-04T20:14:15Z",
    "id": 6619,
    "latitude": "21.299461",
    "longitude": "-157.821207",
    "mascot": "Junior Bows",
    "name": "University Of Hawaii Laboratory School",
    "primary_color": "Kelly Green",
    "secondary_color": "White",
    "state": "HI",
    "timezone": "Pacific/Honolulu",
    "updated_at": "2012-07-07T23:39:32Z",
    "zip": "96822"
  },
  {
    "address": "4551 Kapuna Rd",
    "city": "Kilauea",
    "county": "Kauai County",
    "created_at": "2012-01-04T20:14:15Z",
    "id": 6620,
    "latitude": "22.189535",
    "longitude": "-159.361683",
    "mascot": null,
    "name": "Kula High & Intermediate School",
    "primary_color": "Gold",
    "secondary_color": "Purple",
    "state": "HI",
    "timezone": "Pacific/Honolulu",
    "updated_at": "2012-07-07T23:39:33Z",
    "zip": "96754"
  },
  {
    "address": "2528 10th Ave",
    "city": "Honolulu",
    "county": "Honolulu County",
    "created_at": "2012-01-04T20:14:15Z",
    "id": 6621,
    "latitude": "21.305443",
    "longitude": "-157.788619",
    "mascot": null,
    "name": "Anuenue School",
    "primary_color": "Kelly Green",
    "secondary_color": "Royal",
    "state": "HI",
    "timezone": "Pacific/Honolulu",
    "updated_at": "2012-07-07T23:39:33Z",
    "zip": "96816"
  },
  {
    "address": "2445 Kaala St",
    "city": "Honolulu",
    "county": "Honolulu County",
    "created_at": "2012-01-04T20:14:15Z",
    "id": 6622,
    "latitude": "21.303699",
    "longitude": "-157.818832",
    "mascot": "Hawaiian Owls",
    "name": "Mid Pacific Institute",
    "primary_color": "Kelly Green",
    "secondary_color": "White",
    "state": "HI",
    "timezone": "Pacific/Honolulu",
    "updated_at": "2012-07-07T23:39:33Z",
    "zip": "96822"
  },
  {
    "address": "16-725 Keaau-Pahoa Rd",
    "city": "Keaau",
    "county": "Hawaii County",
    "created_at": "2012-01-04T20:14:15Z",
    "id": 6623,
    "latitude": "19.610768",
    "longitude": "-155.031570",
    "mascot": "Cougars",
    "name": "Keaau High School",
    "primary_color": "Red",
    "secondary_color": "Royal",
    "state": "HI",
    "timezone": "Pacific/Honolulu",
    "updated_at": "2012-07-07T23:39:33Z",
    "zip": "96749"
  },
  {
    "address": "74-5000 Puohulihuli St",
    "city": "Kailua Kona",
    "county": "Hawaii County",
    "created_at": "2012-01-04T20:14:15Z",
    "id": 6624,
    "latitude": "19.670645",
    "longitude": "-155.999069",
    "mascot": "Wave Riders",
    "name": "Kealakehe High School",
    "primary_color": "Royal",
    "secondary_color": "White",
    "state": "HI",
    "timezone": "Pacific/Honolulu",
    "updated_at": "2012-07-07T23:39:34Z",
    "zip": "96740"
  },
  {
    "address": "67-160 Farrington Hwy",
    "city": "Walalua",
    "county": "Honolulu County",
    "created_at": "2012-01-04T20:14:15Z",
    "id": 6625,
    "latitude": "21.567007",
    "longitude": "-158.125535",
    "mascot": "Bulldogs",
    "name": "Walalua High & Intermediate School",
    "primary_color": "Gray",
    "secondary_color": "Maroon",
    "state": "HI",
    "timezone": "Pacific/Honolulu",
    "updated_at": "2012-07-07T23:39:34Z",
    "zip": "96791"
  },
  {
    "address": "54-3611 Akoni Pule Hwy",
    "city": "Kapaau",
    "county": "Hawaii County",
    "created_at": "2012-01-04T20:14:15Z",
    "id": 6626,
    "latitude": "20.236826",
    "longitude": "-155.818319",
    "mascot": "Cowboys",
    "name": "Kohala High & Intermediate School",
    "primary_color": "Gold",
    "secondary_color": "Black",
    "state": "HI",
    "timezone": "Pacific/Honolulu",
    "updated_at": "2012-07-07T23:39:34Z",
    "zip": "96755"
  },
  {
    "address": "85-251 Farrington Hwy",
    "city": "Waianae",
    "county": "Honolulu County",
    "created_at": "2012-01-04T20:14:15Z",
    "id": 6627,
    "latitude": "21.456151",
    "longitude": "-158.199774",
    "mascot": "Seariders",
    "name": "Waianae High School",
    "primary_color": "Columbia Blue",
    "secondary_color": "Maroon",
    "state": "HI",
    "timezone": "Pacific/Honolulu",
    "updated_at": "2012-07-07T23:39:34Z",
    "zip": "96792"
  },
  {
    "address": "9707 Tsueiya Rd",
    "city": "Makaweli",
    "county": "Honolulu County",
    "created_at": "2012-01-04T20:14:15Z",
    "id": 6628,
    "latitude": "21.397228",
    "longitude": "-158.010033",
    "mascot": null,
    "name": "Niihau School",
    "primary_color": "Royal",
    "secondary_color": "White",
    "state": "HI",
    "timezone": "Pacific/Honolulu",
    "updated_at": "2012-07-07T23:39:35Z",
    "zip": "96797"
  },
  {
    "address": "174 Kamehameha Ave",
    "city": "Hilo",
    "county": "Hawaii County",
    "created_at": "2012-01-04T20:14:15Z",
    "id": 6629,
    "latitude": "19.725382",
    "longitude": "-155.086217",
    "mascot": null,
    "name": "Connection Public Charter School",
    "primary_color": null,
    "secondary_color": null,
    "state": "HI",
    "timezone": "Pacific/Honolulu",
    "updated_at": "2012-07-07T23:39:35Z",
    "zip": "96720"
  },
  {
    "address": "73-4460 Queen Ka`ahumanu Highway",
    "city": "Kailua Kona",
    "county": "Hawaii County",
    "created_at": "2012-01-04T20:14:15Z",
    "id": 6630,
    "latitude": "19.726330",
    "longitude": "-156.031506",
    "mascot": null,
    "name": "Explorations Academy",
    "primary_color": null,
    "secondary_color": null,
    "state": "HI",
    "timezone": "Pacific/Honolulu",
    "updated_at": "2012-07-07T23:39:36Z",
    "zip": "96740"
  }
]