[
  {
    "address": "6131 W 3785 S",
    "city": "West Valley City",
    "county": "Salt Lake County",
    "created_at": "2012-01-04T20:17:57Z",
    "id": 24595,
    "latitude": "40.689642",
    "longitude": "-112.037326",
    "mascot": "Hawks",
    "name": "Hunter Junior High School",
    "primary_color": "Red",
    "secondary_color": "Black",
    "state": "UT",
    "timezone": "America/Denver",
    "updated_at": "2012-07-08T01:45:17Z",
    "zip": "84120"
  },
  {
    "address": "4495 S 4800 W",
    "city": "West Valley City",
    "county": "Salt Lake County",
    "created_at": "2012-01-04T20:17:57Z",
    "id": 24596,
    "latitude": "40.672515",
    "longitude": "-112.005641",
    "mascot": null,
    "name": "John F Kennedy Junior High School",
    "primary_color": "Gold",
    "secondary_color": "Royal",
    "state": "UT",
    "timezone": "America/Denver",
    "updated_at": "2012-07-08T01:45:17Z",
    "zip": "84120"
  },
  {
    "address": "800 W 2nd S",
    "city": "Richfield",
    "county": "Sevier County",
    "created_at": "2012-01-04T20:17:57Z",
    "id": 24597,
    "latitude": "38.770730",
    "longitude": "-112.097569",
    "mascot": null,
    "name": "Sevier Valley Technical School",
    "primary_color": "Royal",
    "secondary_color": "Gold",
    "state": "UT",
    "timezone": "America/Denver",
    "updated_at": "2012-07-08T01:45:18Z",
    "zip": "84701"
  },
  {
    "address": "3775 N 37900 W",
    "city": "Tabiona",
    "county": "Duchesne County",
    "created_at": "2012-01-04T20:17:57Z",
    "id": 24598,
    "latitude": "40.383813",
    "longitude": "-110.706956",
    "mascot": "Taz Tigers",
    "name": "Tabiona School",
    "primary_color": "Purple",
    "secondary_color": "White",
    "state": "UT",
    "timezone": "America/Denver",
    "updated_at": "2012-07-08T01:45:18Z",
    "zip": "84072"
  },
  {
    "address": "5400 S 2100 W",
    "city": "Roy",
    "county": "Weber County",
    "created_at": "2012-01-04T20:17:57Z",
    "id": 24599,
    "latitude": "41.164585",
    "longitude": "-112.030820",
    "mascot": null,
    "name": "Roy Junior High School",
    "primary_color": "Red",
    "secondary_color": "White",
    "state": "UT",
    "timezone": "America/Denver",
    "updated_at": "2012-07-08T01:45:18Z",
    "zip": "84067"
  },
  {
    "address": "600 S 820 E",
    "city": "Spanish Fork",
    "county": "Utah County",
    "created_at": "2012-01-04T20:17:57Z",
    "id": 24600,
    "latitude": "40.101630",
    "longitude": "-111.640460",
    "mascot": "Junior Dons",
    "name": "Spanish Fork Junior High School",
    "primary_color": "Red",
    "secondary_color": "Black",
    "state": "UT",
    "timezone": "America/Denver",
    "updated_at": "2012-07-08T01:45:19Z",
    "zip": "84660"
  },
  {
    "address": "161 N 1000 W",
    "city": "Vernal",
    "county": "Uintah County",
    "created_at": "2012-01-04T20:17:57Z",
    "id": 24601,
    "latitude": "40.457767",
    "longitude": "-109.545923",
    "mascot": "Panthers",
    "name": "Vernal Junior High School",
    "primary_color": "Gold",
    "secondary_color": "Black",
    "state": "UT",
    "timezone": "America/Denver",
    "updated_at": "2012-07-08T01:45:19Z",
    "zip": "84078"
  },
  {
    "address": "700 E 200 S",
    "city": "Pleasant Grove",
    "county": "Utah County",
    "created_at": "2012-01-04T20:17:57Z",
    "id": 24602,
    "latitude": "40.361163",
    "longitude": "-111.725052",
    "mascot": "Vikings",
    "name": "Pleasant Grove Senior High School",
    "primary_color": "Royal",
    "secondary_color": "White",
    "state": "UT",
    "timezone": "America/Denver",
    "updated_at": "2012-07-08T01:45:19Z",
    "zip": "84062"
  },
  {
    "address": "835 S State",
    "city": "Clearfield",
    "county": "Davis County",
    "created_at": "2012-01-04T20:17:57Z",
    "id": 24603,
    "latitude": "41.101286",
    "longitude": "-112.013103",
    "mascot": "Vikings",
    "name": "North Davis Junior High School",
    "primary_color": "Kelly Green",
    "secondary_color": "White",
    "state": "UT",
    "timezone": "America/Denver",
    "updated_at": "2012-07-08T01:45:20Z",
    "zip": "84015"
  },
  {
    "address": "20 W 1120 N",
    "city": "American Fork",
    "county": "Utah County",
    "created_at": "2012-01-04T20:17:57Z",
    "id": 24604,
    "latitude": "40.399425",
    "longitude": "-111.798994",
    "mascot": "Cavemen",
    "name": "American Fork Junior High School",
    "primary_color": "Red",
    "secondary_color": "White",
    "state": "UT",
    "timezone": "America/Denver",
    "updated_at": "2012-07-08T01:45:20Z",
    "zip": "84003"
  },
  {
    "address": "135 N Union St",
    "city": "Roosevelt",
    "county": "Uintah County",
    "created_at": "2012-01-04T20:17:57Z",
    "id": 24605,
    "latitude": "40.304197",
    "longitude": "-109.976599",
    "mascot": "Cougars",
    "name": "Union High School",
    "primary_color": "Gold",
    "secondary_color": "Black",
    "state": "UT",
    "timezone": "America/Denver",
    "updated_at": "2012-07-08T01:45:20Z",
    "zip": "84066"
  },
  {
    "address": "390 E 100 S",
    "city": "Panguitch",
    "county": "Garfield County",
    "created_at": "2012-01-04T20:17:57Z",
    "id": 24606,
    "latitude": "37.821239",
    "longitude": "-112.428127",
    "mascot": "Bobcats",
    "name": "Panguitch High School",
    "primary_color": "Royal Blue",
    "secondary_color": "Red",
    "state": "UT",
    "timezone": "America/Denver",
    "updated_at": "2012-07-08T01:45:21Z",
    "zip": "84759"
  },
  {
    "address": "110 Wildcat Blvd",
    "city": "Wendover",
    "county": "Tooele County",
    "created_at": "2012-01-04T20:17:57Z",
    "id": 24607,
    "latitude": "40.737351",
    "longitude": "-114.038364",
    "mascot": "Wildcats",
    "name": "Wendover Junior Senior High School",
    "primary_color": "Kelly Green",
    "secondary_color": "White",
    "state": "UT",
    "timezone": "America/Denver",
    "updated_at": "2012-07-08T01:45:21Z",
    "zip": "84083"
  },
  {
    "address": "2850 E 750 N St",
    "city": "Saint George",
    "county": "Washington County",
    "created_at": "2012-01-04T20:17:57Z",
    "id": 24608,
    "latitude": "37.121086",
    "longitude": "-113.522622",
    "mascot": "Panthers",
    "name": "Pine View High School",
    "primary_color": "Maroon",
    "secondary_color": "Black",
    "state": "UT",
    "timezone": "America/Denver",
    "updated_at": "2012-07-08T01:45:22Z",
    "zip": "84790"
  },
  {
    "address": "703 W 600 S",
    "city": "Cedar City",
    "county": "Iron County",
    "created_at": "2012-01-04T20:17:57Z",
    "id": 24609,
    "latitude": "37.666513",
    "longitude": "-113.072672",
    "mascot": "Redmen",
    "name": "Cedar City High School",
    "primary_color": "Gold",
    "secondary_color": "Maroon",
    "state": "UT",
    "timezone": "America/Denver",
    "updated_at": "2012-07-08T01:45:22Z",
    "zip": "84720"
  },
  {
    "address": "9360 S 300 W",
    "city": "Sandy",
    "county": "Salt Lake County",
    "created_at": "2012-01-04T20:17:57Z",
    "id": 24610,
    "latitude": "40.581608",
    "longitude": "-111.900693",
    "mascot": "Mountaineers",
    "name": "Mount Jordan Middle School",
    "primary_color": "Gold",
    "secondary_color": "Royal",
    "state": "UT",
    "timezone": "America/Denver",
    "updated_at": "2012-07-08T01:45:22Z",
    "zip": "84070"
  },
  {
    "address": "400 N 455 W",
    "city": "Green River",
    "county": "Emery County",
    "created_at": "2012-01-04T20:17:57Z",
    "id": 24611,
    "latitude": "39.001110",
    "longitude": "-110.156249",
    "mascot": "Pirates",
    "name": "Green River Junior Senior High School",
    "primary_color": "Kelly Green",
    "secondary_color": "White",
    "state": "UT",
    "timezone": "America/Denver",
    "updated_at": "2012-07-08T01:45:23Z",
    "zip": "84525"
  },
  {
    "address": "3401 S 2000 E",
    "city": "Salt Lake City",
    "county": "Salt Lake County",
    "created_at": "2012-01-04T20:17:57Z",
    "id": 24612,
    "latitude": "40.697438",
    "longitude": "-111.834074",
    "mascot": "Eagles",
    "name": "Evergreen Junior High School",
    "primary_color": "Kelly Green",
    "secondary_color": "White",
    "state": "UT",
    "timezone": "America/Denver",
    "updated_at": "2012-07-08T01:45:23Z",
    "zip": "84109"
  },
  {
    "address": "265 N 400 W ",
    "city": "Bicknell",
    "county": "Wayne County",
    "created_at": "2012-01-04T20:17:57Z",
    "id": 24613,
    "latitude": "38.342810",
    "longitude": "-111.552089",
    "mascot": "Badgers",
    "name": "Wayne High School",
    "primary_color": "Gold",
    "secondary_color": "Purple",
    "state": "UT",
    "timezone": "America/Denver",
    "updated_at": "2012-07-08T01:45:24Z",
    "zip": "84715"
  },
  {
    "address": "390 W 500 S",
    "city": "Ferron",
    "county": "Emery County",
    "created_at": "2012-01-04T20:17:57Z",
    "id": 24614,
    "latitude": "39.080753",
    "longitude": "-111.139977",
    "mascot": "Bulldogs",
    "name": "San Rafael Junior High School",
    "primary_color": "Royal",
    "secondary_color": "White",
    "state": "UT",
    "timezone": "America/Denver",
    "updated_at": "2012-07-08T01:45:24Z",
    "zip": "84523"
  },
  {
    "address": "6515 S Lion Ln",
    "city": "Salt Lake City",
    "county": "Salt Lake County",
    "created_at": "2012-01-04T20:17:57Z",
    "id": 24615,
    "latitude": "40.632580",
    "longitude": "-111.805232",
    "mascot": "Lions",
    "name": "Intermountain Christian School",
    "primary_color": "Gray",
    "secondary_color": "Maroon",
    "state": "UT",
    "timezone": "America/Denver",
    "updated_at": "2012-07-08T01:45:24Z",
    "zip": "84121"
  },
  {
    "address": "1880 E 5600 S",
    "city": "Salt Lake City",
    "county": "Salt Lake County",
    "created_at": "2012-01-04T20:17:57Z",
    "id": 24616,
    "latitude": "40.649397",
    "longitude": "-111.837864",
    "mascot": "Eagles",
    "name": "Anchor Christian Academy",
    "primary_color": "Gold",
    "secondary_color": "Kelly Green",
    "state": "UT",
    "timezone": "America/Denver",
    "updated_at": "2012-07-08T01:45:25Z",
    "zip": "84121"
  },
  {
    "address": "126 East 5300 South ",
    "city": "Murray",
    "county": "Salt Lake County",
    "created_at": "2012-01-04T20:17:57Z",
    "id": 24617,
    "latitude": "40.656084",
    "longitude": "-111.887479",
    "mascot": "Gladiators",
    "name": "Hillcrest Junior High School",
    "primary_color": "Columbia Blue",
    "secondary_color": "White",
    "state": "UT",
    "timezone": "America/Denver",
    "updated_at": "2012-07-08T01:45:25Z",
    "zip": "84107"
  },
  {
    "address": "4351 S Redwood Rd",
    "city": "Salt Lake City",
    "county": "Salt Lake County",
    "created_at": "2012-01-04T20:17:57Z",
    "id": 24618,
    "latitude": "40.676198",
    "longitude": "-111.938875",
    "mascot": "Generals",
    "name": "Eisenhower Junior High School",
    "primary_color": "Red",
    "secondary_color": "Black",
    "state": "UT",
    "timezone": "America/Denver",
    "updated_at": "2012-07-08T01:45:26Z",
    "zip": "84123"
  },
  {
    "address": "2935 S 8561 W",
    "city": "Magna",
    "county": "Salt Lake County",
    "created_at": "2012-01-04T20:17:57Z",
    "id": 24619,
    "latitude": "40.701302",
    "longitude": "-112.089469",
    "mascot": "Braves",
    "name": "Brockbank Junior High School",
    "primary_color": "Red",
    "secondary_color": "Royal",
    "state": "UT",
    "timezone": "America/Denver",
    "updated_at": "2012-07-08T01:45:26Z",
    "zip": "84044"
  },
  {
    "address": "843 Lincoln St",
    "city": "Salt Lake City",
    "county": "Salt Lake County",
    "created_at": "2012-01-04T20:17:57Z",
    "id": 24620,
    "latitude": "40.750991",
    "longitude": "-111.863860",
    "mascot": "Winged Lions",
    "name": "Rowland Hall Saint Marks School",
    "primary_color": "Kelly Green",
    "secondary_color": "White",
    "state": "UT",
    "timezone": "America/Denver",
    "updated_at": "2012-07-08T01:45:26Z",
    "zip": "84102"
  },
  {
    "address": "650 S 1100 E",
    "city": "Salt Lake City",
    "county": "Salt Lake County",
    "created_at": "2012-01-04T20:17:57Z",
    "id": 24621,
    "latitude": "40.755204",
    "longitude": "-111.859591",
    "mascot": "Bulldogs",
    "name": "Judge Memorial Catholic High School",
    "primary_color": "Gold",
    "secondary_color": "Red",
    "state": "UT",
    "timezone": "America/Denver",
    "updated_at": "2012-07-08T01:45:27Z",
    "zip": "84102"
  },
  {
    "address": "18 S 500 E",
    "city": "Brigham City",
    "county": "Box Elder County",
    "created_at": "2012-01-04T20:17:57Z",
    "id": 24622,
    "latitude": "41.509837",
    "longitude": "-112.007817",
    "mascot": "Stingers",
    "name": "Box Elder Middle School",
    "primary_color": "Gold",
    "secondary_color": "Purple",
    "state": "UT",
    "timezone": "America/Denver",
    "updated_at": "2012-07-08T01:45:27Z",
    "zip": "84302"
  },
  {
    "address": "10 S 480 W",
    "city": "Hyrum",
    "county": "Cache County",
    "created_at": "2012-01-04T20:17:57Z",
    "id": 24623,
    "latitude": "41.634118",
    "longitude": "-111.867912",
    "mascot": "Mustangs",
    "name": "South Cache Freshman Center",
    "primary_color": "Orange",
    "secondary_color": "Navy",
    "state": "UT",
    "timezone": "America/Denver",
    "updated_at": "2012-07-08T01:45:27Z",
    "zip": "84319"
  },
  {
    "address": "60 W 400 N",
    "city": "Price",
    "county": "Carbon County",
    "created_at": "2012-01-04T20:17:57Z",
    "id": 24624,
    "latitude": "39.604511",
    "longitude": "-110.803541",
    "mascot": "Pirates",
    "name": "Mount Harmon Junior High School",
    "primary_color": "Royal",
    "secondary_color": "White",
    "state": "UT",
    "timezone": "America/Denver",
    "updated_at": "2012-07-08T01:45:28Z",
    "zip": "84501"
  },
  {
    "address": "100 E 350 S",
    "city": "Kaysville",
    "county": "Davis County",
    "created_at": "2012-01-04T20:17:57Z",
    "id": 24625,
    "latitude": "41.029058",
    "longitude": "-111.936417",
    "mascot": "Knights",
    "name": "Kaysville Junior High School",
    "primary_color": "Red",
    "secondary_color": "Black",
    "state": "UT",
    "timezone": "America/Denver",
    "updated_at": "2012-07-08T01:45:28Z",
    "zip": "84037"
  },
  {
    "address": "955 E 1800 S",
    "city": "Bountiful",
    "county": "Davis County",
    "created_at": "2012-01-04T20:17:57Z",
    "id": 24626,
    "latitude": "40.871238",
    "longitude": "-111.861654",
    "mascot": "Panthers",
    "name": "Mueller Park Junior High School",
    "primary_color": "Columbia Blue",
    "secondary_color": "White",
    "state": "UT",
    "timezone": "America/Denver",
    "updated_at": "2012-07-08T01:45:28Z",
    "zip": "84010"
  },
  {
    "address": "8270 S Grizzly Way",
    "city": "West Jordan",
    "county": "Salt Lake County",
    "created_at": "2012-01-04T20:17:57Z",
    "id": 24627,
    "latitude": "40.601100",
    "longitude": "-112.020067",
    "mascot": "Wildcats",
    "name": "West Hills Middle School",
    "primary_color": "Maroon",
    "secondary_color": "Navy",
    "state": "UT",
    "timezone": "America/Denver",
    "updated_at": "2012-07-08T01:45:29Z",
    "zip": "84088"
  },
  {
    "address": "10100 S 1300 E",
    "city": "Sandy",
    "county": "Salt Lake County",
    "created_at": "2012-01-04T20:17:57Z",
    "id": 24628,
    "latitude": "40.567640",
    "longitude": "-111.853127",
    "mascot": "Patriots",
    "name": "Eastmont Middle School",
    "primary_color": "Red",
    "secondary_color": "White",
    "state": "UT",
    "timezone": "America/Denver",
    "updated_at": "2012-07-08T01:45:29Z",
    "zip": "84094"
  },
  {
    "address": "765 N 600 W",
    "city": "Orem",
    "county": "Utah County",
    "created_at": "2012-01-04T20:17:57Z",
    "id": 24629,
    "latitude": "40.311334",
    "longitude": "-111.710263",
    "mascot": null,
    "name": "Orem Junior High School",
    "primary_color": "Gray",
    "secondary_color": "Royal",
    "state": "UT",
    "timezone": "America/Denver",
    "updated_at": "2012-07-08T01:45:29Z",
    "zip": "84057"
  },
  {
    "address": "825 S 100 E",
    "city": "Saint George",
    "county": "Washington County",
    "created_at": "2012-01-04T20:17:57Z",
    "id": 24630,
    "latitude": "37.094893",
    "longitude": "-113.581251",
    "mascot": "Eagles",
    "name": "Dixie Middle School",
    "primary_color": "Royal",
    "secondary_color": "White",
    "state": "UT",
    "timezone": "America/Denver",
    "updated_at": "2012-07-08T01:45:30Z",
    "zip": "84770"
  },
  {
    "address": "575 E 2900 N",
    "city": "Ogden",
    "county": "Weber County",
    "created_at": "2012-01-04T20:17:57Z",
    "id": 24631,
    "latitude": "41.313772",
    "longitude": "-111.963134",
    "mascot": "Knights",
    "name": "North Ogden Junior High School",
    "primary_color": "Gold",
    "secondary_color": "Purple",
    "state": "UT",
    "timezone": "America/Denver",
    "updated_at": "2012-07-08T01:45:30Z",
    "zip": "84414"
  },
  {
    "address": "1450 S Main St",
    "city": "Garland",
    "county": "Box Elder County",
    "created_at": "2012-01-04T20:17:57Z",
    "id": 24632,
    "latitude": "41.726350",
    "longitude": "-112.162199",
    "mascot": "Bears",
    "name": "Bear River High School",
    "primary_color": "Red",
    "secondary_color": "White",
    "state": "UT",
    "timezone": "America/Denver",
    "updated_at": "2012-07-08T01:45:30Z",
    "zip": "84312"
  },
  {
    "address": "380 S 600 W",
    "city": "Brigham City",
    "county": "Box Elder County",
    "created_at": "2012-01-04T20:17:57Z",
    "id": 24633,
    "latitude": "41.503616",
    "longitude": "-112.025299",
    "mascot": "Bees",
    "name": "Box Elder High School",
    "primary_color": "Purple",
    "secondary_color": "White",
    "state": "UT",
    "timezone": "America/Denver",
    "updated_at": "2012-07-08T01:45:31Z",
    "zip": "84302"
  },
  {
    "address": "520 S 250 E",
    "city": "Smithfield",
    "county": "Cache County",
    "created_at": "2012-01-04T20:17:57Z",
    "id": 24634,
    "latitude": "41.825593",
    "longitude": "-111.826240",
    "mascot": "Bobcats",
    "name": "Sky View High School",
    "primary_color": "Royal",
    "secondary_color": "White",
    "state": "UT",
    "timezone": "America/Denver",
    "updated_at": "2012-07-08T01:45:31Z",
    "zip": "84335"
  },
  {
    "address": "255 S 800 E",
    "city": "Hyrum",
    "county": "Cache County",
    "created_at": "2012-01-04T20:17:57Z",
    "id": 24635,
    "latitude": "41.628168",
    "longitude": "-111.832614",
    "mascot": "Mustangs",
    "name": "Mountain Crest High School",
    "primary_color": "Orange",
    "secondary_color": "Navy",
    "state": "UT",
    "timezone": "America/Denver",
    "updated_at": "2012-07-08T01:45:31Z",
    "zip": "84319"
  },
  {
    "address": "162 W 100 S",
    "city": "Logan",
    "county": "Cache County",
    "created_at": "2012-01-04T20:17:57Z",
    "id": 24636,
    "latitude": "41.729492",
    "longitude": "-111.839187",
    "mascot": "Grizzlies",
    "name": "Logan High School",
    "primary_color": "Gold",
    "secondary_color": "Red",
    "state": "UT",
    "timezone": "America/Denver",
    "updated_at": "2012-07-08T01:45:31Z",
    "zip": "84321"
  },
  {
    "address": "750 E 4th N",
    "city": "Price",
    "county": "Carbon County",
    "created_at": "2012-01-04T20:17:57Z",
    "id": 24637,
    "latitude": "39.606682",
    "longitude": "-110.797840",
    "mascot": "Dinos",
    "name": "Carbon High School",
    "primary_color": "Royal",
    "secondary_color": "White",
    "state": "UT",
    "timezone": "America/Denver",
    "updated_at": "2012-07-08T01:45:32Z",
    "zip": "84501"
  },
  {
    "address": "440 Lancer Ln",
    "city": "Layton",
    "county": "Davis County",
    "created_at": "2012-01-04T20:17:57Z",
    "id": 24638,
    "latitude": "41.073713",
    "longitude": "-111.979905",
    "mascot": "Lancers",
    "name": "Layton Senior High School",
    "primary_color": "Columbia Blue",
    "secondary_color": "Navy",
    "state": "UT",
    "timezone": "America/Denver",
    "updated_at": "2012-07-08T01:45:32Z",
    "zip": "84041"
  },
  {
    "address": "120 W 10th N",
    "city": "Bountiful",
    "county": "Davis County",
    "created_at": "2012-01-04T20:17:57Z",
    "id": 24639,
    "latitude": "40.899598",
    "longitude": "-111.883106",
    "mascot": "Vikings",
    "name": "Viewmont High School",
    "primary_color": "Gold",
    "secondary_color": "Red",
    "state": "UT",
    "timezone": "America/Denver",
    "updated_at": "2012-07-08T01:45:32Z",
    "zip": "84010"
  },
  {
    "address": "7350 S 900 E",
    "city": "Midvale",
    "county": "Salt Lake County",
    "created_at": "2012-01-04T20:17:57Z",
    "id": 24640,
    "latitude": "40.617765",
    "longitude": "-111.866203",
    "mascot": "Huskies",
    "name": "Hillcrest High School",
    "primary_color": "Kelly Green",
    "secondary_color": "White",
    "state": "UT",
    "timezone": "America/Denver",
    "updated_at": "2012-07-08T01:45:33Z",
    "zip": "84047"
  },
  {
    "address": "5440 S State St",
    "city": "Murray",
    "county": "Salt Lake County",
    "created_at": "2012-01-04T20:17:57Z",
    "id": 24641,
    "latitude": "40.653133",
    "longitude": "-111.888412",
    "mascot": "Spartans",
    "name": "Murray High School",
    "primary_color": "Orange",
    "secondary_color": "Black",
    "state": "UT",
    "timezone": "America/Denver",
    "updated_at": "2012-07-08T01:45:33Z",
    "zip": "84107"
  },
  {
    "address": "840 S 1300 E",
    "city": "Salt Lake City",
    "county": "Salt Lake County",
    "created_at": "2012-01-04T20:17:58Z",
    "id": 24642,
    "latitude": "40.751030",
    "longitude": "-111.853907",
    "mascot": "Leopards",
    "name": "East High School",
    "primary_color": "Red",
    "secondary_color": "White",
    "state": "UT",
    "timezone": "America/Denver",
    "updated_at": "2012-07-08T01:45:33Z",
    "zip": "84102"
  },
  {
    "address": "241 N 300 W",
    "city": "Salt Lake City",
    "county": "Salt Lake County",
    "created_at": "2012-01-04T20:17:58Z",
    "id": 24643,
    "latitude": "40.774600",
    "longitude": "-111.899697",
    "mascot": "Panthers",
    "name": "West High School",
    "primary_color": "Red",
    "secondary_color": "Black",
    "state": "UT",
    "timezone": "America/Denver",
    "updated_at": "2012-07-08T01:45:34Z",
    "zip": "84103"
  },
  {
    "address": "5225 S Redwood Rd",
    "city": "Taylorsville",
    "county": "Salt Lake County",
    "created_at": "2012-01-04T20:17:58Z",
    "id": 24644,
    "latitude": "40.656291",
    "longitude": "-111.938841",
    "mascot": "Warriors",
    "name": "Taylorsville Senior High School",
    "primary_color": "Gold",
    "secondary_color": "Royal",
    "state": "UT",
    "timezone": "America/Denver",
    "updated_at": "2012-07-08T01:45:34Z",
    "zip": "84123"
  },
  {
    "address": "3251 E 3760 S",
    "city": "Salt Lake City",
    "county": "Salt Lake County",
    "created_at": "2012-01-04T20:17:58Z",
    "id": 24645,
    "latitude": "40.689473",
    "longitude": "-111.801479",
    "mascot": "Eagles",
    "name": "Skyline Senior High School",
    "primary_color": "Gold",
    "secondary_color": "Royal",
    "state": "UT",
    "timezone": "America/Denver",
    "updated_at": "2012-07-08T01:45:35Z",
    "zip": "84109"
  },
  {
    "address": "390 E 700 S",
    "city": "Mount Pleasant",
    "county": "Sanpete County",
    "created_at": "2012-01-04T20:17:58Z",
    "id": 24646,
    "latitude": "39.536564",
    "longitude": "-111.447985",
    "mascot": "Hawks",
    "name": "North Sanpete High School",
    "primary_color": "Red",
    "secondary_color": "White",
    "state": "UT",
    "timezone": "America/Denver",
    "updated_at": "2012-07-08T01:45:35Z",
    "zip": "84647"
  },
  {
    "address": "240 W 1st S",
    "city": "Tooele",
    "county": "Tooele County",
    "created_at": "2012-01-04T20:17:58Z",
    "id": 24647,
    "latitude": "40.535471",
    "longitude": "-112.291758",
    "mascot": "Buffalos",
    "name": "Tooele High School",
    "primary_color": "Purple",
    "secondary_color": "White",
    "state": "UT",
    "timezone": "America/Denver",
    "updated_at": "2012-07-08T01:45:35Z",
    "zip": "84074"
  },
  {
    "address": "1880 W 500 N",
    "city": "Vernal",
    "county": "Uintah County",
    "created_at": "2012-01-04T20:17:58Z",
    "id": 24648,
    "latitude": "40.462692",
    "longitude": "-109.565501",
    "mascot": "Uintah Utes",
    "name": "Uintah Senior High School",
    "primary_color": "Maroon",
    "secondary_color": "White",
    "state": "UT",
    "timezone": "America/Denver",
    "updated_at": "2012-07-08T01:45:36Z",
    "zip": "84078"
  },
  {
    "address": "1050 S Main St",
    "city": "Payson",
    "county": "Utah County",
    "created_at": "2012-01-04T20:17:58Z",
    "id": 24649,
    "latitude": "40.027082",
    "longitude": "-111.732390",
    "mascot": "Lions",
    "name": "Payson Senior High School",
    "primary_color": "Gray",
    "secondary_color": "Hunter Green",
    "state": "UT",
    "timezone": "America/Denver",
    "updated_at": "2012-07-08T01:45:36Z",
    "zip": "84651"
  },
  {
    "address": "99 N 300 W",
    "city": "Spanish Fork",
    "county": "Utah County",
    "created_at": "2012-01-04T20:17:58Z",
    "id": 24650,
    "latitude": "40.111169",
    "longitude": "-111.659862",
    "mascot": "Dons",
    "name": "Spanish Fork Senior High School",
    "primary_color": "Red",
    "secondary_color": "Gray",
    "state": "UT",
    "timezone": "America/Denver",
    "updated_at": "2012-07-08T01:45:36Z",
    "zip": "84660"
  },
  {
    "address": "1125 N University Ave",
    "city": "Provo",
    "county": "Utah County",
    "created_at": "2012-01-04T20:17:58Z",
    "id": 24651,
    "latitude": "40.249212",
    "longitude": "-111.658644",
    "mascot": "Bulldogs",
    "name": "Provo High School",
    "primary_color": "Kelly Green",
    "secondary_color": "White",
    "state": "UT",
    "timezone": "America/Denver",
    "updated_at": "2012-07-08T01:45:37Z",
    "zip": "84604"
  },
  {
    "address": "3650 North 500 West",
    "city": "Pleasant View",
    "county": "Weber County",
    "created_at": "2012-01-04T20:17:58Z",
    "id": 24652,
    "latitude": "41.323846",
    "longitude": "-111.988110",
    "mascot": "Warriors",
    "name": "Weber Senior High School",
    "primary_color": "Red",
    "secondary_color": "Black",
    "state": "UT",
    "timezone": "America/Denver",
    "updated_at": "2012-07-08T01:45:37Z",
    "zip": "84414"
  },
  {
    "address": "155 E Cowboy Dr",
    "city": "Grantsville",
    "county": "Tooele County",
    "created_at": "2012-01-04T20:17:58Z",
    "id": 24653,
    "latitude": "40.595202",
    "longitude": "-112.468423",
    "mascot": "Cowboys",
    "name": "Grantsville High School",
    "primary_color": "Red",
    "secondary_color": "White",
    "state": "UT",
    "timezone": "America/Denver",
    "updated_at": "2012-07-08T01:45:37Z",
    "zip": "84029"
  },
  {
    "address": "4020 S 900 E",
    "city": "Salt Lake City",
    "county": "Salt Lake County",
    "created_at": "2012-01-04T20:17:58Z",
    "id": 24654,
    "latitude": "40.684163",
    "longitude": "-111.865537",
    "mascot": "Lynx",
    "name": "Salt Lake Lutheran School",
    "primary_color": "Gray",
    "secondary_color": "Royal",
    "state": "UT",
    "timezone": "America/Denver",
    "updated_at": "2012-07-08T01:45:38Z",
    "zip": "84124"
  },
  {
    "address": "565 S 200 E St",
    "city": "Enterprise",
    "county": "Washington County",
    "created_at": "2012-01-04T20:17:58Z",
    "id": 24655,
    "latitude": "37.563870",
    "longitude": "-113.716659",
    "mascot": "Wolves",
    "name": "Enterprise High School",
    "primary_color": "Navy",
    "secondary_color": "Gold",
    "state": "UT",
    "timezone": "America/Denver",
    "updated_at": "2012-07-08T01:45:38Z",
    "zip": "84725"
  },
  {
    "address": "35 E 600 S",
    "city": "Gunnison",
    "county": "Sanpete County",
    "created_at": "2012-01-04T20:17:58Z",
    "id": 24656,
    "latitude": "39.141795",
    "longitude": "-111.803194",
    "mascot": "Bulldogs",
    "name": "Gunnison High School",
    "primary_color": "Royal",
    "secondary_color": "White",
    "state": "UT",
    "timezone": "America/Denver",
    "updated_at": "2012-07-08T01:45:39Z",
    "zip": "84634"
  },
  {
    "address": "76 S 100 E",
    "city": "Coalville",
    "county": "Summit County",
    "created_at": "2012-01-04T20:17:58Z",
    "id": 24657,
    "latitude": "40.915757",
    "longitude": "-111.394984",
    "mascot": "Braves",
    "name": "North Summit High School",
    "primary_color": "Gold",
    "secondary_color": "Purple",
    "state": "UT",
    "timezone": "America/Denver",
    "updated_at": "2012-07-08T01:45:39Z",
    "zip": "84017"
  },
  {
    "address": "700 Aaron Burr Rd",
    "city": "Big Water",
    "county": "Kane County",
    "created_at": "2012-01-04T20:17:58Z",
    "id": 24658,
    "latitude": "37.084729",
    "longitude": "-111.664500",
    "mascot": "Rattlesnakes",
    "name": "Big Water School",
    "primary_color": "Gold",
    "secondary_color": "Black",
    "state": "UT",
    "timezone": "America/Denver",
    "updated_at": "2012-07-08T01:45:39Z",
    "zip": "84741"
  },
  {
    "address": "55 N 200 E",
    "city": "Morgan",
    "county": "Morgan County",
    "created_at": "2012-01-04T20:17:58Z",
    "id": 24659,
    "latitude": "41.038092",
    "longitude": "-111.674598",
    "mascot": "Trojans",
    "name": "Morgan High School",
    "primary_color": "Maroon",
    "secondary_color": "White",
    "state": "UT",
    "timezone": "America/Denver",
    "updated_at": "2012-07-08T01:45:39Z",
    "zip": "84050"
  },
  {
    "address": "45 S 300 E",
    "city": "Kamas",
    "county": "Summit County",
    "created_at": "2012-01-04T20:17:58Z",
    "id": 24660,
    "latitude": "40.642222",
    "longitude": "-111.274299",
    "mascot": "Wildcats",
    "name": "South Summit High School",
    "primary_color": "Kelly Green",
    "secondary_color": "White",
    "state": "UT",
    "timezone": "America/Denver",
    "updated_at": "2012-07-08T01:45:40Z",
    "zip": "84036"
  },
  {
    "address": "751 W Tripp Ln",
    "city": "Murray",
    "county": "Salt Lake County",
    "created_at": "2012-01-04T20:17:58Z",
    "id": 24661,
    "latitude": "40.645867",
    "longitude": "-111.912144",
    "mascot": null,
    "name": "Riverview Junior High School",
    "primary_color": "Red",
    "secondary_color": "White",
    "state": "UT",
    "timezone": "America/Denver",
    "updated_at": "2012-07-08T01:45:40Z",
    "zip": "84123"
  },
  {
    "address": "2828 Harrison Blvd",
    "city": "Ogden",
    "county": "Weber County",
    "created_at": "2012-01-04T20:17:58Z",
    "id": 24662,
    "latitude": "41.213379",
    "longitude": "-111.948381",
    "mascot": "Tigers",
    "name": "Ogden High School",
    "primary_color": "Orange",
    "secondary_color": "Black",
    "state": "UT",
    "timezone": "America/Denver",
    "updated_at": "2012-07-08T01:45:40Z",
    "zip": "84403"
  },
  {
    "address": "2145 E 130 N",
    "city": "Saint George",
    "county": "Washington County",
    "created_at": "2012-01-04T20:17:58Z",
    "id": 24663,
    "latitude": "37.110643",
    "longitude": "-113.537447",
    "mascot": "Pumas",
    "name": "Pine View Middle School",
    "primary_color": "Maroon",
    "secondary_color": "Gray",
    "state": "UT",
    "timezone": "America/Denver",
    "updated_at": "2012-07-08T01:45:41Z",
    "zip": "84790"
  },
  {
    "address": "636 N Independence Ave",
    "city": "Provo",
    "county": "Utah County",
    "created_at": "2012-01-04T20:17:58Z",
    "id": 24664,
    "latitude": "40.240940",
    "longitude": "-111.687012",
    "mascot": "Lions",
    "name": "Independence High School",
    "primary_color": "Royal",
    "secondary_color": "White",
    "state": "UT",
    "timezone": "America/Denver",
    "updated_at": "2012-07-08T01:45:41Z",
    "zip": "84601"
  },
  {
    "address": "1750 Kearns Blvd",
    "city": "Park City",
    "county": "Summit County",
    "created_at": "2012-01-04T20:17:58Z",
    "id": 24665,
    "latitude": "40.664751",
    "longitude": "-111.498450",
    "mascot": "Miners",
    "name": "Park City High School",
    "primary_color": "Red",
    "secondary_color": "White",
    "state": "UT",
    "timezone": "America/Denver",
    "updated_at": "2012-07-08T01:45:41Z",
    "zip": "84060"
  },
  {
    "address": "800 E Hwy 12",
    "city": "Escalante",
    "county": "Garfield County",
    "created_at": "2012-01-04T20:17:58Z",
    "id": 24666,
    "latitude": "37.770231",
    "longitude": "-111.595937",
    "mascot": "Moquis",
    "name": "Escalante High School",
    "primary_color": "Red",
    "secondary_color": "White",
    "state": "UT",
    "timezone": "America/Denver",
    "updated_at": "2012-07-08T01:45:42Z",
    "zip": "84726"
  },
  {
    "address": "1790 Lake St",
    "city": "Ogden",
    "county": "Weber County",
    "created_at": "2012-01-04T20:17:58Z",
    "id": 24667,
    "latitude": "41.219113",
    "longitude": "-111.932185",
    "mascot": "Jayhawks",
    "name": "Saint Joseph High School",
    "primary_color": "Kelly Green",
    "secondary_color": "Gold",
    "state": "UT",
    "timezone": "America/Denver",
    "updated_at": "2012-07-08T01:45:42Z",
    "zip": "84401"
  },
  {
    "address": "1000 Circle Dr",
    "city": "Esk Dale",
    "county": "Millard County",
    "created_at": "2012-01-04T20:17:58Z",
    "id": 24668,
    "latitude": "39.074995",
    "longitude": "-113.634726",
    "mascot": "Soldiers",
    "name": "Esk Dale High School",
    "primary_color": "Royal",
    "secondary_color": "White",
    "state": "UT",
    "timezone": "America/Denver",
    "updated_at": "2012-07-08T01:45:42Z",
    "zip": "84728"
  },
  {
    "address": "1140 S 900 E",
    "city": "Salt Lake City",
    "county": "Salt Lake County",
    "created_at": "2012-01-04T20:17:58Z",
    "id": 24669,
    "latitude": "40.744203",
    "longitude": "-111.865337",
    "mascot": null,
    "name": "Realms Of Inquiry School",
    "primary_color": "Royal",
    "secondary_color": "White",
    "state": "UT",
    "timezone": "America/Denver",
    "updated_at": "2012-07-08T01:45:43Z",
    "zip": "84105"
  },
  {
    "address": "120 S 100 W",
    "city": "Mount Pleasant",
    "county": "Sanpete County",
    "created_at": "2012-01-04T20:17:58Z",
    "id": 24670,
    "latitude": "39.544886",
    "longitude": "-111.457294",
    "mascot": "Tigers",
    "name": "Wasatch Academy",
    "primary_color": "Black",
    "secondary_color": "Orange",
    "state": "UT",
    "timezone": "America/Denver",
    "updated_at": "2012-07-08T01:45:43Z",
    "zip": "84647"
  },
  {
    "address": "4501 N University",
    "city": "Provo",
    "county": "Utah County",
    "created_at": "2012-01-04T20:17:58Z",
    "id": 24671,
    "latitude": "40.292886",
    "longitude": "-111.658443",
    "mascot": null,
    "name": "Provo Canyon High School",
    "primary_color": "Hunter Green",
    "secondary_color": "White",
    "state": "UT",
    "timezone": "America/Denver",
    "updated_at": "2012-07-08T01:45:43Z",
    "zip": "84603"
  },
  {
    "address": "3846 Jackson Ave",
    "city": "Ogden",
    "county": "Weber County",
    "created_at": "2012-01-04T20:17:58Z",
    "id": 24672,
    "latitude": "41.192888",
    "longitude": "-111.954373",
    "mascot": "Royal Defenders",
    "name": "Berean Baptist Christian Academy",
    "primary_color": "Gold",
    "secondary_color": "Maroon",
    "state": "UT",
    "timezone": "America/Denver",
    "updated_at": "2012-07-08T01:45:44Z",
    "zip": "84403"
  },
  {
    "address": "184 E Vine St",
    "city": "Murray",
    "county": "Salt Lake County",
    "created_at": "2012-01-04T20:17:58Z",
    "id": 24673,
    "latitude": "40.663579",
    "longitude": "-111.886003",
    "mascot": "Patriots",
    "name": "Mount Vernon Academy",
    "primary_color": "Red",
    "secondary_color": "White",
    "state": "UT",
    "timezone": "America/Denver",
    "updated_at": "2012-07-08T01:45:44Z",
    "zip": "84107"
  },
  {
    "address": "2965 E 3435 S",
    "city": "Salt Lake City",
    "county": "Salt Lake County",
    "created_at": "2012-01-04T20:17:58Z",
    "id": 24674,
    "latitude": "40.706935",
    "longitude": "-111.797965",
    "mascot": null,
    "name": "Reid School",
    "primary_color": null,
    "secondary_color": null,
    "state": "UT",
    "timezone": "America/Denver",
    "updated_at": "2012-07-08T01:45:45Z",
    "zip": "84109"
  },
  {
    "address": "1480 E 9400 S",
    "city": "Sandy",
    "county": "Salt Lake County",
    "created_at": "2012-01-04T20:17:58Z",
    "id": 24675,
    "latitude": "40.580402",
    "longitude": "-111.848886",
    "mascot": "Ravens",
    "name": "Waterford School",
    "primary_color": "Maroon",
    "secondary_color": "Navy",
    "state": "UT",
    "timezone": "America/Denver",
    "updated_at": "2012-07-08T01:45:45Z",
    "zip": "84093"
  },
  {
    "address": "195 E Center St",
    "city": "Beaver",
    "county": "Beaver County",
    "created_at": "2012-01-04T20:17:58Z",
    "id": 24676,
    "latitude": "38.274207",
    "longitude": "-112.637993",
    "mascot": "Beavers",
    "name": "Beaver High School",
    "primary_color": "Royal",
    "secondary_color": "White",
    "state": "UT",
    "timezone": "America/Denver",
    "updated_at": "2012-07-08T01:45:45Z",
    "zip": "84713"
  },
  {
    "address": "62 N 300 W",
    "city": "Milford",
    "county": "Beaver County",
    "created_at": "2012-01-04T20:17:58Z",
    "id": 24677,
    "latitude": "38.391560",
    "longitude": "-113.015181",
    "mascot": "Tigers",
    "name": "Milford High School",
    "primary_color": "Red",
    "secondary_color": "White",
    "state": "UT",
    "timezone": "America/Denver",
    "updated_at": "2012-07-08T01:45:46Z",
    "zip": "84751"
  },
  {
    "address": "300 E 1500 S",
    "city": "Garland",
    "county": "Box Elder County",
    "created_at": "2012-01-04T20:17:58Z",
    "id": 24678,
    "latitude": "41.770444",
    "longitude": "-112.141429",
    "mascot": "Bear Cubs",
    "name": "Bear River Middle School",
    "primary_color": "Red",
    "secondary_color": "White",
    "state": "UT",
    "timezone": "America/Denver",
    "updated_at": "2012-07-08T01:45:46Z",
    "zip": "84312"
  },
  {
    "address": "1 W Buckaroo Blvd",
    "city": "Grouse Creek",
    "county": "Box Elder County",
    "created_at": "2012-01-04T20:17:58Z",
    "id": 24679,
    "latitude": "41.705406",
    "longitude": "-113.887457",
    "mascot": null,
    "name": "Grouse Creek School",
    "primary_color": null,
    "secondary_color": null,
    "state": "UT",
    "timezone": "America/Denver",
    "updated_at": "2012-07-08T01:45:46Z",
    "zip": "84313"
  },
  {
    "address": "788 Education Dr",
    "city": "Park Valley",
    "county": "Box Elder County",
    "created_at": "2012-01-04T20:17:58Z",
    "id": 24680,
    "latitude": "41.764857",
    "longitude": "-113.371726",
    "mascot": "Wildcats",
    "name": "Park Valley School",
    "primary_color": "Hunter Green",
    "secondary_color": "White",
    "state": "UT",
    "timezone": "America/Denver",
    "updated_at": "2012-07-08T01:45:47Z",
    "zip": "84329"
  },
  {
    "address": "151 Uintah St",
    "city": "Helper",
    "county": "Carbon County",
    "created_at": "2012-01-04T20:17:58Z",
    "id": 24681,
    "latitude": "39.691087",
    "longitude": "-110.859191",
    "mascot": "Rams",
    "name": "Helper Junior High School",
    "primary_color": "Red",
    "secondary_color": "Black",
    "state": "UT",
    "timezone": "America/Denver",
    "updated_at": "2012-07-08T01:45:47Z",
    "zip": "84526"
  },
  {
    "address": "755 N Cedar Hill Dr",
    "city": "Price",
    "county": "Carbon County",
    "created_at": "2012-01-04T20:17:58Z",
    "id": 24682,
    "latitude": "39.612654",
    "longitude": "-110.792394",
    "mascot": "Unicorns",
    "name": "Castle Valley Center",
    "primary_color": "Purple",
    "secondary_color": "White",
    "state": "UT",
    "timezone": "America/Denver",
    "updated_at": "2012-07-08T01:45:47Z",
    "zip": "84501"
  },
  {
    "address": "200 West Second North",
    "city": "Manila",
    "county": "Daggett County",
    "created_at": "2012-01-04T20:17:58Z",
    "id": 24683,
    "latitude": "40.992125",
    "longitude": "-109.718021",
    "mascot": "Mustangs",
    "name": "Manila Junior Senior High School",
    "primary_color": "Red",
    "secondary_color": "White",
    "state": "UT",
    "timezone": "America/Denver",
    "updated_at": "2012-07-08T01:45:48Z",
    "zip": "84046"
  },
  {
    "address": "695 S Orchard Dr",
    "city": "Bountiful",
    "county": "Davis County",
    "created_at": "2012-01-04T20:17:58Z",
    "id": 24684,
    "latitude": "40.882177",
    "longitude": "-111.872436",
    "mascot": "Braves",
    "name": "Bountiful High School",
    "primary_color": "Gray",
    "secondary_color": "Red",
    "state": "UT",
    "timezone": "America/Denver",
    "updated_at": "2012-07-08T01:45:48Z",
    "zip": "84010"
  },
  {
    "address": "30 W 400 N",
    "city": "Bountiful",
    "county": "Davis County",
    "created_at": "2012-01-04T20:17:58Z",
    "id": 24685,
    "latitude": "40.893664",
    "longitude": "-111.881255",
    "mascot": "Eagles",
    "name": "Bountiful Junior High School",
    "primary_color": "Royal",
    "secondary_color": "White",
    "state": "UT",
    "timezone": "America/Denver",
    "updated_at": "2012-07-08T01:45:48Z",
    "zip": "84010"
  },
  {
    "address": "931 S 1000 E",
    "city": "Clearfield",
    "county": "Davis County",
    "created_at": "2012-01-04T20:17:58Z",
    "id": 24686,
    "latitude": "41.100349",
    "longitude": "-112.006886",
    "mascot": "Falcons",
    "name": "Clearfield High School",
    "primary_color": "Kelly Green",
    "secondary_color": "White",
    "state": "UT",
    "timezone": "America/Denver",
    "updated_at": "2012-07-08T01:45:49Z",
    "zip": "84015"
  },
  {
    "address": "325 S Main St",
    "city": "Kaysville",
    "county": "Davis County",
    "created_at": "2012-01-04T20:17:58Z",
    "id": 24687,
    "latitude": "41.030053",
    "longitude": "-111.934701",
    "mascot": "Darts",
    "name": "Davis High School",
    "primary_color": "Brown",
    "secondary_color": "Gold",
    "state": "UT",
    "timezone": "America/Denver",
    "updated_at": "2012-07-08T01:45:49Z",
    "zip": "84037"
  },
  {
    "address": "245 E 1000 S",
    "city": "Bountiful",
    "county": "Davis County",
    "created_at": "2012-01-04T20:17:58Z",
    "id": 24688,
    "latitude": "40.879278",
    "longitude": "-111.875875",
    "mascot": "Mustangs",
    "name": "Millcreek Junior High School",
    "primary_color": "Black",
    "secondary_color": "White",
    "state": "UT",
    "timezone": "America/Denver",
    "updated_at": "2012-07-08T01:45:49Z",
    "zip": "84010"
  },
  {
    "address": "298 W 2600 S",
    "city": "Bountiful",
    "county": "Davis County",
    "created_at": "2012-01-04T20:17:58Z",
    "id": 24689,
    "latitude": "40.861608",
    "longitude": "-111.887912",
    "mascot": "Spartans",
    "name": "South Davis Junior High School",
    "primary_color": "Red",
    "secondary_color": "White",
    "state": "UT",
    "timezone": "America/Denver",
    "updated_at": "2012-07-08T01:45:50Z",
    "zip": "84010"
  },
  {
    "address": "600 W 2200 S",
    "city": "Woods Cross",
    "county": "Davis County",
    "created_at": "2012-01-04T20:17:58Z",
    "id": 24690,
    "latitude": "40.867378",
    "longitude": "-111.897484",
    "mascot": "Wildcats",
    "name": "Woods Cross High School",
    "primary_color": "Red",
    "secondary_color": "White",
    "state": "UT",
    "timezone": "America/Denver",
    "updated_at": "2012-07-08T01:45:50Z",
    "zip": "84087"
  },
  {
    "address": "1450 South 2000 West",
    "city": "Syracuse",
    "county": "Davis County",
    "created_at": "2012-01-04T20:17:58Z",
    "id": 24691,
    "latitude": "41.092264",
    "longitude": "-112.064641",
    "mascot": "Seahawks",
    "name": "Syracuse Junior High School",
    "primary_color": "Royal",
    "secondary_color": "Orange",
    "state": "UT",
    "timezone": "America/Denver",
    "updated_at": "2012-07-08T01:45:50Z",
    "zip": "84075"
  },
  {
    "address": "250 W Main St",
    "city": "Altamont",
    "county": "Duchesne County",
    "created_at": "2012-01-04T20:17:58Z",
    "id": 24692,
    "latitude": "40.359110",
    "longitude": "-110.451925",
    "mascot": "Longhorns",
    "name": "Altamont Junior Senior High School",
    "primary_color": "Red",
    "secondary_color": "Navy",
    "state": "UT",
    "timezone": "America/Denver",
    "updated_at": "2012-07-08T01:45:50Z",
    "zip": "84001"
  },
  {
    "address": "200 West Main",
    "city": "Duchesne",
    "county": "Duchesne County",
    "created_at": "2012-01-04T20:17:58Z",
    "id": 24693,
    "latitude": "40.163391",
    "longitude": "-110.405002",
    "mascot": "Eagles",
    "name": "Duchesne High School",
    "primary_color": "Navy",
    "secondary_color": "White",
    "state": "UT",
    "timezone": "America/Denver",
    "updated_at": "2012-07-08T01:45:51Z",
    "zip": "84021"
  },
  {
    "address": "Box 88",
    "city": "Myton",
    "county": "Duchesne County",
    "created_at": "2012-01-04T20:17:58Z",
    "id": 24694,
    "latitude": "40.135005",
    "longitude": "-110.059809",
    "mascot": "Cubs",
    "name": "Con Amore School",
    "primary_color": "Gray",
    "secondary_color": "Royal",
    "state": "UT",
    "timezone": "America/Denver",
    "updated_at": "2012-07-08T01:45:51Z",
    "zip": "84052"
  },
  {
    "address": "3087 S 7000 W",
    "city": "Roosevelt",
    "county": "Duchesne County",
    "created_at": "2012-01-04T20:17:58Z",
    "id": 24695,
    "latitude": "40.425177",
    "longitude": "-110.132017",
    "mascot": null,
    "name": "Thompsen School",
    "primary_color": "Black",
    "secondary_color": "White",
    "state": "UT",
    "timezone": "America/Denver",
    "updated_at": "2012-07-08T01:45:51Z",
    "zip": "84066"
  },
  {
    "address": "975 N Center St",
    "city": "Castle Dale",
    "county": "Emery County",
    "created_at": "2012-01-04T20:17:58Z",
    "id": 24696,
    "latitude": "39.227388",
    "longitude": "-111.019832",
    "mascot": "Spartans",
    "name": "Emery High School",
    "primary_color": "Gold",
    "secondary_color": "Black",
    "state": "UT",
    "timezone": "America/Denver",
    "updated_at": "2012-07-08T01:45:52Z",
    "zip": "84513"
  },
  {
    "address": "550 Canyon Rd",
    "city": "Huntington",
    "county": "Emery County",
    "created_at": "2012-01-04T20:17:58Z",
    "id": 24697,
    "latitude": "39.337245",
    "longitude": "-110.970343",
    "mascot": null,
    "name": "Canyon View Junior High School",
    "primary_color": "Red",
    "secondary_color": "White",
    "state": "UT",
    "timezone": "America/Denver",
    "updated_at": "2012-07-08T01:45:52Z",
    "zip": "84528"
  },
  {
    "address": "721 W Bryce Way",
    "city": "Tropic",
    "county": "Garfield County",
    "created_at": "2012-01-04T20:17:58Z",
    "id": 24698,
    "latitude": "37.625355",
    "longitude": "-112.082764",
    "mascot": "Mustangs",
    "name": "Bryce Valley High School",
    "primary_color": "Kelly Green",
    "secondary_color": "White",
    "state": "UT",
    "timezone": "America/Denver",
    "updated_at": "2012-07-08T01:45:52Z",
    "zip": "84776"
  },
  {
    "address": "608 S 400 E",
    "city": "Moab",
    "county": "Grand County",
    "created_at": "2012-01-04T20:17:58Z",
    "id": 24699,
    "latitude": "38.563632",
    "longitude": "-109.542886",
    "mascot": "Red Devils",
    "name": "Grand County High School",
    "primary_color": "Red",
    "secondary_color": "White",
    "state": "UT",
    "timezone": "America/Denver",
    "updated_at": "2012-07-08T01:45:52Z",
    "zip": "84532"
  },
  {
    "address": "50 W 100 N,",
    "city": "Parowan",
    "county": "Iron County",
    "created_at": "2012-01-04T20:17:58Z",
    "id": 24700,
    "latitude": "37.844273",
    "longitude": "-112.828710",
    "mascot": "Rams",
    "name": "Parowan High School",
    "primary_color": "Gold",
    "secondary_color": "Royal",
    "state": "UT",
    "timezone": "America/Denver",
    "updated_at": "2012-07-08T01:45:53Z",
    "zip": "84761"
  },
  {
    "address": "802 N 650 E",
    "city": "Nephi",
    "county": "Juab County",
    "created_at": "2012-01-04T20:17:58Z",
    "id": 24701,
    "latitude": "39.726933",
    "longitude": "-111.823591",
    "mascot": "Wasps",
    "name": "Juab High School",
    "primary_color": "Gold",
    "secondary_color": "Red",
    "state": "UT",
    "timezone": "America/Denver",
    "updated_at": "2012-07-08T01:45:53Z",
    "zip": "84648"
  },
  {
    "address": "525 East Main St.",
    "city": "Eureka",
    "county": "Juab County",
    "created_at": "2012-01-04T20:17:58Z",
    "id": 24702,
    "latitude": "39.959041",
    "longitude": "-112.103574",
    "mascot": "Miners",
    "name": "Tintic Junior Senior High School",
    "primary_color": "Royal",
    "secondary_color": "White",
    "state": "UT",
    "timezone": "America/Denver",
    "updated_at": "2012-07-08T01:45:53Z",
    "zip": "84628"
  },
  {
    "address": "440 Pony Express Rd",
    "city": "Trout Creek",
    "county": "Tooele County",
    "created_at": "2012-01-04T20:17:58Z",
    "id": 24703,
    "latitude": "40.085089",
    "longitude": "-113.847052",
    "mascot": "Hawks",
    "name": "West Desert School",
    "primary_color": "Maroon",
    "secondary_color": "White",
    "state": "UT",
    "timezone": "America/Denver",
    "updated_at": "2012-07-08T01:45:54Z",
    "zip": "84083"
  },
  {
    "address": "59 E Cowboy Ln",
    "city": "Kanab",
    "county": "Kane County",
    "created_at": "2012-01-04T20:17:58Z",
    "id": 24704,
    "latitude": "37.037650",
    "longitude": "-112.527657",
    "mascot": "Cowboys",
    "name": "Kanab High School",
    "primary_color": "Red",
    "secondary_color": "White",
    "state": "UT",
    "timezone": "America/Denver",
    "updated_at": "2012-07-08T01:45:54Z",
    "zip": "84741"
  },
  {
    "address": "150 N Center St",
    "city": "Orderville",
    "county": "Kane County",
    "created_at": "2012-01-04T20:17:58Z",
    "id": 24705,
    "latitude": "37.278555",
    "longitude": "-112.638674",
    "mascot": "Buffalos",
    "name": "Valley High School",
    "primary_color": "Orange",
    "secondary_color": "Black",
    "state": "UT",
    "timezone": "America/Denver",
    "updated_at": "2012-07-08T01:45:54Z",
    "zip": "84758"
  },
  {
    "address": "1000 Ferry Rd",
    "city": "Lake Powell",
    "county": "San Juan County",
    "created_at": "2012-01-04T20:17:58Z",
    "id": 24706,
    "latitude": "37.455717",
    "longitude": "-110.713783",
    "mascot": "Scorpions",
    "name": "Lake Powell School",
    "primary_color": "Red",
    "secondary_color": "Black",
    "state": "UT",
    "timezone": "America/Denver",
    "updated_at": "2012-07-08T01:45:54Z",
    "zip": "84533"
  },
  {
    "address": "50 W 300 N",
    "city": "Delta",
    "county": "Millard County",
    "created_at": "2012-01-04T20:17:58Z",
    "id": 24707,
    "latitude": "39.357358",
    "longitude": "-112.575864",
    "mascot": "Rabbits",
    "name": "Delta High School",
    "primary_color": "Red",
    "secondary_color": "White",
    "state": "UT",
    "timezone": "America/Denver",
    "updated_at": "2012-07-08T01:45:55Z",
    "zip": "84624"
  },
  {
    "address": "200 W Center",
    "city": "Fillmore",
    "county": "Millard County",
    "created_at": "2012-01-04T20:17:58Z",
    "id": 24708,
    "latitude": "39.245058",
    "longitude": "-112.099607",
    "mascot": "Eagles",
    "name": "Millard High School",
    "primary_color": "Royal",
    "secondary_color": "White",
    "state": "UT",
    "timezone": "America/Denver",
    "updated_at": "2012-07-08T01:45:55Z",
    "zip": "84631"
  },
  {
    "address": "550 N 100 W",
    "city": "Junction",
    "county": "Piute County",
    "created_at": "2012-01-04T20:17:58Z",
    "id": 24709,
    "latitude": "38.234680",
    "longitude": "-112.221792",
    "mascot": "Thunder Birds",
    "name": "Piute High School",
    "primary_color": "Columbia Blue",
    "secondary_color": "Red",
    "state": "UT",
    "timezone": "America/Denver",
    "updated_at": "2012-07-08T01:45:56Z",
    "zip": "84740"
  },
  {
    "address": "125 W Church St",
    "city": "Randolph",
    "county": "Rich County",
    "created_at": "2012-01-04T20:17:58Z",
    "id": 24710,
    "latitude": "41.665540",
    "longitude": "-111.184929",
    "mascot": "Rebels",
    "name": "Rich High School",
    "primary_color": "Royal",
    "secondary_color": "White",
    "state": "UT",
    "timezone": "America/Denver",
    "updated_at": "2012-07-08T01:45:56Z",
    "zip": "84064"
  },
  {
    "address": "7530 S 2700 E",
    "city": "Salt Lake City",
    "county": "Salt Lake County",
    "created_at": "2012-01-04T20:17:58Z",
    "id": 24711,
    "latitude": "40.614293",
    "longitude": "-111.815347",
    "mascot": "Bruins",
    "name": "Butler Middle School",
    "primary_color": "Royal",
    "secondary_color": "White",
    "state": "UT",
    "timezone": "America/Denver",
    "updated_at": "2012-07-08T01:45:56Z",
    "zip": "84121"
  },
  {
    "address": "95 E Beetdigger Blvd (9825 S)",
    "city": "Sandy",
    "county": "Salt Lake County",
    "created_at": "2012-01-04T20:17:58Z",
    "id": 24712,
    "latitude": "40.571593",
    "longitude": "-111.887534",
    "mascot": "Beetdiggers",
    "name": "Jordan High School",
    "primary_color": "Gray",
    "secondary_color": "Maroon",
    "state": "UT",
    "timezone": "America/Denver",
    "updated_at": "2012-07-08T01:45:57Z",
    "zip": "84070"
  },
  {
    "address": "7852 Pioneer St",
    "city": "Midvale",
    "county": "Salt Lake County",
    "created_at": "2012-01-04T20:17:58Z",
    "id": 24713,
    "latitude": "40.608439",
    "longitude": "-111.899678",
    "mascot": "Trojans",
    "name": "Midvale Middle School",
    "primary_color": "Maroon",
    "secondary_color": "Gray",
    "state": "UT",
    "timezone": "America/Denver",
    "updated_at": "2012-07-08T01:45:57Z",
    "zip": "84047"
  },
  {
    "address": "615 E 8000 S",
    "city": "Sandy",
    "county": "Salt Lake County",
    "created_at": "2012-01-04T20:17:58Z",
    "id": 24714,
    "latitude": "40.605886",
    "longitude": "-111.874105",
    "mascot": "Bobcats",
    "name": "Union Middle School",
    "primary_color": "Gold",
    "secondary_color": "Black",
    "state": "UT",
    "timezone": "America/Denver",
    "updated_at": "2012-07-08T01:45:57Z",
    "zip": "84070"
  },
  {
    "address": "7550 S 1700 W",
    "city": "West Jordan",
    "county": "Salt Lake County",
    "created_at": "2012-01-04T20:17:58Z",
    "id": 24715,
    "latitude": "40.623690",
    "longitude": "-111.960533",
    "mascot": "Lions",
    "name": "West Jordan Middle School",
    "primary_color": "White",
    "secondary_color": "Hunter Green",
    "state": "UT",
    "timezone": "America/Denver",
    "updated_at": "2012-07-08T01:45:58Z",
    "zip": "84084"
  },
  {
    "address": "2220 E Bengal Blvd",
    "city": "Salt Lake City",
    "county": "Salt Lake County",
    "created_at": "2012-01-04T20:17:58Z",
    "id": 24716,
    "latitude": "40.613108",
    "longitude": "-111.827228",
    "mascot": "Bengal Tigers",
    "name": "Brighton Senior High School",
    "primary_color": "Orange",
    "secondary_color": "Royal",
    "state": "UT",
    "timezone": "America/Denver",
    "updated_at": "2012-07-08T01:45:58Z",
    "zip": "84121"
  },
  {
    "address": "2160 W 10400 S",
    "city": "South Jordan",
    "county": "Salt Lake County",
    "created_at": "2012-01-04T20:17:58Z",
    "id": 24717,
    "latitude": "40.562271",
    "longitude": "-111.947239",
    "mascot": "Miners",
    "name": "Bingham High School",
    "primary_color": "Royal",
    "secondary_color": "White",
    "state": "UT",
    "timezone": "America/Denver",
    "updated_at": "2012-07-08T01:45:58Z",
    "zip": "84095"
  },
  {
    "address": "11055 S Hawk Hwy",
    "city": "Sandy",
    "county": "Salt Lake County",
    "created_at": "2012-01-04T20:17:58Z",
    "id": 24718,
    "latitude": "40.573084",
    "longitude": "-111.862474",
    "mascot": "Hawks",
    "name": "Alta High School",
    "primary_color": "Red",
    "secondary_color": "Black",
    "state": "UT",
    "timezone": "America/Denver",
    "updated_at": "2012-07-08T01:45:59Z",
    "zip": "84094"
  },
  {
    "address": "1180 E Sanders Rd",
    "city": "Sandy",
    "county": "Salt Lake County",
    "created_at": "2012-01-04T20:17:58Z",
    "id": 24719,
    "latitude": "40.540601",
    "longitude": "-111.856605",
    "mascot": null,
    "name": "Indian Hills Middle School",
    "primary_color": "Gray",
    "secondary_color": "Navy",
    "state": "UT",
    "timezone": "America/Denver",
    "updated_at": "2012-07-08T01:45:59Z",
    "zip": "84094"
  },
  {
    "address": "12949 S 2700 W",
    "city": "Riverton",
    "county": "Salt Lake County",
    "created_at": "2012-01-04T20:17:59Z",
    "id": 24720,
    "latitude": "40.515902",
    "longitude": "-111.957691",
    "mascot": "Eagles",
    "name": "Oquirrh Hills Middle School",
    "primary_color": "Gray",
    "secondary_color": "Royal",
    "state": "UT",
    "timezone": "America/Denver",
    "updated_at": "2012-07-08T01:46:00Z",
    "zip": "84065"
  },
  {
    "address": "11020 S State",
    "city": "Sandy",
    "county": "Salt Lake County",
    "created_at": "2012-01-04T20:17:59Z",
    "id": 24721,
    "latitude": "40.551119",
    "longitude": "-111.890842",
    "mascot": "Owls",
    "name": "Valley High School",
    "primary_color": "Royal",
    "secondary_color": "White",
    "state": "UT",
    "timezone": "America/Denver",
    "updated_at": "2012-07-08T01:46:00Z",
    "zip": "84070"
  },
  {
    "address": "8136 S 2700 W",
    "city": "West Jordan",
    "county": "Salt Lake County",
    "created_at": "2012-01-04T20:17:59Z",
    "id": 24722,
    "latitude": "40.602678",
    "longitude": "-111.957817",
    "mascot": "Jaguars",
    "name": "West Jordan High School",
    "primary_color": "Columbia Blue",
    "secondary_color": "Black",
    "state": "UT",
    "timezone": "America/Denver",
    "updated_at": "2012-07-08T01:46:00Z",
    "zip": "84088"
  },
  {
    "address": "2755 E Newcastle Dr",
    "city": "Sandy",
    "county": "Salt Lake County",
    "created_at": "2012-01-04T20:17:59Z",
    "id": 24723,
    "latitude": "40.585761",
    "longitude": "-111.813396",
    "mascot": "Knights",
    "name": "Albion Middle School",
    "primary_color": "Gray",
    "secondary_color": "Purple",
    "state": "UT",
    "timezone": "America/Denver",
    "updated_at": "2012-07-08T01:46:00Z",
    "zip": "84093"
  },
  {
    "address": "8105 S 3200 W",
    "city": "West Jordan",
    "county": "Salt Lake County",
    "created_at": "2012-01-04T20:17:59Z",
    "id": 24724,
    "latitude": "40.604829",
    "longitude": "-111.967323",
    "mascot": "Panthers",
    "name": "Joel P Jensen Middle School",
    "primary_color": "Orange",
    "secondary_color": "Royal",
    "state": "UT",
    "timezone": "America/Denver",
    "updated_at": "2012-07-08T01:46:01Z",
    "zip": "84088"
  },
  {
    "address": "11150 S 300 E",
    "city": "Sandy",
    "county": "Salt Lake County",
    "created_at": "2012-01-04T20:17:59Z",
    "id": 24725,
    "latitude": "40.550945",
    "longitude": "-111.881092",
    "mascot": null,
    "name": "Crescent View Middle School",
    "primary_color": "Royal",
    "secondary_color": "Gray",
    "state": "UT",
    "timezone": "America/Denver",
    "updated_at": "2012-07-08T01:46:01Z",
    "zip": "84070"
  },
  {
    "address": "10245 S 2700 W",
    "city": "South Jordan",
    "county": "Salt Lake County",
    "created_at": "2012-01-04T20:17:59Z",
    "id": 24726,
    "latitude": "40.565604",
    "longitude": "-111.957777",
    "mascot": null,
    "name": "South Jordan Middle School",
    "primary_color": "Gray",
    "secondary_color": "Navy",
    "state": "UT",
    "timezone": "America/Denver",
    "updated_at": "2012-07-08T01:46:02Z",
    "zip": "84095"
  },
  {
    "address": "2166 S 1700 E",
    "city": "Salt Lake City",
    "county": "Salt Lake County",
    "created_at": "2012-01-04T20:17:59Z",
    "id": 24727,
    "latitude": "40.724067",
    "longitude": "-111.841995",
    "mascot": "Highland Rams",
    "name": "Highland High School",
    "primary_color": "Black",
    "secondary_color": "White",
    "state": "UT",
    "timezone": "America/Denver",
    "updated_at": "2012-07-08T01:46:02Z",
    "zip": "84106"
  },
  {
    "address": "5330 S 1660 E",
    "city": "Salt Lake City",
    "county": "Salt Lake County",
    "created_at": "2012-01-04T20:17:59Z",
    "id": 24728,
    "latitude": "40.633700",
    "longitude": "-111.844919",
    "mascot": "Vikings",
    "name": "Bonneville Junior High School",
    "primary_color": "Purple",
    "secondary_color": "White",
    "state": "UT",
    "timezone": "America/Denver",
    "updated_at": "2012-07-08T01:46:03Z",
    "zip": "84117"
  },
  {
    "address": "2217 E 4800 S",
    "city": "Salt Lake City",
    "county": "Salt Lake County",
    "created_at": "2012-01-04T20:17:59Z",
    "id": 24729,
    "latitude": "40.666000",
    "longitude": "-111.866349",
    "mascot": "Bulldogs",
    "name": "Olympus Junior High School",
    "primary_color": "Gray",
    "secondary_color": "Royal",
    "state": "UT",
    "timezone": "America/Denver",
    "updated_at": "2012-07-08T01:46:04Z",
    "zip": "84117"
  },
  {
    "address": "4040 W 5305 S",
    "city": "Salt Lake City",
    "county": "Salt Lake County",
    "created_at": "2012-01-04T20:17:59Z",
    "id": 24730,
    "latitude": "40.665180",
    "longitude": "-111.985619",
    "mascot": null,
    "name": "Kearns Junior High School",
    "primary_color": "Black",
    "secondary_color": "Yellow",
    "state": "UT",
    "timezone": "America/Denver",
    "updated_at": "2012-07-08T01:46:05Z",
    "zip": "84118"
  },
  {
    "address": "5850 S 5600 W",
    "city": "Kearns",
    "county": "Salt Lake County",
    "created_at": "2012-01-04T20:17:59Z",
    "id": 24731,
    "latitude": "40.645010",
    "longitude": "-112.024612",
    "mascot": "Patriots",
    "name": "Thomas Jefferson Junior High School",
    "primary_color": "Maroon",
    "secondary_color": "Gray",
    "state": "UT",
    "timezone": "America/Denver",
    "updated_at": "2012-07-08T01:46:05Z",
    "zip": "84118"
  },
  {
    "address": "3450 Oakview Dr",
    "city": "Salt Lake City",
    "county": "Salt Lake County",
    "created_at": "2012-01-04T20:17:59Z",
    "id": 24732,
    "latitude": "40.678492",
    "longitude": "-111.797526",
    "mascot": null,
    "name": "Churchill Junior High School",
    "primary_color": "Columbia Blue",
    "secondary_color": "Navy",
    "state": "UT",
    "timezone": "America/Denver",
    "updated_at": "2012-07-08T01:46:06Z",
    "zip": "84124"
  },
  {
    "address": "4195 S 3200 W",
    "city": "Salt Lake City",
    "county": "Salt Lake County",
    "created_at": "2012-01-04T20:17:59Z",
    "id": 24733,
    "latitude": "40.680105",
    "longitude": "-111.967501",
    "mascot": null,
    "name": "Valley Junior High School",
    "primary_color": "Royal",
    "secondary_color": "White",
    "state": "UT",
    "timezone": "America/Denver",
    "updated_at": "2012-07-08T01:46:07Z",
    "zip": "84119"
  },
  {
    "address": "3750 S 3100 E",
    "city": "Salt Lake City",
    "county": "Salt Lake County",
    "created_at": "2012-01-04T20:17:59Z",
    "id": 24734,
    "latitude": "40.689938",
    "longitude": "-111.805447",
    "mascot": null,
    "name": "Wasatch Junior High School",
    "primary_color": "Gold",
    "secondary_color": "Royal",
    "state": "UT",
    "timezone": "America/Denver",
    "updated_at": "2012-07-08T01:46:08Z",
    "zip": "84109"
  },
  {
    "address": "3400 S 3450 W",
    "city": "West Valley City",
    "county": "Salt Lake County",
    "created_at": "2012-01-04T20:17:59Z",
    "id": 24735,
    "latitude": "40.698570",
    "longitude": "-111.973537",
    "mascot": null,
    "name": "West Lake Junior High School",
    "primary_color": "Gold",
    "secondary_color": "Black",
    "state": "UT",
    "timezone": "America/Denver",
    "updated_at": "2012-07-08T01:46:08Z",
    "zip": "84119"
  },
  {
    "address": "501 E 3900 S",
    "city": "Salt Lake City",
    "county": "Salt Lake County",
    "created_at": "2012-01-04T20:17:59Z",
    "id": 24736,
    "latitude": "40.687078",
    "longitude": "-111.876584",
    "mascot": "Foxes",
    "name": "Central High School",
    "primary_color": "Royal",
    "secondary_color": "White",
    "state": "UT",
    "timezone": "America/Denver",
    "updated_at": "2012-07-08T01:46:08Z",
    "zip": "84107"
  },
  {
    "address": "8623 W 3000 S",
    "city": "Magna",
    "county": "Salt Lake County",
    "created_at": "2012-01-04T20:17:59Z",
    "id": 24737,
    "latitude": "40.706040",
    "longitude": "-112.099812",
    "mascot": "Pirates",
    "name": "Cyprus Senior High School",
    "primary_color": "Gold",
    "secondary_color": "Royal",
    "state": "UT",
    "timezone": "America/Denver",
    "updated_at": "2012-07-08T01:46:09Z",
    "zip": "84044"
  },
  {
    "address": "3690 S 3600 W",
    "city": "West Valley City",
    "county": "Salt Lake County",
    "created_at": "2012-01-04T20:17:59Z",
    "id": 24738,
    "latitude": "40.692031",
    "longitude": "-111.977097",
    "mascot": "Lancers",
    "name": "Granger Senior High School",
    "primary_color": "Red",
    "secondary_color": "Royal",
    "state": "UT",
    "timezone": "America/Denver",
    "updated_at": "2012-07-08T01:46:10Z",
    "zip": "84119"
  },
  {
    "address": "3305 S 500 E",
    "city": "Salt Lake City",
    "county": "Salt Lake County",
    "created_at": "2012-01-04T20:17:59Z",
    "id": 24739,
    "latitude": "40.699655",
    "longitude": "-111.876934",
    "mascot": "Farmers",
    "name": "Granite Senior High School",
    "primary_color": "Red",
    "secondary_color": "Royal",
    "state": "UT",
    "timezone": "America/Denver",
    "updated_at": "2012-07-08T01:46:13Z",
    "zip": "84106"
  },
  {
    "address": "5715 S 1300 E",
    "city": "Salt Lake City",
    "county": "Salt Lake County",
    "created_at": "2012-01-04T20:17:59Z",
    "id": 24740,
    "latitude": "40.647463",
    "longitude": "-111.854522",
    "mascot": "Colts",
    "name": "Cottonwood Senior High School",
    "primary_color": "Gold",
    "secondary_color": "Black",
    "state": "UT",
    "timezone": "America/Denver",
    "updated_at": "2012-07-08T01:46:14Z",
    "zip": "84121"
  },
  {
    "address": "5525 S Cougar Ln",
    "city": "Kearns",
    "county": "Salt Lake County",
    "created_at": "2012-01-04T20:17:59Z",
    "id": 24741,
    "latitude": "40.650404",
    "longitude": "-112.005582",
    "mascot": "Cougars",
    "name": "Kearns Senior High School",
    "primary_color": "Gold",
    "secondary_color": "Hunter Green",
    "state": "UT",
    "timezone": "America/Denver",
    "updated_at": "2012-07-08T01:46:14Z",
    "zip": "84118"
  },
  {
    "address": "4055 S 2300th E",
    "city": "Salt Lake City",
    "county": "Salt Lake County",
    "created_at": "2012-01-04T20:17:59Z",
    "id": 24742,
    "latitude": "40.683665",
    "longitude": "-111.824518",
    "mascot": "Titans",
    "name": "Olympus Senior High School",
    "primary_color": "Gray",
    "secondary_color": "Kelly Green",
    "state": "UT",
    "timezone": "America/Denver",
    "updated_at": "2012-07-08T01:46:15Z",
    "zip": "84124"
  },
  {
    "address": "264 S 200 W",
    "city": "Monticello",
    "county": "San Juan County",
    "created_at": "2012-01-04T20:17:59Z",
    "id": 24743,
    "latitude": "37.868881",
    "longitude": "-109.346493",
    "mascot": "Buckaroos",
    "name": "Monticello High School",
    "primary_color": "Orange",
    "secondary_color": "Black",
    "state": "UT",
    "timezone": "America/Denver",
    "updated_at": "2012-07-08T01:46:16Z",
    "zip": "84535"
  },
  {
    "address": "311 N Bronco Blvd",
    "city": "Blanding",
    "county": "San Juan County",
    "created_at": "2012-01-04T20:17:59Z",
    "id": 24744,
    "latitude": "37.584185",
    "longitude": "-109.650097",
    "mascot": "Broncos",
    "name": "San Juan High School",
    "primary_color": "Gold",
    "secondary_color": "Royal",
    "state": "UT",
    "timezone": "America/Denver",
    "updated_at": "2012-07-08T01:46:16Z",
    "zip": "84511"
  },
  {
    "address": "300 W 100 N Hwy 163",
    "city": "Montezuma Creek",
    "county": "San Juan County",
    "created_at": "2012-01-04T20:17:59Z",
    "id": 24745,
    "latitude": "37.263085",
    "longitude": "-109.305960",
    "mascot": "Raiders",
    "name": "Whitehorse High School",
    "primary_color": "Gold",
    "secondary_color": "Black",
    "state": "UT",
    "timezone": "America/Denver",
    "updated_at": "2012-07-08T01:46:16Z",
    "zip": "84534"
  },
  {
    "address": "P.O. Box 360008",
    "city": "Monument Valley",
    "county": "San Juan County",
    "created_at": "2012-01-04T20:17:59Z",
    "id": 24746,
    "latitude": "37.063352",
    "longitude": "-110.376484",
    "mascot": "Cougars",
    "name": "Monument Valley Junior Senior High",
    "primary_color": "Purple",
    "secondary_color": "Gold",
    "state": "UT",
    "timezone": "America/Denver",
    "updated_at": "2012-07-08T01:46:17Z",
    "zip": "84536"
  },
  {
    "address": "100 W 500 N",
    "city": "Manti",
    "county": "Sanpete County",
    "created_at": "2012-01-04T20:17:59Z",
    "id": 24747,
    "latitude": "39.272690",
    "longitude": "-111.640879",
    "mascot": "Templars",
    "name": "Manti High School",
    "primary_color": "Red",
    "secondary_color": "White",
    "state": "UT",
    "timezone": "America/Denver",
    "updated_at": "2012-07-08T01:46:17Z",
    "zip": "84642"
  },
  {
    "address": "350 W 400 N",
    "city": "Salina",
    "county": "Sevier County",
    "created_at": "2012-01-04T20:17:59Z",
    "id": 24748,
    "latitude": "38.963249",
    "longitude": "-111.866163",
    "mascot": "Wolves",
    "name": "North Sevier High School",
    "primary_color": "Royal",
    "secondary_color": "Red",
    "state": "UT",
    "timezone": "America/Denver",
    "updated_at": "2012-07-08T01:46:17Z",
    "zip": "84654"
  },
  {
    "address": "510 W 100 S",
    "city": "Richfield",
    "county": "Sevier County",
    "created_at": "2012-01-04T20:17:59Z",
    "id": 24749,
    "latitude": "38.766688",
    "longitude": "-112.093851",
    "mascot": "Wildcats",
    "name": "Richfield High School",
    "primary_color": "Red",
    "secondary_color": "Royal",
    "state": "UT",
    "timezone": "America/Denver",
    "updated_at": "2012-07-08T01:46:18Z",
    "zip": "84701"
  },
  {
    "address": "430 W 100 S",
    "city": "Monroe",
    "county": "Sevier County",
    "created_at": "2012-01-04T20:17:59Z",
    "id": 24750,
    "latitude": "38.629815",
    "longitude": "-112.130287",
    "mascot": "Rams",
    "name": "South Sevier High School",
    "primary_color": "Red",
    "secondary_color": "White",
    "state": "UT",
    "timezone": "America/Denver",
    "updated_at": "2012-07-08T01:46:18Z",
    "zip": "84754"
  },
  {
    "address": "Bldg. 5020 5th St",
    "city": "Dugway",
    "county": "Tooele County",
    "created_at": "2012-01-04T20:17:59Z",
    "id": 24751,
    "latitude": "40.386750",
    "longitude": "-112.801620",
    "mascot": "Mustangs",
    "name": "Dugway High School",
    "primary_color": "Maroon",
    "secondary_color": "White",
    "state": "UT",
    "timezone": "America/Denver",
    "updated_at": "2012-07-08T01:46:18Z",
    "zip": "84022"
  },
  {
    "address": "555 E Vine St",
    "city": "Tooele",
    "county": "Tooele County",
    "created_at": "2012-01-04T20:17:59Z",
    "id": 24752,
    "latitude": "40.530503",
    "longitude": "-112.283897",
    "mascot": null,
    "name": "Oquirrh Hills School",
    "primary_color": null,
    "secondary_color": null,
    "state": "UT",
    "timezone": "America/Denver",
    "updated_at": "2012-07-08T01:46:19Z",
    "zip": "84074"
  },
  {
    "address": "Building S 110 Tooele Depot St",
    "city": "Tooele",
    "county": "Tooele County",
    "created_at": "2012-01-04T20:17:59Z",
    "id": 24753,
    "latitude": "40.560672",
    "longitude": "-112.307527",
    "mascot": null,
    "name": "Tooele Valley High School",
    "primary_color": null,
    "secondary_color": null,
    "state": "UT",
    "timezone": "America/Denver",
    "updated_at": "2012-07-08T01:46:19Z",
    "zip": "84074"
  },
  {
    "address": "510 N 600 E",
    "city": "American Fork",
    "county": "Utah County",
    "created_at": "2012-01-04T20:17:59Z",
    "id": 24754,
    "latitude": "40.387021",
    "longitude": "-111.782410",
    "mascot": "Cavemen",
    "name": "American Fork Senior High School",
    "primary_color": "Red",
    "secondary_color": "White",
    "state": "UT",
    "timezone": "America/Denver",
    "updated_at": "2012-07-08T01:46:19Z",
    "zip": "84003"
  },
  {
    "address": "180 N 500 E",
    "city": "Lehi",
    "county": "Utah County",
    "created_at": "2012-01-04T20:17:59Z",
    "id": 24755,
    "latitude": "40.390171",
    "longitude": "-111.841061",
    "mascot": null,
    "name": "Lehi Senior High School",
    "primary_color": "Purple",
    "secondary_color": "White",
    "state": "UT",
    "timezone": "America/Denver",
    "updated_at": "2012-07-08T01:46:20Z",
    "zip": "84043"
  },
  {
    "address": "700 E Cedar Hollow Rd",
    "city": "Lehi",
    "county": "Utah County",
    "created_at": "2012-01-04T20:17:59Z",
    "id": 24756,
    "latitude": "40.404508",
    "longitude": "-111.837681",
    "mascot": "Pioneers",
    "name": "Lehi Junior High School",
    "primary_color": "Purple",
    "secondary_color": "White",
    "state": "UT",
    "timezone": "America/Denver",
    "updated_at": "2012-07-08T01:46:20Z",
    "zip": "84043"
  },
  {
    "address": "951 S 400 W",
    "city": "Orem",
    "county": "Utah County",
    "created_at": "2012-01-04T20:17:59Z",
    "id": 24757,
    "latitude": "40.280092",
    "longitude": "-111.704876",
    "mascot": "Leopards",
    "name": "Lakeridge Junior High School",
    "primary_color": "Gold",
    "secondary_color": "Maroon",
    "state": "UT",
    "timezone": "America/Denver",
    "updated_at": "2012-07-08T01:46:20Z",
    "zip": "84058"
  },
  {
    "address": "665 W Center St",
    "city": "Orem",
    "county": "Utah County",
    "created_at": "2012-01-04T20:17:59Z",
    "id": 24758,
    "latitude": "40.297159",
    "longitude": "-111.711111",
    "mascot": "Bruins",
    "name": "Mountain View Senior High School",
    "primary_color": "Gold",
    "secondary_color": "Red",
    "state": "UT",
    "timezone": "America/Denver",
    "updated_at": "2012-07-08T01:46:21Z",
    "zip": "84057"
  },
  {
    "address": "175 S 400 E",
    "city": "Orem",
    "county": "Utah County",
    "created_at": "2012-01-04T20:17:59Z",
    "id": 24759,
    "latitude": "40.293840",
    "longitude": "-111.685873",
    "mascot": "Tigers",
    "name": "Orem Senior High School",
    "primary_color": "Yellow",
    "secondary_color": "Royal",
    "state": "UT",
    "timezone": "America/Denver",
    "updated_at": "2012-07-08T01:46:21Z",
    "zip": "84097"
  },
  {
    "address": "810 N 100 E",
    "city": "Pleasant Grove",
    "county": "Utah County",
    "created_at": "2012-01-04T20:17:59Z",
    "id": 24760,
    "latitude": "40.372153",
    "longitude": "-111.739852",
    "mascot": "Vikings",
    "name": "Pleasant Grove Junior High School",
    "primary_color": "Royal",
    "secondary_color": "White",
    "state": "UT",
    "timezone": "America/Denver",
    "updated_at": "2012-07-08T01:46:21Z",
    "zip": "84062"
  },
  {
    "address": "655 E 950 N",
    "city": "Orem",
    "county": "Utah County",
    "created_at": "2012-01-04T20:17:59Z",
    "id": 24761,
    "latitude": "40.314754",
    "longitude": "-111.680347",
    "mascot": "Falcons",
    "name": "Canyon View Junior High School",
    "primary_color": "Royal",
    "secondary_color": "White",
    "state": "UT",
    "timezone": "America/Denver",
    "updated_at": "2012-07-08T01:46:22Z",
    "zip": "84097"
  },
  {
    "address": "86 E 100 S",
    "city": "Pleasant Grove",
    "county": "Utah County",
    "created_at": "2012-01-04T20:17:59Z",
    "id": 24762,
    "latitude": "40.362460",
    "longitude": "-111.739234",
    "mascot": null,
    "name": "Young Mothers High School",
    "primary_color": null,
    "secondary_color": null,
    "state": "UT",
    "timezone": "America/Denver",
    "updated_at": "2012-07-08T01:46:22Z",
    "zip": "84062"
  },
  {
    "address": "1205 E 900 S",
    "city": "Springville",
    "county": "Utah County",
    "created_at": "2012-01-04T20:17:59Z",
    "id": 24763,
    "latitude": "40.154252",
    "longitude": "-111.588337",
    "mascot": "Red Devils",
    "name": "Springville Senior High School",
    "primary_color": "Red",
    "secondary_color": "Royal",
    "state": "UT",
    "timezone": "America/Denver",
    "updated_at": "2012-07-08T01:46:23Z",
    "zip": "84663"
  },
  {
    "address": "320 S Main St",
    "city": "Spanish Fork",
    "county": "Utah County",
    "created_at": "2012-01-04T20:17:59Z",
    "id": 24764,
    "latitude": "40.105525",
    "longitude": "-111.654838",
    "mascot": "Dragons",
    "name": "Landmark High School",
    "primary_color": "Black",
    "secondary_color": "Gold",
    "state": "UT",
    "timezone": "America/Denver",
    "updated_at": "2012-07-08T01:46:23Z",
    "zip": "84660"
  },
  {
    "address": "3570 Timpview Dr",
    "city": "Provo",
    "county": "Utah County",
    "created_at": "2012-01-04T20:17:59Z",
    "id": 24765,
    "latitude": "40.280878",
    "longitude": "-111.647652",
    "mascot": "Thunder Birds",
    "name": "Timpview High School",
    "primary_color": "Orange",
    "secondary_color": "White",
    "state": "UT",
    "timezone": "America/Denver",
    "updated_at": "2012-07-08T01:46:23Z",
    "zip": "84604"
  },
  {
    "address": "1165 Birch Ln",
    "city": "Provo",
    "county": "Utah County",
    "created_at": "2012-01-04T20:17:59Z",
    "id": 24766,
    "latitude": "40.249017",
    "longitude": "-111.639736",
    "mascot": null,
    "name": "Oakridge School",
    "primary_color": "Gold",
    "secondary_color": "Royal",
    "state": "UT",
    "timezone": "America/Denver",
    "updated_at": "2012-07-08T01:46:23Z",
    "zip": "84604"
  },
  {
    "address": "64 E 600 S",
    "city": "Heber City",
    "county": "Wasatch County",
    "created_at": "2012-01-04T20:17:59Z",
    "id": 24767,
    "latitude": "40.500286",
    "longitude": "-111.412459",
    "mascot": "Wasps",
    "name": "Wasatch High School",
    "primary_color": "Black",
    "secondary_color": "Gold",
    "state": "UT",
    "timezone": "America/Denver",
    "updated_at": "2012-07-08T01:46:24Z",
    "zip": "84032"
  },
  {
    "address": "350 E 700 S",
    "city": "Saint George",
    "county": "Washington County",
    "created_at": "2012-01-04T20:17:59Z",
    "id": 24768,
    "latitude": "37.096287",
    "longitude": "-113.575907",
    "mascot": "Flyers",
    "name": "Dixie High School",
    "primary_color": "Royal",
    "secondary_color": "White",
    "state": "UT",
    "timezone": "America/Denver",
    "updated_at": "2012-07-08T01:46:24Z",
    "zip": "84770"
  },
  {
    "address": "345 W 100 S,",
    "city": "Hurricane",
    "county": "Washington County",
    "created_at": "2012-01-04T20:17:59Z",
    "id": 24769,
    "latitude": "37.175027",
    "longitude": "-113.294329",
    "mascot": "Tigers",
    "name": "Hurricane High School",
    "primary_color": "Red",
    "secondary_color": "Black",
    "state": "UT",
    "timezone": "America/Denver",
    "updated_at": "2012-07-08T01:46:24Z",
    "zip": "84737"
  },
  {
    "address": "2410 E Riverside Dr",
    "city": "Washington",
    "county": "Washington County",
    "created_at": "2012-01-04T20:17:59Z",
    "id": 24770,
    "latitude": "37.103827",
    "longitude": "-113.531103",
    "mascot": null,
    "name": "Millcreek High School",
    "primary_color": "Kelly Green",
    "secondary_color": "White",
    "state": "UT",
    "timezone": "America/Denver",
    "updated_at": "2012-07-08T01:46:25Z",
    "zip": "84790"
  },
  {
    "address": "800 Jackson Ave",
    "city": "Ogden",
    "county": "Weber County",
    "created_at": "2012-01-04T20:17:59Z",
    "id": 24771,
    "latitude": "41.249928",
    "longitude": "-111.952352",
    "mascot": "Scots",
    "name": "Ben Lomond High School",
    "primary_color": "Red",
    "secondary_color": "Royal",
    "state": "UT",
    "timezone": "America/Denver",
    "updated_at": "2012-07-08T01:46:25Z",
    "zip": "84404"
  },
  {
    "address": "790 W 12th St",
    "city": "Ogden",
    "county": "Weber County",
    "created_at": "2012-01-04T20:17:59Z",
    "id": 24772,
    "latitude": "41.244518",
    "longitude": "-111.998159",
    "mascot": null,
    "name": "Mill Creek Youth Center",
    "primary_color": "Red",
    "secondary_color": "White",
    "state": "UT",
    "timezone": "America/Denver",
    "updated_at": "2012-07-08T01:46:25Z",
    "zip": "84404"
  },
  {
    "address": "251 E 4800 S",
    "city": "Ogden",
    "county": "Weber County",
    "created_at": "2012-01-04T20:17:59Z",
    "id": 24773,
    "latitude": "41.176065",
    "longitude": "-111.974674",
    "mascot": "Lakers",
    "name": "Bonneville Senior High School",
    "primary_color": "Royal",
    "secondary_color": "Gold",
    "state": "UT",
    "timezone": "America/Denver",
    "updated_at": "2012-07-08T01:46:26Z",
    "zip": "84405"
  },
  {
    "address": "2150 W 4800 S",
    "city": "Roy",
    "county": "Weber County",
    "created_at": "2012-01-04T20:17:59Z",
    "id": 24774,
    "latitude": "41.176185",
    "longitude": "-112.032182",
    "mascot": "Lions",
    "name": "Roy Senior High School",
    "primary_color": "Gold",
    "secondary_color": "Black",
    "state": "UT",
    "timezone": "America/Denver",
    "updated_at": "2012-07-08T01:46:26Z",
    "zip": "84067"
  },
  {
    "address": "4300 Madison Ave",
    "city": "Ogden",
    "county": "Weber County",
    "created_at": "2012-01-04T20:17:59Z",
    "id": 24775,
    "latitude": "41.183891",
    "longitude": "-111.963061",
    "mascot": "Spartans",
    "name": "South Ogden Junior High School",
    "primary_color": "Columbia Blue",
    "secondary_color": "White",
    "state": "UT",
    "timezone": "America/Denver",
    "updated_at": "2012-07-08T01:46:26Z",
    "zip": "84403"
  },
  {
    "address": "165 W 5100 S",
    "city": "Ogden",
    "county": "Weber County",
    "created_at": "2012-01-04T20:17:59Z",
    "id": 24776,
    "latitude": "41.170659",
    "longitude": "-111.979825",
    "mascot": null,
    "name": "T H Bell Junior High School",
    "primary_color": "Red",
    "secondary_color": "Royal",
    "state": "UT",
    "timezone": "America/Denver",
    "updated_at": "2012-07-08T01:46:26Z",
    "zip": "84405"
  },
  {
    "address": "1033 N 1200 W",
    "city": "Ogden",
    "county": "Weber County",
    "created_at": "2012-01-04T20:17:59Z",
    "id": 24777,
    "latitude": "41.276457",
    "longitude": "-112.008550",
    "mascot": "Eagles",
    "name": "Wahlquist Junior High School",
    "primary_color": "Kelly Green",
    "secondary_color": "Gold",
    "state": "UT",
    "timezone": "America/Denver",
    "updated_at": "2012-07-08T01:46:27Z",
    "zip": "84404"
  },
  {
    "address": "2075 West 4600 South",
    "city": "Roy",
    "county": "Weber County",
    "created_at": "2012-01-04T20:17:59Z",
    "id": 24778,
    "latitude": "41.179419",
    "longitude": "-112.029678",
    "mascot": "Scorpions",
    "name": "Sand Ridge Junior High School",
    "primary_color": "Gold",
    "secondary_color": "Brown",
    "state": "UT",
    "timezone": "America/Denver",
    "updated_at": "2012-07-08T01:46:27Z",
    "zip": "84067"
  },
  {
    "address": "2755 N Hwy 162",
    "city": "Eden",
    "county": "Weber County",
    "created_at": "2012-01-04T20:17:59Z",
    "id": 24779,
    "latitude": "41.308994",
    "longitude": "-111.832195",
    "mascot": "Skyhawks",
    "name": "Snowcrest Junior High School",
    "primary_color": "Royal",
    "secondary_color": "White",
    "state": "UT",
    "timezone": "America/Denver",
    "updated_at": "2012-07-08T01:46:27Z",
    "zip": "84310"
  },
  {
    "address": "4200 S 5600 W",
    "city": "Salt Lake City",
    "county": "Salt Lake County",
    "created_at": "2012-01-04T20:17:59Z",
    "id": 24780,
    "latitude": "40.679595",
    "longitude": "-112.024758",
    "mascot": "Wolverines",
    "name": "Hunter High School",
    "primary_color": "Navy",
    "secondary_color": "White",
    "state": "UT",
    "timezone": "America/Denver",
    "updated_at": "2012-07-08T01:46:28Z",
    "zip": "84120"
  },
  {
    "address": "50 N 650 W",
    "city": "Richfield",
    "county": "Sevier County",
    "created_at": "2012-01-04T20:17:59Z",
    "id": 24781,
    "latitude": "38.769126",
    "longitude": "-112.096345",
    "mascot": null,
    "name": "Cedar Ridge High School",
    "primary_color": null,
    "secondary_color": null,
    "state": "UT",
    "timezone": "America/Denver",
    "updated_at": "2012-07-08T01:46:28Z",
    "zip": "84701"
  },
  {
    "address": "2352 E Hwy 193",
    "city": "Layton",
    "county": "Davis County",
    "created_at": "2012-01-04T20:17:59Z",
    "id": 24782,
    "latitude": "41.106401",
    "longitude": "-111.920200",
    "mascot": null,
    "name": "Layton Christian Academy",
    "primary_color": "Gray",
    "secondary_color": "Maroon",
    "state": "UT",
    "timezone": "America/Denver",
    "updated_at": "2012-07-08T01:46:28Z",
    "zip": "84040"
  },
  {
    "address": "265 W 1400 N St",
    "city": "Logan",
    "county": "Cache County",
    "created_at": "2012-01-04T20:17:59Z",
    "id": 24783,
    "latitude": "41.757750",
    "longitude": "-111.841278",
    "mascot": "Panthers",
    "name": "Cache High School",
    "primary_color": "Kelly Green",
    "secondary_color": "Black",
    "state": "UT",
    "timezone": "America/Denver",
    "updated_at": "2012-07-08T01:46:29Z",
    "zip": "84341"
  },
  {
    "address": "83 S 100 W",
    "city": "Logan",
    "county": "Cache County",
    "created_at": "2012-01-04T20:17:59Z",
    "id": 24784,
    "latitude": "41.729940",
    "longitude": "-111.837620",
    "mascot": null,
    "name": "North Campus",
    "primary_color": null,
    "secondary_color": null,
    "state": "UT",
    "timezone": "America/Denver",
    "updated_at": "2012-07-08T01:46:29Z",
    "zip": "84321"
  },
  {
    "address": "2430 N Hill Field Rd",
    "city": "Layton",
    "county": "Davis County",
    "created_at": "2012-01-04T20:17:59Z",
    "id": 24785,
    "latitude": "41.095312",
    "longitude": "-111.973431",
    "mascot": "Knights",
    "name": "Northridge High School",
    "primary_color": "Gray",
    "secondary_color": "Red",
    "state": "UT",
    "timezone": "America/Denver",
    "updated_at": "2012-07-08T01:46:30Z",
    "zip": "84041"
  },
  {
    "address": "951 N Fairfield Rd",
    "city": "Kaysville",
    "county": "Davis County",
    "created_at": "2012-01-04T20:17:59Z",
    "id": 24786,
    "latitude": "41.051093",
    "longitude": "-111.939377",
    "mascot": "Falcons",
    "name": "Fairfield Junior High School",
    "primary_color": "Gray",
    "secondary_color": "Royal",
    "state": "UT",
    "timezone": "America/Denver",
    "updated_at": "2012-07-08T01:46:30Z",
    "zip": "84037"
  },
  {
    "address": "270 E 1600 N",
    "city": "Cedar City",
    "county": "Iron County",
    "created_at": "2012-01-04T20:17:59Z",
    "id": 24787,
    "latitude": "37.706322",
    "longitude": "-113.058280",
    "mascot": null,
    "name": "Foothill High School",
    "primary_color": null,
    "secondary_color": null,
    "state": "UT",
    "timezone": "America/Denver",
    "updated_at": "2012-07-08T01:46:30Z",
    "zip": "84720"
  },
  {
    "address": "3659 W 9800 S",
    "city": "South Jordan",
    "county": "Salt Lake County",
    "created_at": "2012-01-04T20:17:59Z",
    "id": 24788,
    "latitude": "40.573256",
    "longitude": "-111.978486",
    "mascot": "Wapities",
    "name": "Elk Ridge Middle School",
    "primary_color": "Maroon",
    "secondary_color": "Kelly Green",
    "state": "UT",
    "timezone": "America/Denver",
    "updated_at": "2012-07-08T01:46:31Z",
    "zip": "84095"
  },
  {
    "address": "1234 S Main St",
    "city": "Salt Lake City",
    "county": "Salt Lake County",
    "created_at": "2012-01-04T20:17:59Z",
    "id": 24789,
    "latitude": "40.742461",
    "longitude": "-111.891082",
    "mascot": "Bulldogs",
    "name": "Horizonte Instruction Training Center",
    "primary_color": "Purple",
    "secondary_color": "White",
    "state": "UT",
    "timezone": "America/Denver",
    "updated_at": "2012-07-08T01:46:31Z",
    "zip": "84101"
  },
  {
    "address": "250 S Vernal Ave",
    "city": "Vernal",
    "county": "Uintah County",
    "created_at": "2012-01-04T20:17:59Z",
    "id": 24790,
    "latitude": "40.452057",
    "longitude": "-109.528484",
    "mascot": "Phoenixes",
    "name": "Ashley Valley High School",
    "primary_color": "Teal",
    "secondary_color": "Black",
    "state": "UT",
    "timezone": "America/Denver",
    "updated_at": "2012-07-08T01:46:31Z",
    "zip": "84405"
  },
  {
    "address": "5525 W 10400 N",
    "city": "Highland",
    "county": "Utah County",
    "created_at": "2012-01-04T20:17:59Z",
    "id": 24791,
    "latitude": "40.420906",
    "longitude": "-111.790373",
    "mascot": "Huskies",
    "name": "Mountain Ridge Junior High School",
    "primary_color": "Maroon",
    "secondary_color": "Navy",
    "state": "UT",
    "timezone": "America/Denver",
    "updated_at": "2012-07-08T01:46:32Z",
    "zip": "84003"
  },
  {
    "address": "165 S 700 E",
    "city": "Springville",
    "county": "Utah County",
    "created_at": "2012-01-04T20:17:59Z",
    "id": 24792,
    "latitude": "40.164124",
    "longitude": "-111.598481",
    "mascot": "Knights",
    "name": "Springville Junior High School",
    "primary_color": "Royal",
    "secondary_color": "White",
    "state": "UT",
    "timezone": "America/Denver",
    "updated_at": "2012-07-08T01:46:32Z",
    "zip": "84663"
  },
  {
    "address": "1215 N Lava Flow Dr",
    "city": "Saint George",
    "county": "Washington County",
    "created_at": "2012-01-04T20:17:59Z",
    "id": 24793,
    "latitude": "37.128492",
    "longitude": "-113.633790",
    "mascot": "Scorpions",
    "name": "Snow Canyon Middle School",
    "primary_color": "Teal",
    "secondary_color": "Gray",
    "state": "UT",
    "timezone": "America/Denver",
    "updated_at": "2012-07-08T01:46:32Z",
    "zip": "84770"
  },
  {
    "address": "1385 N Lava Flow Dr",
    "city": "Saint George",
    "county": "Washington County",
    "created_at": "2012-01-04T20:17:59Z",
    "id": 24794,
    "latitude": "37.131576",
    "longitude": "-113.633684",
    "mascot": "Warriors",
    "name": "Snow Canyon High School",
    "primary_color": "Gold",
    "secondary_color": "Hunter Green",
    "state": "UT",
    "timezone": "America/Denver",
    "updated_at": "2012-07-08T01:46:32Z",
    "zip": "84770"
  },
  {
    "address": "5470 S 2700 W",
    "city": "Roy",
    "county": "Weber County",
    "created_at": "2012-01-04T20:17:59Z",
    "id": 24795,
    "latitude": "41.164528",
    "longitude": "-112.045191",
    "mascot": null,
    "name": "Weber Valley DT",
    "primary_color": null,
    "secondary_color": null,
    "state": "UT",
    "timezone": "America/Denver",
    "updated_at": "2012-07-08T01:46:33Z",
    "zip": "84067"
  },
  {
    "address": "1900 N 4700 W",
    "city": "Ogden",
    "county": "Weber County",
    "created_at": "2012-01-04T20:17:59Z",
    "id": 24796,
    "latitude": "41.291991",
    "longitude": "-112.093155",
    "mascot": "Silver Wolves",
    "name": "Fremont High School",
    "primary_color": "Gray",
    "secondary_color": "Royal",
    "state": "UT",
    "timezone": "America/Denver",
    "updated_at": "2012-07-08T01:46:33Z",
    "zip": "84404"
  },
  {
    "address": "4350 W 4800 S",
    "city": "West Haven",
    "county": "Weber County",
    "created_at": "2012-01-04T20:17:59Z",
    "id": 24797,
    "latitude": "41.176164",
    "longitude": "-112.084996",
    "mascot": "Grizzlies",
    "name": "Rocky Mountain Junior High School",
    "primary_color": "Maroon",
    "secondary_color": "Black",
    "state": "UT",
    "timezone": "America/Denver",
    "updated_at": "2012-07-08T01:46:33Z",
    "zip": "84401"
  },
  {
    "address": "550 E 300 S",
    "city": "Kaysville",
    "county": "Davis County",
    "created_at": "2012-01-04T20:17:59Z",
    "id": 24798,
    "latitude": "41.030023",
    "longitude": "-111.926192",
    "mascot": null,
    "name": "Davis Applied Technology Center",
    "primary_color": "Navy",
    "secondary_color": "Gold",
    "state": "UT",
    "timezone": "America/Denver",
    "updated_at": "2012-07-08T01:46:34Z",
    "zip": "84037"
  },
  {
    "address": "1100 E Lagoon St 124 5",
    "city": "Roosevelt",
    "county": "Duchesne County",
    "created_at": "2012-01-04T20:17:59Z",
    "id": 24799,
    "latitude": "40.382495",
    "longitude": "-110.126279",
    "mascot": null,
    "name": "Uintah Basin Area Applied Tech Center",
    "primary_color": null,
    "secondary_color": null,
    "state": "UT",
    "timezone": "America/Denver",
    "updated_at": "2012-07-08T01:46:34Z",
    "zip": "84066"
  },
  {
    "address": "1301 N 600 W",
    "city": "Logan",
    "county": "Cache County",
    "created_at": "2012-01-04T20:17:59Z",
    "id": 24800,
    "latitude": "41.756030",
    "longitude": "-111.849066",
    "mascot": null,
    "name": "Bridgerland Applied Technology Center",
    "primary_color": null,
    "secondary_color": null,
    "state": "UT",
    "timezone": "America/Denver",
    "updated_at": "2012-07-08T01:46:34Z",
    "zip": "84321"
  },
  {
    "address": "5445 W New Bingham Hwy",
    "city": "West Jordan",
    "county": "Salt Lake County",
    "created_at": "2012-01-04T20:17:59Z",
    "id": 24801,
    "latitude": "40.596096",
    "longitude": "-112.018989",
    "mascot": "Grizzlies",
    "name": "Copper Hills High School",
    "primary_color": "Navy",
    "secondary_color": "Hunter Green",
    "state": "UT",
    "timezone": "America/Denver",
    "updated_at": "2012-07-08T01:46:35Z",
    "zip": "84088"
  },
  {
    "address": "179 E 5065 S",
    "city": "Murray",
    "county": "Salt Lake County",
    "created_at": "2012-01-04T20:18:00Z",
    "id": 24802,
    "latitude": "40.661340",
    "longitude": "-111.887325",
    "mascot": null,
    "name": "Creekside High School",
    "primary_color": "Gold",
    "secondary_color": "Royal",
    "state": "UT",
    "timezone": "America/Denver",
    "updated_at": "2012-07-08T01:46:35Z",
    "zip": "84107"
  },
  {
    "address": "1025 S Hwy 6",
    "city": "Payson",
    "county": "Utah County",
    "created_at": "2012-01-04T20:18:00Z",
    "id": 24803,
    "latitude": "40.044612",
    "longitude": "-111.715516",
    "mascot": "Lions",
    "name": "Payson Junior High School",
    "primary_color": "Kelly Green",
    "secondary_color": "White",
    "state": "UT",
    "timezone": "America/Denver",
    "updated_at": "2012-07-08T01:46:36Z",
    "zip": "84651"
  },
  {
    "address": "825 E 9085 S",
    "city": "Sandy",
    "county": "Salt Lake County",
    "created_at": "2012-01-04T20:18:00Z",
    "id": 24804,
    "latitude": "40.586541",
    "longitude": "-111.869686",
    "mascot": null,
    "name": "Jordan Applied Tech Center Sandy Campus",
    "primary_color": "Purple",
    "secondary_color": "White",
    "state": "UT",
    "timezone": "America/Denver",
    "updated_at": "2012-07-08T01:46:36Z",
    "zip": "84094"
  },
  {
    "address": "157 W 600 S",
    "city": "Richmond",
    "county": "Cache County",
    "created_at": "2012-01-04T20:18:00Z",
    "id": 24805,
    "latitude": "41.910595",
    "longitude": "-111.813241",
    "mascot": "Bobcats",
    "name": "North Cache 8-9 Center",
    "primary_color": "Gold",
    "secondary_color": "Columbia Blue",
    "state": "UT",
    "timezone": "America/Denver",
    "updated_at": "2012-07-08T01:46:36Z",
    "zip": "84333"
  },
  {
    "address": "742 Harrison Blvd",
    "city": "Ogden",
    "county": "Weber County",
    "created_at": "2012-01-04T20:18:00Z",
    "id": 24806,
    "latitude": "41.250632",
    "longitude": "-111.948000",
    "mascot": null,
    "name": "Utah School For The Deaf & The Blind",
    "primary_color": null,
    "secondary_color": null,
    "state": "UT",
    "timezone": "America/Denver",
    "updated_at": "2012-07-08T01:46:37Z",
    "zip": "84404"
  },
  {
    "address": "1450 N 200 E",
    "city": "Orem",
    "county": "Utah County",
    "created_at": "2012-01-04T20:18:00Z",
    "id": 24807,
    "latitude": "40.324476",
    "longitude": "-111.691359",
    "mascot": "Timber Wolves",
    "name": "Timpanogos High School",
    "primary_color": "Navy",
    "secondary_color": "Hunter Green",
    "state": "UT",
    "timezone": "America/Denver",
    "updated_at": "2012-07-08T01:46:37Z",
    "zip": "84057"
  },
  {
    "address": "50 N 900 E",
    "city": "Spanish Fork",
    "county": "Utah County",
    "created_at": "2012-01-04T20:18:00Z",
    "id": 24808,
    "latitude": "40.110455",
    "longitude": "-111.639001",
    "mascot": "Cougars",
    "name": "Spanish Fork Middle School",
    "primary_color": "Teal",
    "secondary_color": "Maroon",
    "state": "UT",
    "timezone": "America/Denver",
    "updated_at": "2012-07-08T01:46:37Z",
    "zip": "84660"
  },
  {
    "address": "12476 S 2700 W",
    "city": "Riverton",
    "county": "Salt Lake County",
    "created_at": "2012-01-04T20:18:00Z",
    "id": 24809,
    "latitude": "40.524425",
    "longitude": "-111.957730",
    "mascot": "Silver Wolves",
    "name": "Riverton High School",
    "primary_color": "Purple",
    "secondary_color": "Black",
    "state": "UT",
    "timezone": "America/Denver",
    "updated_at": "2012-07-08T01:46:38Z",
    "zip": "84065"
  },
  {
    "address": "464 S 500 E",
    "city": "Kaysville",
    "county": "Davis County",
    "created_at": "2012-01-04T20:18:00Z",
    "id": 24810,
    "latitude": "41.026878",
    "longitude": "-111.929227",
    "mascot": null,
    "name": "Davis Junior High School",
    "primary_color": "Columbia Blue",
    "secondary_color": "Brown",
    "state": "UT",
    "timezone": "America/Denver",
    "updated_at": "2012-07-08T01:46:38Z",
    "zip": "84037"
  },
  {
    "address": "10189 N 4800 W",
    "city": "Highland",
    "county": "Utah County",
    "created_at": "2012-01-04T20:18:00Z",
    "id": 24811,
    "latitude": "40.417761",
    "longitude": "-111.773447",
    "mascot": "Knights",
    "name": "Lone Peak High School",
    "primary_color": "Gold",
    "secondary_color": "Maroon",
    "state": "UT",
    "timezone": "America/Denver",
    "updated_at": "2012-07-08T01:46:38Z",
    "zip": "84003"
  },
  {
    "address": "821 N 900 E",
    "city": "American Fork",
    "county": "Utah County",
    "created_at": "2012-01-04T20:18:00Z",
    "id": 24812,
    "latitude": "40.393152",
    "longitude": "-111.773305",
    "mascot": "Mountaineers",
    "name": "Alpine Summit School",
    "primary_color": "Beige",
    "secondary_color": "Kelly Green",
    "state": "UT",
    "timezone": "America/Denver",
    "updated_at": "2012-07-08T01:46:39Z",
    "zip": "84003"
  },
  {
    "address": "13508 S 4000 W",
    "city": "Riverton",
    "county": "Salt Lake County",
    "created_at": "2012-01-04T20:18:00Z",
    "id": 24813,
    "latitude": "40.505874",
    "longitude": "-111.986271",
    "mascot": "White Tigers",
    "name": "South Hills Middle School",
    "primary_color": "Gray",
    "secondary_color": "Kelly Green",
    "state": "UT",
    "timezone": "America/Denver",
    "updated_at": "2012-07-08T01:46:39Z",
    "zip": "84065"
  },
  {
    "address": "166 W 1925 N",
    "city": "Cedar City",
    "county": "Iron County",
    "created_at": "2012-01-04T20:18:00Z",
    "id": 24814,
    "latitude": "37.712677",
    "longitude": "-113.066531",
    "mascot": "Falcons",
    "name": "Canyon View High School",
    "primary_color": "Teal",
    "secondary_color": "Black",
    "state": "UT",
    "timezone": "America/Denver",
    "updated_at": "2012-07-08T01:46:39Z",
    "zip": "84720"
  },
  {
    "address": "169 N 1100 E",
    "city": "American Fork",
    "county": "Utah County",
    "created_at": "2012-01-04T20:18:00Z",
    "id": 24815,
    "latitude": "40.379990",
    "longitude": "-111.769087",
    "mascot": "Seagulls",
    "name": "Dan Peterson School",
    "primary_color": "Navy",
    "secondary_color": "White",
    "state": "UT",
    "timezone": "America/Denver",
    "updated_at": "2012-07-08T01:46:40Z",
    "zip": "84003"
  },
  {
    "address": "490 S 500 E",
    "city": "Kaysville",
    "county": "Davis County",
    "created_at": "2012-01-04T20:18:00Z",
    "id": 24816,
    "latitude": "41.026587",
    "longitude": "-111.929904",
    "mascot": "Mountain Scene",
    "name": "Mountain High School",
    "primary_color": "Royal",
    "secondary_color": "White",
    "state": "UT",
    "timezone": "America/Denver",
    "updated_at": "2012-07-08T01:46:40Z",
    "zip": "84037"
  },
  {
    "address": "300 E 11800 S",
    "city": "Draper",
    "county": "Salt Lake County",
    "created_at": "2012-01-04T20:18:00Z",
    "id": 24817,
    "latitude": "40.537022",
    "longitude": "-111.881867",
    "mascot": "Soaring Eagles",
    "name": "Juan Diego Catholic High School",
    "primary_color": "Navy",
    "secondary_color": "Gray",
    "state": "UT",
    "timezone": "America/Denver",
    "updated_at": "2012-07-08T01:46:40Z",
    "zip": "84020"
  },
  {
    "address": "956 20th St",
    "city": "Ogden",
    "county": "Weber County",
    "created_at": "2012-01-04T20:18:00Z",
    "id": 24818,
    "latitude": "41.230926",
    "longitude": "-111.954739",
    "mascot": "Eagles",
    "name": "Washington High School",
    "primary_color": "Black",
    "secondary_color": "Gray",
    "state": "UT",
    "timezone": "America/Denver",
    "updated_at": "2012-07-08T01:46:41Z",
    "zip": "84401"
  },
  {
    "address": "931 E 300 N",
    "city": "Provo",
    "county": "Utah County",
    "created_at": "2012-01-04T20:18:00Z",
    "id": 24819,
    "latitude": "40.237432",
    "longitude": "-111.642556",
    "mascot": "Mongoose",
    "name": "Meridian School",
    "primary_color": null,
    "secondary_color": null,
    "state": "UT",
    "timezone": "America/Denver",
    "updated_at": "2012-07-08T01:46:41Z",
    "zip": "84606"
  },
  {
    "address": "525 E DATC Dr",
    "city": "Kaysville",
    "county": "Davis County",
    "created_at": "2012-01-04T20:18:00Z",
    "id": 24820,
    "latitude": "41.027192",
    "longitude": "-111.924035",
    "mascot": "Phoenix",
    "name": "Canyon Heights Alternative School",
    "primary_color": "Maroon",
    "secondary_color": "Gray",
    "state": "UT",
    "timezone": "America/Denver",
    "updated_at": "2012-07-08T01:46:41Z",
    "zip": "84037"
  },
  {
    "address": "988 S 7500 E",
    "city": "Fort Duchesne",
    "county": "Uintah County",
    "created_at": "2012-01-04T20:18:00Z",
    "id": 24821,
    "latitude": "40.286699",
    "longitude": "-109.858740",
    "mascot": null,
    "name": "Uintah River High School",
    "primary_color": null,
    "secondary_color": null,
    "state": "UT",
    "timezone": "America/Denver",
    "updated_at": "2012-07-08T01:46:41Z",
    "zip": "84026"
  },
  {
    "address": "12892 S Pony Express Rd",
    "city": "Draper",
    "county": "Salt Lake County",
    "created_at": "2012-01-04T20:18:00Z",
    "id": 24822,
    "latitude": "40.516902",
    "longitude": "-111.891663",
    "mascot": null,
    "name": "American Prep Academy",
    "primary_color": null,
    "secondary_color": null,
    "state": "UT",
    "timezone": "America/Denver",
    "updated_at": "2012-07-08T01:46:42Z",
    "zip": "84020"
  },
  {
    "address": "2920 W 14010 S",
    "city": "Bluffdale",
    "county": "Salt Lake County",
    "created_at": "2012-01-04T20:18:00Z",
    "id": 24823,
    "latitude": "40.510870",
    "longitude": "-111.950371",
    "mascot": null,
    "name": "North Star Academy",
    "primary_color": null,
    "secondary_color": null,
    "state": "UT",
    "timezone": "America/Denver",
    "updated_at": "2012-07-08T01:46:42Z",
    "zip": "84065"
  },
  {
    "address": "1645 South 500 West",
    "city": "Woods Cross",
    "county": "Davis County",
    "created_at": "2012-01-04T20:18:00Z",
    "id": 24824,
    "latitude": "40.873443",
    "longitude": "-111.892229",
    "mascot": null,
    "name": "Sandcastle Academy",
    "primary_color": null,
    "secondary_color": null,
    "state": "UT",
    "timezone": "America/Denver",
    "updated_at": "2012-07-08T01:46:42Z",
    "zip": "84010"
  },
  {
    "address": "828 E Desert Hill Dr",
    "city": "Saint George",
    "county": "Washington County",
    "created_at": "2012-01-04T20:18:00Z",
    "id": 24825,
    "latitude": "37.052013",
    "longitude": "-113.567239",
    "mascot": null,
    "name": "Desert Hill High School",
    "primary_color": null,
    "secondary_color": null,
    "state": "UT",
    "timezone": "America/Denver",
    "updated_at": "2012-07-08T01:46:43Z",
    "zip": "84790"
  }
]