[
  {
    "address": "6013 Paradise Blvd NW",
    "city": "Albuquerque",
    "county": "Bernalillo County",
    "created_at": "2012-01-04T20:16:09Z",
    "id": 16311,
    "latitude": "35.193994",
    "longitude": "-106.714393",
    "mascot": "Patriots",
    "name": "Paradise Christian School",
    "primary_color": "Navy",
    "secondary_color": "White",
    "state": "NM",
    "timezone": "America/Denver",
    "updated_at": "2012-07-08T00:32:18Z",
    "zip": "87114"
  },
  {
    "address": "220 El Pueblo Rd NW",
    "city": "Albuquerque",
    "county": "Bernalillo County",
    "created_at": "2012-01-04T20:16:09Z",
    "id": 16312,
    "latitude": "35.176886",
    "longitude": "-106.625170",
    "mascot": "Centurions",
    "name": "Victory Christian School",
    "primary_color": "Red",
    "secondary_color": "White",
    "state": "NM",
    "timezone": "America/Denver",
    "updated_at": "2012-07-08T00:32:18Z",
    "zip": "87114"
  },
  {
    "address": "180 N Date St",
    "city": "Truth Or Consequences",
    "county": "Sierra County",
    "created_at": "2012-01-04T20:16:09Z",
    "id": 16313,
    "latitude": "33.131926",
    "longitude": "-107.250517",
    "mascot": "Tigers",
    "name": "Hot Springs High School",
    "primary_color": "Red",
    "secondary_color": "White",
    "state": "NM",
    "timezone": "America/Denver",
    "updated_at": "2012-07-08T00:32:18Z",
    "zip": "87901"
  },
  {
    "address": "515 Park Ave",
    "city": "Gallup",
    "county": "McKinley County",
    "created_at": "2012-01-04T20:16:09Z",
    "id": 16314,
    "latitude": "35.519082",
    "longitude": "-108.743328",
    "mascot": "Panthers",
    "name": "Gallup Catholic School",
    "primary_color": "Kelly Green",
    "secondary_color": "White",
    "state": "NM",
    "timezone": "America/Denver",
    "updated_at": "2012-07-08T00:32:19Z",
    "zip": "87301"
  },
  {
    "address": "100 Commerce Way",
    "city": "Clovis",
    "county": "Curry County",
    "created_at": "2012-01-04T20:16:09Z",
    "id": 16315,
    "latitude": "34.413109",
    "longitude": "-103.205067",
    "mascot": "Kittens",
    "name": "Marshall Junior High School",
    "primary_color": "Red",
    "secondary_color": "White",
    "state": "NM",
    "timezone": "America/Denver",
    "updated_at": "2012-07-08T00:32:19Z",
    "zip": "88101"
  },
  {
    "address": "1500 Sycamore St",
    "city": "Clovis",
    "county": "Curry County",
    "created_at": "2012-01-04T20:16:09Z",
    "id": 16316,
    "latitude": "34.413154",
    "longitude": "-103.187677",
    "mascot": "Chaparrals",
    "name": "Yucca Junior High School",
    "primary_color": "Royal",
    "secondary_color": "White",
    "state": "NM",
    "timezone": "America/Denver",
    "updated_at": "2012-07-08T00:32:19Z",
    "zip": "88101"
  },
  {
    "address": "Fifteenth & Cannon",
    "city": "Artesia",
    "county": "Eddy County",
    "created_at": "2012-01-04T20:16:09Z",
    "id": 16317,
    "latitude": "32.852190",
    "longitude": "-104.415359",
    "mascot": "Bulldogs",
    "name": "Artesia Park Junior High School",
    "primary_color": "White",
    "secondary_color": "Orange",
    "state": "NM",
    "timezone": "America/Denver",
    "updated_at": "2012-07-08T00:32:20Z",
    "zip": "88210"
  },
  {
    "address": "1000 Jolly Rogers Dr",
    "city": "Mosquero",
    "county": "Harding County",
    "created_at": "2012-01-04T20:16:09Z",
    "id": 16318,
    "latitude": "35.650675",
    "longitude": "-103.637821",
    "mascot": "Pirates",
    "name": "Mosquero Municipal School",
    "primary_color": "Gold",
    "secondary_color": "Black",
    "state": "NM",
    "timezone": "America/Denver",
    "updated_at": "2012-07-08T00:32:20Z",
    "zip": "87733"
  },
  {
    "address": "301 Park Ave",
    "city": "Wagon Mound",
    "county": "Mora County",
    "created_at": "2012-01-04T20:16:09Z",
    "id": 16319,
    "latitude": "36.009733",
    "longitude": "-104.701672",
    "mascot": "Trojans",
    "name": "Wagon Mound School",
    "primary_color": "Columbia Blue",
    "secondary_color": "Red",
    "state": "NM",
    "timezone": "America/Denver",
    "updated_at": "2012-07-08T00:32:20Z",
    "zip": "87752"
  },
  {
    "address": "1900 N Sycamore St",
    "city": "Roswell",
    "county": "Chaves County",
    "created_at": "2012-01-04T20:16:09Z",
    "id": 16320,
    "latitude": "33.412120",
    "longitude": "-104.559048",
    "mascot": "Warriors",
    "name": "Gateway Christian School",
    "primary_color": "Purple",
    "secondary_color": "White",
    "state": "NM",
    "timezone": "America/Denver",
    "updated_at": "2012-07-08T00:32:21Z",
    "zip": "88201"
  },
  {
    "address": "529 Sagebrush Rd",
    "city": "Questa",
    "county": "Taos County",
    "created_at": "2012-01-04T20:16:09Z",
    "id": 16321,
    "latitude": "36.728450",
    "longitude": "-105.595289",
    "mascot": "Wildcats",
    "name": "Questa Junior Senior High School",
    "primary_color": "Royal",
    "secondary_color": "White",
    "state": "NM",
    "timezone": "America/Denver",
    "updated_at": "2012-07-08T00:32:21Z",
    "zip": "87556"
  },
  {
    "address": "501 W 4th St",
    "city": "Lordsburg",
    "county": "Hidalgo County",
    "created_at": "2012-01-04T20:16:09Z",
    "id": 16322,
    "latitude": "32.349410",
    "longitude": "-108.714918",
    "mascot": "Mavericks",
    "name": "Lordsburg High School",
    "primary_color": "Orange",
    "secondary_color": "Black",
    "state": "NM",
    "timezone": "America/Denver",
    "updated_at": "2012-07-08T00:32:21Z",
    "zip": "88045"
  },
  {
    "address": "301 N 2nd St",
    "city": "Logan",
    "county": "Quay County",
    "created_at": "2012-01-04T20:16:09Z",
    "id": 16323,
    "latitude": "35.368205",
    "longitude": "-103.413219",
    "mascot": "Longhorns",
    "name": "Logan School",
    "primary_color": "Red",
    "secondary_color": "White",
    "state": "NM",
    "timezone": "America/Denver",
    "updated_at": "2012-07-08T00:32:21Z",
    "zip": "88426"
  },
  {
    "address": "1564 New Mexico 267",
    "city": "Floyd",
    "county": "Roosevelt County",
    "created_at": "2012-01-04T20:16:09Z",
    "id": 16324,
    "latitude": "34.214471",
    "longitude": "-103.575563",
    "mascot": "Broncos",
    "name": "Floyd Municipal School",
    "primary_color": "Red",
    "secondary_color": "Navy",
    "state": "NM",
    "timezone": "America/Denver",
    "updated_at": "2012-07-08T00:32:22Z",
    "zip": "88118"
  },
  {
    "address": "100 School St",
    "city": "Dora",
    "county": "Roosevelt County",
    "created_at": "2012-01-04T20:16:09Z",
    "id": 16325,
    "latitude": "33.938865",
    "longitude": "-103.337354",
    "mascot": "Coyotes",
    "name": "Dora Consolidated Schools",
    "primary_color": "Red",
    "secondary_color": "White",
    "state": "NM",
    "timezone": "America/Denver",
    "updated_at": "2012-07-08T00:32:22Z",
    "zip": "88115"
  },
  {
    "address": "717 3rd St",
    "city": "Santa Rosa",
    "county": "Guadalupe County",
    "created_at": "2012-01-04T20:16:09Z",
    "id": 16326,
    "latitude": "34.934987",
    "longitude": "-104.682571",
    "mascot": "Lions",
    "name": "Santa Rosa High School",
    "primary_color": "Purple",
    "secondary_color": "White",
    "state": "NM",
    "timezone": "America/Denver",
    "updated_at": "2012-07-08T00:32:22Z",
    "zip": "88435"
  },
  {
    "address": "2103 Yucca Rd",
    "city": "Sante Fe",
    "county": "Santa Fe County",
    "created_at": "2012-01-04T20:16:09Z",
    "id": 16327,
    "latitude": "35.651435",
    "longitude": "-105.973807",
    "mascot": "Mustangs",
    "name": "Temple Baptist Christian School",
    "primary_color": "Navy",
    "secondary_color": "White",
    "state": "NM",
    "timezone": "America/Denver",
    "updated_at": "2012-07-08T00:32:23Z",
    "zip": "87505"
  },
  {
    "address": "2907 Thunder Rd",
    "city": "Alamogordo",
    "county": "Otero County",
    "created_at": "2012-01-04T20:16:09Z",
    "id": 16328,
    "latitude": "32.903747",
    "longitude": "-105.925464",
    "mascot": "Lions",
    "name": "Community Christian School",
    "primary_color": "Red",
    "secondary_color": "White",
    "state": "NM",
    "timezone": "America/Denver",
    "updated_at": "2012-07-08T00:32:23Z",
    "zip": "88310"
  },
  {
    "address": "800 N Jefferson St",
    "city": "Hobbs",
    "county": "Lea County",
    "created_at": "2012-01-04T20:16:09Z",
    "id": 16329,
    "latitude": "32.708205",
    "longitude": "-103.123281",
    "mascot": "Eagles",
    "name": "Hobbs Senior High School",
    "primary_color": "Gold",
    "secondary_color": "Black",
    "state": "NM",
    "timezone": "America/Denver",
    "updated_at": "2012-07-08T00:32:23Z",
    "zip": "88240"
  },
  {
    "address": "500 W Jefferson Ave",
    "city": "Lovington",
    "county": "Lea County",
    "created_at": "2012-01-04T20:16:09Z",
    "id": 16330,
    "latitude": "32.951286",
    "longitude": "-103.354961",
    "mascot": "Wildcats",
    "name": "Lovington Junior High School",
    "primary_color": "Royal",
    "secondary_color": "White",
    "state": "NM",
    "timezone": "America/Denver",
    "updated_at": "2012-07-08T00:32:23Z",
    "zip": "88260"
  },
  {
    "address": "309 Apple St",
    "city": "House",
    "county": "Quay County",
    "created_at": "2012-01-04T20:16:09Z",
    "id": 16331,
    "latitude": "34.646500",
    "longitude": "-103.905799",
    "mascot": "Cowboys",
    "name": "House School",
    "primary_color": "Kelly Green",
    "secondary_color": "White",
    "state": "NM",
    "timezone": "America/Denver",
    "updated_at": "2012-07-08T00:32:24Z",
    "zip": "88121"
  },
  {
    "address": "1621 Arizona St NE",
    "city": "Albuquerque",
    "county": "Bernalillo County",
    "created_at": "2012-01-04T20:16:09Z",
    "id": 16332,
    "latitude": "35.093057",
    "longitude": "-106.576249",
    "mascot": "Roadrunners",
    "name": "Temple Baptist Academy",
    "primary_color": "Maroon",
    "secondary_color": "White",
    "state": "NM",
    "timezone": "America/Denver",
    "updated_at": "2012-07-08T00:32:24Z",
    "zip": "87110"
  },
  {
    "address": "07B Tse Yaaniichii Ln",
    "city": "Rehoboth",
    "county": "McKinley County",
    "created_at": "2012-01-04T20:16:09Z",
    "id": 16333,
    "latitude": "35.530266",
    "longitude": "-108.654256",
    "mascot": "Lynx",
    "name": "Rehoboth Christian School",
    "primary_color": "Gold",
    "secondary_color": "Maroon",
    "state": "NM",
    "timezone": "America/Denver",
    "updated_at": "2012-07-08T00:32:24Z",
    "zip": "87322"
  },
  {
    "address": "6701 Fortuna Rd NW",
    "city": "Albuquerque",
    "county": "Bernalillo County",
    "created_at": "2012-01-04T20:16:09Z",
    "id": 16334,
    "latitude": "35.094386",
    "longitude": "-106.714268",
    "mascot": "Mustangs",
    "name": "West Mesa High School",
    "primary_color": "Royal",
    "secondary_color": "Red",
    "state": "NM",
    "timezone": "America/Denver",
    "updated_at": "2012-07-08T00:32:25Z",
    "zip": "87121"
  },
  {
    "address": "1505 Candelaria Rd NW",
    "city": "Albuquerque",
    "county": "Bernalillo County",
    "created_at": "2012-01-04T20:16:09Z",
    "id": 16335,
    "latitude": "35.123552",
    "longitude": "-106.660770",
    "mascot": "Vikings",
    "name": "Valley High School",
    "primary_color": "Gray",
    "secondary_color": "Maroon",
    "state": "NM",
    "timezone": "America/Denver",
    "updated_at": "2012-07-08T00:32:25Z",
    "zip": "87107"
  },
  {
    "address": "1510 Ellison Dr NW",
    "city": "Albuquerque",
    "county": "Bernalillo County",
    "created_at": "2012-01-04T20:16:09Z",
    "id": 16336,
    "latitude": "35.205900",
    "longitude": "-106.662969",
    "mascot": "Cougars",
    "name": "Cibola High School",
    "primary_color": "Gold",
    "secondary_color": "Brown",
    "state": "NM",
    "timezone": "America/Denver",
    "updated_at": "2012-07-08T00:32:25Z",
    "zip": "87114"
  },
  {
    "address": "5323 Montgomery Blvd NE",
    "city": "Albuquerque",
    "county": "Bernalillo County",
    "created_at": "2012-01-04T20:16:09Z",
    "id": 16337,
    "latitude": "35.130982",
    "longitude": "-106.581436",
    "mascot": "Knights",
    "name": "Del Norte High School",
    "primary_color": "Turquoise",
    "secondary_color": "Black",
    "state": "NM",
    "timezone": "America/Denver",
    "updated_at": "2012-07-08T00:32:25Z",
    "zip": "87109"
  },
  {
    "address": "12200 Lomas Blvd NE",
    "city": "Albuquerque",
    "county": "Bernalillo County",
    "created_at": "2012-01-04T20:16:09Z",
    "id": 16338,
    "latitude": "35.086599",
    "longitude": "-106.512640",
    "mascot": "Lions",
    "name": "Manzano High School",
    "primary_color": "Gray",
    "secondary_color": "Purple",
    "state": "NM",
    "timezone": "America/Denver",
    "updated_at": "2012-07-08T00:32:26Z",
    "zip": "87112"
  },
  {
    "address": "7801 Wilshire Ave NE",
    "city": "Albuquerque",
    "county": "Bernalillo County",
    "created_at": "2012-01-04T20:16:09Z",
    "id": 16339,
    "latitude": "35.181503",
    "longitude": "-106.554642",
    "mascot": "Bears",
    "name": "La Cueva High School",
    "primary_color": "Navy",
    "secondary_color": "White",
    "state": "NM",
    "timezone": "America/Denver",
    "updated_at": "2012-07-08T00:32:26Z",
    "zip": "87122"
  },
  {
    "address": "1900 Thornton St",
    "city": "Clovis",
    "county": "Curry County",
    "created_at": "2012-01-04T20:16:09Z",
    "id": 16340,
    "latitude": "34.417692",
    "longitude": "-103.214177",
    "mascot": "Wildcats",
    "name": "Clovis High School",
    "primary_color": "Purple",
    "secondary_color": "White",
    "state": "NM",
    "timezone": "America/Denver",
    "updated_at": "2012-07-08T00:32:26Z",
    "zip": "88102"
  },
  {
    "address": "6301 Hwy 28",
    "city": "Anthony",
    "county": "Doña Ana County",
    "created_at": "2012-01-04T20:16:09Z",
    "id": 16341,
    "latitude": "31.998027",
    "longitude": "-106.655705",
    "mascot": "Panthers",
    "name": "Gadsden High School",
    "primary_color": "Gold",
    "secondary_color": "Maroon",
    "state": "NM",
    "timezone": "America/Denver",
    "updated_at": "2012-07-08T00:32:26Z",
    "zip": "88021"
  },
  {
    "address": "N Hwy 491 Cougar Ln",
    "city": "Tohatchi",
    "county": "McKinley County",
    "created_at": "2012-01-04T20:16:09Z",
    "id": 16342,
    "latitude": "35.697600",
    "longitude": "-108.774627",
    "mascot": "Cougars",
    "name": "Tohatchi High School",
    "primary_color": "Gold",
    "secondary_color": "Maroon",
    "state": "NM",
    "timezone": "America/Denver",
    "updated_at": "2012-07-08T00:32:27Z",
    "zip": "87325"
  },
  {
    "address": "201 S Knoxville Ave",
    "city": "Portales",
    "county": "Roosevelt County",
    "created_at": "2012-01-04T20:16:09Z",
    "id": 16343,
    "latitude": "34.187117",
    "longitude": "-103.323391",
    "mascot": "Rams",
    "name": "Portales High School",
    "primary_color": "Red",
    "secondary_color": "White",
    "state": "NM",
    "timezone": "America/Denver",
    "updated_at": "2012-07-08T00:32:27Z",
    "zip": "88130"
  },
  {
    "address": "500 E Chaco St",
    "city": "Aztec",
    "county": "San Juan County",
    "created_at": "2012-01-04T20:16:09Z",
    "id": 16344,
    "latitude": "36.821332",
    "longitude": "-107.991386",
    "mascot": "Tigers",
    "name": "Aztec High School",
    "primary_color": "Orange",
    "secondary_color": "Black",
    "state": "NM",
    "timezone": "America/Denver",
    "updated_at": "2012-07-08T00:32:27Z",
    "zip": "87410"
  },
  {
    "address": "520 N 1st St",
    "city": "Bloomfield",
    "county": "San Juan County",
    "created_at": "2012-01-04T20:16:09Z",
    "id": 16345,
    "latitude": "36.716331",
    "longitude": "-107.979128",
    "mascot": "Bobcats",
    "name": "Bloomfield High School",
    "primary_color": "Gold",
    "secondary_color": "Royal",
    "state": "NM",
    "timezone": "America/Denver",
    "updated_at": "2012-07-08T00:32:27Z",
    "zip": "87413"
  },
  {
    "address": "550 County Rd 6100",
    "city": "Kirtland",
    "county": "San Juan County",
    "created_at": "2012-01-04T20:16:09Z",
    "id": 16346,
    "latitude": "36.735684",
    "longitude": "-108.370823",
    "mascot": "Broncos",
    "name": "Kirtland Central High School",
    "primary_color": "Purple",
    "secondary_color": "Gold",
    "state": "NM",
    "timezone": "America/Denver",
    "updated_at": "2012-07-08T00:32:28Z",
    "zip": "87417"
  },
  {
    "address": "Hwy 64 W",
    "city": "Shiprock",
    "county": "San Juan County",
    "created_at": "2012-01-04T20:16:09Z",
    "id": 16347,
    "latitude": "36.785110",
    "longitude": "-108.684694",
    "mascot": "Chieftains",
    "name": "Shiprock High School",
    "primary_color": "Maroon",
    "secondary_color": "Gray",
    "state": "NM",
    "timezone": "America/Denver",
    "updated_at": "2012-07-08T00:32:28Z",
    "zip": "87420"
  },
  {
    "address": "901 Douglas Ave",
    "city": "Las Vegas",
    "county": "San Miguel County",
    "created_at": "2012-01-04T20:16:09Z",
    "id": 16348,
    "latitude": "35.593721",
    "longitude": "-105.218754",
    "mascot": "Cardinals",
    "name": "Robertson High School",
    "primary_color": "Red",
    "secondary_color": "White",
    "state": "NM",
    "timezone": "America/Denver",
    "updated_at": "2012-07-08T00:32:28Z",
    "zip": "87701"
  },
  {
    "address": "157 Moreno St",
    "city": "Las Vegas",
    "county": "San Miguel County",
    "created_at": "2012-01-04T20:16:09Z",
    "id": 16349,
    "latitude": "35.592190",
    "longitude": "-105.226177",
    "mascot": "Dons",
    "name": "West Las Vegas High School",
    "primary_color": "Gold",
    "secondary_color": "Kelly Green",
    "state": "NM",
    "timezone": "America/Denver",
    "updated_at": "2012-07-08T00:32:28Z",
    "zip": "87701"
  },
  {
    "address": "1619 W Delgado Ave",
    "city": "Belen",
    "county": "Valencia County",
    "created_at": "2012-01-04T20:16:09Z",
    "id": 16350,
    "latitude": "34.661300",
    "longitude": "-106.786874",
    "mascot": "Eagles",
    "name": "Belen High School",
    "primary_color": "Maroon",
    "secondary_color": "White",
    "state": "NM",
    "timezone": "America/Denver",
    "updated_at": "2012-07-08T00:32:29Z",
    "zip": "87002"
  },
  {
    "address": "1776 Emilio Lopez Dr",
    "city": "Los Lunas",
    "county": "Valencia County",
    "created_at": "2012-01-04T20:16:10Z",
    "id": 16351,
    "latitude": "34.817820",
    "longitude": "-106.757811",
    "mascot": "Tigers",
    "name": "Los Lunas High School",
    "primary_color": "Royal",
    "secondary_color": "Orange",
    "state": "NM",
    "timezone": "America/Denver",
    "updated_at": "2012-07-08T00:32:29Z",
    "zip": "87031"
  },
  {
    "address": "169 Alamo Rt Reservation",
    "city": "Magdalena",
    "county": "Socorro County",
    "created_at": "2012-01-04T20:16:10Z",
    "id": 16352,
    "latitude": "34.062647",
    "longitude": "-107.304102",
    "mascot": "Cougars",
    "name": "Alamo Navajo Community School",
    "primary_color": "Royal",
    "secondary_color": "White",
    "state": "NM",
    "timezone": "America/Denver",
    "updated_at": "2012-07-08T00:32:29Z",
    "zip": "87825"
  },
  {
    "address": "School Rd",
    "city": "Shiprock",
    "county": "San Juan County",
    "created_at": "2012-01-04T20:16:10Z",
    "id": 16353,
    "latitude": "36.785378",
    "longitude": "-108.683409",
    "mascot": "Eagles",
    "name": "Shiprock Northwest High School",
    "primary_color": "Royal",
    "secondary_color": "White",
    "state": "NM",
    "timezone": "America/Denver",
    "updated_at": "2012-07-08T00:32:30Z",
    "zip": "87420"
  },
  {
    "address": "1220 W Apache",
    "city": "Farmington",
    "county": "San Juan County",
    "created_at": "2012-01-04T20:16:10Z",
    "id": 16354,
    "latitude": "36.733840",
    "longitude": "-108.226570",
    "mascot": "Eagles",
    "name": "Navajo Preparatory School",
    "primary_color": "Turquoise",
    "secondary_color": "White",
    "state": "NM",
    "timezone": "America/Denver",
    "updated_at": "2012-07-08T00:32:30Z",
    "zip": "87401"
  },
  {
    "address": "823 Angel Duran Dr",
    "city": "Espinola",
    "county": "Rio Arriba County",
    "created_at": "2012-01-04T20:16:10Z",
    "id": 16355,
    "latitude": "35.984347",
    "longitude": "-106.087204",
    "mascot": "Knights",
    "name": "Victory Christian Academy",
    "primary_color": "Gray",
    "secondary_color": "Red",
    "state": "NM",
    "timezone": "America/Denver",
    "updated_at": "2012-07-08T00:32:30Z",
    "zip": "87532"
  },
  {
    "address": "3850 Stern Dr",
    "city": "Las Cruces",
    "county": "Doña Ana County",
    "created_at": "2012-01-04T20:16:10Z",
    "id": 16356,
    "latitude": "32.274910",
    "longitude": "-106.757874",
    "mascot": "Blazers",
    "name": "Mesilla Valley Christian School",
    "primary_color": "Royal",
    "secondary_color": "Gold",
    "state": "NM",
    "timezone": "America/Denver",
    "updated_at": "2012-07-08T00:32:30Z",
    "zip": "88001"
  },
  {
    "address": "301 Menaul Blvd NE",
    "city": "Albuquerque",
    "county": "Bernalillo County",
    "created_at": "2012-01-04T20:16:10Z",
    "id": 16357,
    "latitude": "35.110106",
    "longitude": "-106.639205",
    "mascot": "Panthers",
    "name": "Menaul School",
    "primary_color": "Red",
    "secondary_color": "White",
    "state": "NM",
    "timezone": "America/Denver",
    "updated_at": "2012-07-08T00:32:31Z",
    "zip": "87107"
  },
  {
    "address": "1404 Lead Ave SE",
    "city": "Albuquerque",
    "county": "Bernalillo County",
    "created_at": "2012-01-04T20:16:10Z",
    "id": 16358,
    "latitude": "35.078980",
    "longitude": "-106.631889",
    "mascot": "Knights",
    "name": "Calvary Christian Academy",
    "primary_color": "Red",
    "secondary_color": "Black",
    "state": "NM",
    "timezone": "America/Denver",
    "updated_at": "2012-07-08T00:32:31Z",
    "zip": "87106"
  },
  {
    "address": "1101 Camino Cruz Blanca",
    "city": "Santa Fe",
    "county": "Santa Fe County",
    "created_at": "2012-01-04T20:16:10Z",
    "id": 16359,
    "latitude": "35.668979",
    "longitude": "-105.913181",
    "mascot": "Griffins",
    "name": "Santa Fe Preparatory School",
    "primary_color": "Navy",
    "secondary_color": "White",
    "state": "NM",
    "timezone": "America/Denver",
    "updated_at": "2012-07-08T00:32:32Z",
    "zip": "87505"
  },
  {
    "address": "275 N Bosque Loop",
    "city": "Bosque Farms",
    "county": "Valencia County",
    "created_at": "2012-01-04T20:16:10Z",
    "id": 16360,
    "latitude": "34.862622",
    "longitude": "-106.694817",
    "mascot": "Broncos",
    "name": "Bosque Farms Christian Academy",
    "primary_color": "Royal",
    "secondary_color": "White",
    "state": "NM",
    "timezone": "America/Denver",
    "updated_at": "2012-07-08T00:32:32Z",
    "zip": "87068"
  },
  {
    "address": "William Acres Theta St #12",
    "city": "Gallup",
    "county": "McKinley County",
    "created_at": "2012-01-04T20:16:10Z",
    "id": 16361,
    "latitude": "35.497760",
    "longitude": "-108.866127",
    "mascot": "Dolphins",
    "name": "Gallup Christian School",
    "primary_color": "Gold",
    "secondary_color": "Royal",
    "state": "NM",
    "timezone": "America/Denver",
    "updated_at": "2012-07-08T00:32:32Z",
    "zip": "87301"
  },
  {
    "address": "121 E Siringo Rd",
    "city": "Santa Fe",
    "county": "Santa Fe County",
    "created_at": "2012-01-04T20:16:10Z",
    "id": 16362,
    "latitude": "35.652010",
    "longitude": "-105.952608",
    "mascot": "Saints",
    "name": "Christian Life Academy",
    "primary_color": "Maroon",
    "secondary_color": "White",
    "state": "NM",
    "timezone": "America/Denver",
    "updated_at": "2012-07-08T00:32:33Z",
    "zip": "87505"
  },
  {
    "address": "4th & Parque St",
    "city": "Maxwell",
    "county": "Colfax County",
    "created_at": "2012-01-04T20:16:10Z",
    "id": 16363,
    "latitude": "36.538990",
    "longitude": "-104.543289",
    "mascot": "Bears",
    "name": "Maxwell Municipal School",
    "primary_color": "Gold",
    "secondary_color": "Purple",
    "state": "NM",
    "timezone": "America/Denver",
    "updated_at": "2012-07-08T00:32:33Z",
    "zip": "87728"
  },
  {
    "address": "101 E 4th St",
    "city": "Vaughn",
    "county": "Guadalupe County",
    "created_at": "2012-01-04T20:16:10Z",
    "id": 16364,
    "latitude": "34.597557",
    "longitude": "-105.209828",
    "mascot": "Eagles",
    "name": "Vaughn School",
    "primary_color": "Gold",
    "secondary_color": "Maroon",
    "state": "NM",
    "timezone": "America/Denver",
    "updated_at": "2012-07-08T00:32:33Z",
    "zip": "88353"
  },
  {
    "address": "101 School Rd",
    "city": "Reserve",
    "county": "Catron County",
    "created_at": "2012-01-04T20:16:10Z",
    "id": 16365,
    "latitude": "33.709026",
    "longitude": "-108.762365",
    "mascot": "Mountaineers",
    "name": "Reserve High School",
    "primary_color": "Gold",
    "secondary_color": "Purple",
    "state": "NM",
    "timezone": "America/Denver",
    "updated_at": "2012-07-08T00:32:34Z",
    "zip": "87830"
  },
  {
    "address": "School Rd Hwy 96",
    "city": "Gallina",
    "county": "Rio Arriba County",
    "created_at": "2012-01-04T20:16:10Z",
    "id": 16366,
    "latitude": "36.230710",
    "longitude": "-106.805741",
    "mascot": "Leopards",
    "name": "Jemez Mountain School",
    "primary_color": "Gold",
    "secondary_color": "Black",
    "state": "NM",
    "timezone": "America/Denver",
    "updated_at": "2012-07-08T00:32:34Z",
    "zip": "87017"
  },
  {
    "address": "5700 Mesa Grande",
    "city": "Las Cruces",
    "county": "Doña Ana County",
    "created_at": "2012-01-04T20:16:10Z",
    "id": 16367,
    "latitude": "32.394542",
    "longitude": "-106.717236",
    "mascot": "Knights",
    "name": "Onate High School",
    "primary_color": "Black",
    "secondary_color": "White",
    "state": "NM",
    "timezone": "America/Denver",
    "updated_at": "2012-07-08T00:32:34Z",
    "zip": "88011"
  },
  {
    "address": "250 Franklin St",
    "city": "Corona",
    "county": "Lincoln County",
    "created_at": "2012-01-04T20:16:10Z",
    "id": 16368,
    "latitude": "34.245412",
    "longitude": "-105.596450",
    "mascot": "Cardinals",
    "name": "Corona Public School",
    "primary_color": "Red",
    "secondary_color": "White",
    "state": "NM",
    "timezone": "America/Denver",
    "updated_at": "2012-07-08T00:32:35Z",
    "zip": "88318"
  },
  {
    "address": "520 N Griffin St",
    "city": "Texico",
    "county": "Curry County",
    "created_at": "2012-01-04T20:16:10Z",
    "id": 16369,
    "latitude": "34.393075",
    "longitude": "-103.050050",
    "mascot": "Wolverines",
    "name": "Texico High School",
    "primary_color": "Kelly Green",
    "secondary_color": "White",
    "state": "NM",
    "timezone": "America/Denver",
    "updated_at": "2012-07-08T00:32:35Z",
    "zip": "88135"
  },
  {
    "address": "406 N Cambridge St",
    "city": "Hagerman",
    "county": "Chaves County",
    "created_at": "2012-01-04T20:16:10Z",
    "id": 16370,
    "latitude": "33.117859",
    "longitude": "-104.326217",
    "mascot": null,
    "name": "Hagerman School",
    "primary_color": "Kelly Green",
    "secondary_color": "White",
    "state": "NM",
    "timezone": "America/Denver",
    "updated_at": "2012-07-08T00:32:35Z",
    "zip": "88232"
  },
  {
    "address": "Hwy 60",
    "city": "Quemado",
    "county": "Catron County",
    "created_at": "2012-01-04T20:16:10Z",
    "id": 16371,
    "latitude": "34.293699",
    "longitude": "-108.635952",
    "mascot": "Eagles",
    "name": "Quemado High School",
    "primary_color": "Gold",
    "secondary_color": "Red",
    "state": "NM",
    "timezone": "America/Denver",
    "updated_at": "2012-07-08T00:32:35Z",
    "zip": "87829"
  },
  {
    "address": "800 James Canyon Hwy",
    "city": "Cloudcroft",
    "county": "Otero County",
    "created_at": "2012-01-04T20:16:10Z",
    "id": 16372,
    "latitude": "32.957640",
    "longitude": "-105.735259",
    "mascot": "Bears",
    "name": "Cloudcroft High School",
    "primary_color": "Kelly Green",
    "secondary_color": "White",
    "state": "NM",
    "timezone": "America/Denver",
    "updated_at": "2012-07-08T00:32:36Z",
    "zip": "88317"
  },
  {
    "address": "13 School Rd",
    "city": "Penasco",
    "county": "Taos County",
    "created_at": "2012-01-04T20:16:10Z",
    "id": 16373,
    "latitude": "36.174743",
    "longitude": "-105.682491",
    "mascot": "Panthers",
    "name": "Penasco High School",
    "primary_color": "Gold",
    "secondary_color": "Royal",
    "state": "NM",
    "timezone": "America/Denver",
    "updated_at": "2012-07-08T00:32:36Z",
    "zip": "87553"
  },
  {
    "address": "5301 Saint Joseph's Dr NW",
    "city": "Albuquerque",
    "county": "Bernalillo County",
    "created_at": "2012-01-04T20:16:10Z",
    "id": 16374,
    "latitude": "35.128056",
    "longitude": "-106.698779",
    "mascot": "Sartans",
    "name": "Saint Pius X High School",
    "primary_color": "Gold",
    "secondary_color": "Black",
    "state": "NM",
    "timezone": "America/Denver",
    "updated_at": "2012-07-08T00:32:37Z",
    "zip": "87120"
  },
  {
    "address": "100 Siringo Rd",
    "city": "Santa Fe",
    "county": "Santa Fe County",
    "created_at": "2012-01-04T20:16:10Z",
    "id": 16375,
    "latitude": "35.651985",
    "longitude": "-105.951536",
    "mascot": "Horsemen",
    "name": "Saint Michaels Junior Senior High School",
    "primary_color": "Royal",
    "secondary_color": "White",
    "state": "NM",
    "timezone": "America/Denver",
    "updated_at": "2012-07-08T00:32:37Z",
    "zip": "87505"
  },
  {
    "address": "1060 Cerrillos Rd",
    "city": "Santa Fe",
    "county": "Santa Fe County",
    "created_at": "2012-01-04T20:16:10Z",
    "id": 16376,
    "latitude": "35.676456",
    "longitude": "-105.955683",
    "mascot": "Roadrunners",
    "name": "New Mexico School For The Deaf",
    "primary_color": "Red",
    "secondary_color": "White",
    "state": "NM",
    "timezone": "America/Denver",
    "updated_at": "2012-07-08T00:32:37Z",
    "zip": "87505"
  },
  {
    "address": "PO Box 38",
    "city": "Springer",
    "county": "Colfax County",
    "created_at": "2012-01-04T20:16:10Z",
    "id": 16377,
    "latitude": "36.370380",
    "longitude": "-104.332499",
    "mascot": "Indians",
    "name": "New Mexico Boys School",
    "primary_color": "Kelly Green",
    "secondary_color": "White",
    "state": "NM",
    "timezone": "America/Denver",
    "updated_at": "2012-07-08T00:32:38Z",
    "zip": "87747"
  },
  {
    "address": "1001 Yale Blvd NE",
    "city": "Albuquerque",
    "county": "Bernalillo County",
    "created_at": "2012-01-04T20:16:10Z",
    "id": 16378,
    "latitude": "35.092196",
    "longitude": "-106.620984",
    "mascot": null,
    "name": "Mimbres School",
    "primary_color": null,
    "secondary_color": null,
    "state": "NM",
    "timezone": "America/Denver",
    "updated_at": "2012-07-08T00:32:38Z",
    "zip": "87131"
  },
  {
    "address": "6400 Wyoming Blvd NE",
    "city": "Albuquerque",
    "county": "Bernalillo County",
    "created_at": "2012-01-04T20:16:10Z",
    "id": 16379,
    "latitude": "35.150801",
    "longitude": "-106.559240",
    "mascot": "Chargers",
    "name": "Albuquerque Academy",
    "primary_color": "Red",
    "secondary_color": "Black",
    "state": "NM",
    "timezone": "America/Denver",
    "updated_at": "2012-07-08T00:32:38Z",
    "zip": "87109"
  },
  {
    "address": "532 Osuna Rd NE",
    "city": "Albuquerque",
    "county": "Bernalillo County",
    "created_at": "2012-01-04T20:16:10Z",
    "id": 16380,
    "latitude": "35.151079",
    "longitude": "-106.620520",
    "mascot": "Sandia Sundevils",
    "name": "Sandia Preparatory School",
    "primary_color": "Columbia Blue",
    "secondary_color": "Maroon",
    "state": "NM",
    "timezone": "America/Denver",
    "updated_at": "2012-07-08T00:32:38Z",
    "zip": "87113"
  },
  {
    "address": "8005 Louisian Blvd",
    "city": "Albuquerque",
    "county": "Bernalillo County",
    "created_at": "2012-01-04T20:16:10Z",
    "id": 16381,
    "latitude": "35.173015",
    "longitude": "-106.568782",
    "mascot": "Huskies",
    "name": "Hope Christian School",
    "primary_color": "Gold",
    "secondary_color": "Kelly Green",
    "state": "NM",
    "timezone": "America/Denver",
    "updated_at": "2012-07-08T00:32:39Z",
    "zip": "87109"
  },
  {
    "address": "4501 Montgomery Blvd NE",
    "city": "Albuquerque",
    "county": "Bernalillo County",
    "created_at": "2012-01-04T20:16:10Z",
    "id": 16382,
    "latitude": "35.131039",
    "longitude": "-106.593080",
    "mascot": "Eagles",
    "name": "Evangel Christian Academy",
    "primary_color": "Columbia Blue",
    "secondary_color": "Red",
    "state": "NM",
    "timezone": "America/Denver",
    "updated_at": "2012-07-08T00:32:39Z",
    "zip": "87109"
  },
  {
    "address": "2121 Gun Club Rd SW",
    "city": "Albuquerque",
    "county": "Bernalillo County",
    "created_at": "2012-01-04T20:16:10Z",
    "id": 16383,
    "latitude": "35.011900",
    "longitude": "-106.695654",
    "mascot": "Crusaders",
    "name": "Rio Grande Christian Academy",
    "primary_color": "Royal",
    "secondary_color": "White",
    "state": "NM",
    "timezone": "America/Denver",
    "updated_at": "2012-07-08T00:32:39Z",
    "zip": "87105"
  },
  {
    "address": "8600 Academy",
    "city": "Albuquerque",
    "county": "Bernalillo County",
    "created_at": "2012-01-04T20:16:10Z",
    "id": 16384,
    "latitude": "35.148771",
    "longitude": "-106.547348",
    "mascot": null,
    "name": "Design For Learning Difference Sycamore",
    "primary_color": "Gold",
    "secondary_color": "Royal",
    "state": "NM",
    "timezone": "America/Denver",
    "updated_at": "2012-07-08T00:32:39Z",
    "zip": "87112"
  },
  {
    "address": "1240 E 32nd St",
    "city": "Silver City",
    "county": "Grant County",
    "created_at": "2012-01-04T20:16:10Z",
    "id": 16385,
    "latitude": "32.795572",
    "longitude": "-108.262437",
    "mascot": null,
    "name": "Silver Christian Academy",
    "primary_color": "Royal",
    "secondary_color": "Gray",
    "state": "NM",
    "timezone": "America/Denver",
    "updated_at": "2012-07-08T00:32:40Z",
    "zip": "88061"
  },
  {
    "address": "2021 Lanehart Dr",
    "city": "Hobbs",
    "county": "Lea County",
    "created_at": "2012-01-04T20:16:10Z",
    "id": 16386,
    "latitude": "32.720650",
    "longitude": "-103.162039",
    "mascot": "Eagles",
    "name": "Hobbs Holiness Academy",
    "primary_color": "Royal",
    "secondary_color": "White",
    "state": "NM",
    "timezone": "America/Denver",
    "updated_at": "2012-07-08T00:32:40Z",
    "zip": "88240"
  },
  {
    "address": "PO Box 2241",
    "city": "Santa Fe",
    "county": "Santa Fe County",
    "created_at": "2012-01-04T20:16:10Z",
    "id": 16387,
    "latitude": "35.691543",
    "longitude": "-105.937406",
    "mascot": null,
    "name": "Santa Fe Community School",
    "primary_color": null,
    "secondary_color": null,
    "state": "NM",
    "timezone": "America/Denver",
    "updated_at": "2012-07-08T00:32:41Z",
    "zip": "87504"
  },
  {
    "address": "502 Rio Communities Blvd",
    "city": "Belen",
    "county": "Valencia County",
    "created_at": "2012-01-04T20:16:10Z",
    "id": 16388,
    "latitude": "34.642691",
    "longitude": "-106.728951",
    "mascot": "Panthers",
    "name": "La Mesa Christian School",
    "primary_color": "Gold",
    "secondary_color": "Turquoise",
    "state": "NM",
    "timezone": "America/Denver",
    "updated_at": "2012-07-08T00:32:41Z",
    "zip": "87002"
  },
  {
    "address": "Indian Mission",
    "city": "San Fidel",
    "county": "Cibola County",
    "created_at": "2012-01-04T20:16:10Z",
    "id": 16389,
    "latitude": "35.081733",
    "longitude": "-107.604910",
    "mascot": null,
    "name": "Word Of Truth School",
    "primary_color": null,
    "secondary_color": null,
    "state": "NM",
    "timezone": "America/Denver",
    "updated_at": "2012-07-08T00:32:41Z",
    "zip": "87049"
  },
  {
    "address": "105 Avenida Del Fuego",
    "city": "Belen",
    "county": "Valencia County",
    "created_at": "2012-01-04T20:16:10Z",
    "id": 16390,
    "latitude": "34.651229",
    "longitude": "-106.724457",
    "mascot": null,
    "name": "Abundant Life Academy",
    "primary_color": "Navy",
    "secondary_color": "Gray",
    "state": "NM",
    "timezone": "America/Denver",
    "updated_at": "2012-07-08T00:32:41Z",
    "zip": "87002"
  },
  {
    "address": "7106 Menaul NE",
    "city": "Albuquerque",
    "county": "Bernalillo County",
    "created_at": "2012-01-04T20:16:10Z",
    "id": 16391,
    "latitude": "35.109066",
    "longitude": "-106.565103",
    "mascot": null,
    "name": "Aspen Tree Academy",
    "primary_color": null,
    "secondary_color": null,
    "state": "NM",
    "timezone": "America/Denver",
    "updated_at": "2012-07-08T00:32:42Z",
    "zip": "87110"
  },
  {
    "address": "101 W College Blvd",
    "city": "Roswell",
    "county": "Chaves County",
    "created_at": "2012-01-04T20:16:10Z",
    "id": 16392,
    "latitude": "33.408687",
    "longitude": "-104.522938",
    "mascot": "Shields",
    "name": "New Mexico Military Institute",
    "primary_color": "Red",
    "secondary_color": "Black",
    "state": "NM",
    "timezone": "America/Denver",
    "updated_at": "2012-07-08T00:32:42Z",
    "zip": "88201"
  },
  {
    "address": "PO Box 599",
    "city": "Eunice",
    "county": "Lea County",
    "created_at": "2012-01-04T20:16:10Z",
    "id": 16393,
    "latitude": "32.444450",
    "longitude": "-103.162264",
    "mascot": null,
    "name": "Eunice Holiness Academy",
    "primary_color": null,
    "secondary_color": null,
    "state": "NM",
    "timezone": "America/Denver",
    "updated_at": "2012-07-08T00:32:42Z",
    "zip": "88231"
  },
  {
    "address": "333 Bryce Ave",
    "city": "Los Alamos",
    "county": "Los Alamos County",
    "created_at": "2012-01-04T20:16:10Z",
    "id": 16394,
    "latitude": "35.823950",
    "longitude": "-106.202290",
    "mascot": null,
    "name": "Covenant Christian School",
    "primary_color": null,
    "secondary_color": null,
    "state": "NM",
    "timezone": "America/Denver",
    "updated_at": "2012-07-08T00:32:43Z",
    "zip": "87544"
  },
  {
    "address": "9 Miles N Hwy 666",
    "city": "Gamerco",
    "county": "McKinley County",
    "created_at": "2012-01-04T20:16:10Z",
    "id": 16395,
    "latitude": "35.572340",
    "longitude": "-108.765109",
    "mascot": null,
    "name": "Free Trinity School",
    "primary_color": null,
    "secondary_color": null,
    "state": "NM",
    "timezone": "America/Denver",
    "updated_at": "2012-07-08T00:32:43Z",
    "zip": "87317"
  },
  {
    "address": "Hwy 264 Mile Marker 9",
    "city": "Gallup",
    "county": "McKinley County",
    "created_at": "2012-01-04T20:16:10Z",
    "id": 16396,
    "latitude": "35.635020",
    "longitude": "-108.826974",
    "mascot": "Wildcats",
    "name": "Wildcat Christian Academy",
    "primary_color": "Black",
    "secondary_color": "White",
    "state": "NM",
    "timezone": "America/Denver",
    "updated_at": "2012-07-08T00:32:43Z",
    "zip": "87305"
  },
  {
    "address": "13735 US Hwy 64",
    "city": "Dulce",
    "county": "Rio Arriba County",
    "created_at": "2012-01-04T20:16:10Z",
    "id": 16397,
    "latitude": "36.933463",
    "longitude": "-106.958805",
    "mascot": "Eagles",
    "name": "Good News Christian Academy",
    "primary_color": "Gray",
    "secondary_color": "Maroon",
    "state": "NM",
    "timezone": "America/Denver",
    "updated_at": "2012-07-08T00:32:43Z",
    "zip": "87528"
  },
  {
    "address": "823 Angel Duran Dr",
    "city": "Espanola",
    "county": "Rio Arriba County",
    "created_at": "2012-01-04T20:16:10Z",
    "id": 16398,
    "latitude": "36.009198",
    "longitude": "-106.077960",
    "mascot": "Trojans",
    "name": "Victory Christian Academy",
    "primary_color": "Turquoise",
    "secondary_color": "Black",
    "state": "NM",
    "timezone": "America/Denver",
    "updated_at": "2012-07-08T00:32:44Z",
    "zip": "87532"
  },
  {
    "address": "615 W 4th St",
    "city": "Portales",
    "county": "Roosevelt County",
    "created_at": "2012-01-04T20:16:10Z",
    "id": 16399,
    "latitude": "34.181010",
    "longitude": "-103.339556",
    "mascot": "Conquerors",
    "name": "Faith Temple Christian School",
    "primary_color": "Gray",
    "secondary_color": "Purple",
    "state": "NM",
    "timezone": "America/Denver",
    "updated_at": "2012-07-08T00:32:44Z",
    "zip": "88130"
  },
  {
    "address": "65 Academy Dr",
    "city": "Corrales",
    "county": "Sandoval County",
    "created_at": "2012-01-04T20:16:10Z",
    "id": 16400,
    "latitude": "35.246241",
    "longitude": "-106.601940",
    "mascot": null,
    "name": "Sandia View Academy",
    "primary_color": null,
    "secondary_color": null,
    "state": "NM",
    "timezone": "America/Denver",
    "updated_at": "2012-07-08T00:32:44Z",
    "zip": "87048"
  },
  {
    "address": "CR 13 Bld 51",
    "city": "Cuba",
    "county": "Sandoval County",
    "created_at": "2012-01-04T20:16:10Z",
    "id": 16401,
    "latitude": "35.956383",
    "longitude": "-107.141559",
    "mascot": null,
    "name": "Torreon Christian School",
    "primary_color": "Royal",
    "secondary_color": "White",
    "state": "NM",
    "timezone": "America/Denver",
    "updated_at": "2012-07-08T00:32:44Z",
    "zip": "87013"
  },
  {
    "address": "700 County Rd 7730",
    "city": "Crownpoint",
    "county": "McKinley County",
    "created_at": "2012-01-04T20:16:10Z",
    "id": 16402,
    "latitude": "35.776233",
    "longitude": "-107.894374",
    "mascot": "Eagles",
    "name": "La Vida Mission School/Lake Valley Area",
    "primary_color": "Gold",
    "secondary_color": "Black",
    "state": "NM",
    "timezone": "America/Denver",
    "updated_at": "2012-07-08T00:32:45Z",
    "zip": "87313"
  },
  {
    "address": "2700 Harvard Dr",
    "city": "Farmington",
    "county": "San Juan County",
    "created_at": "2012-01-04T20:16:10Z",
    "id": 16403,
    "latitude": "36.758354",
    "longitude": "-108.169154",
    "mascot": "Eagles",
    "name": "College Heights Baptist Academy",
    "primary_color": "Red",
    "secondary_color": "Black",
    "state": "NM",
    "timezone": "America/Denver",
    "updated_at": "2012-07-08T00:32:45Z",
    "zip": "87402"
  },
  {
    "address": "2200 N Sullivan",
    "city": "Farmington",
    "county": "San Juan County",
    "created_at": "2012-01-04T20:16:10Z",
    "id": 16404,
    "latitude": "36.750044",
    "longitude": "-108.184208",
    "mascot": "Warriors",
    "name": "Grace Baptist Academy",
    "primary_color": "Royal",
    "secondary_color": "White",
    "state": "NM",
    "timezone": "America/Denver",
    "updated_at": "2012-07-08T00:32:45Z",
    "zip": "87401"
  },
  {
    "address": "Hwy 65",
    "city": "Montezuma",
    "county": "San Miguel County",
    "created_at": "2012-01-04T20:16:10Z",
    "id": 16405,
    "latitude": "35.699341",
    "longitude": "-105.415500",
    "mascot": "Worlds",
    "name": "Armand Hammer United World College High",
    "primary_color": "Royal",
    "secondary_color": "White",
    "state": "NM",
    "timezone": "America/Denver",
    "updated_at": "2012-07-08T00:32:45Z",
    "zip": "87731"
  },
  {
    "address": "830 Fayette St",
    "city": "Santa Fe",
    "county": "Santa Fe County",
    "created_at": "2012-01-04T20:16:10Z",
    "id": 16406,
    "latitude": "35.677926",
    "longitude": "-105.963133",
    "mascot": null,
    "name": "Fayette Street Academy",
    "primary_color": null,
    "secondary_color": null,
    "state": "NM",
    "timezone": "America/Denver",
    "updated_at": "2012-07-08T00:32:46Z",
    "zip": "87501"
  },
  {
    "address": "205 W Broadway",
    "city": "Mountainair",
    "county": "Torrance County",
    "created_at": "2012-01-04T20:16:10Z",
    "id": 16407,
    "latitude": "34.520400",
    "longitude": "-106.242093",
    "mascot": "Eagles",
    "name": "New Beginnings Christian Academy",
    "primary_color": "Gold",
    "secondary_color": "Royal",
    "state": "NM",
    "timezone": "America/Denver",
    "updated_at": "2012-07-08T00:32:46Z",
    "zip": "87036"
  },
  {
    "address": "500 Shash Dr",
    "city": "Fort Wingate",
    "county": "McKinley County",
    "created_at": "2012-01-04T20:16:10Z",
    "id": 16408,
    "latitude": "35.471092",
    "longitude": "-108.542636",
    "mascot": "Bears",
    "name": "Wingate High School",
    "primary_color": "Kelly Green",
    "secondary_color": "Orange",
    "state": "NM",
    "timezone": "America/Denver",
    "updated_at": "2012-07-08T00:32:46Z",
    "zip": "87316"
  },
  {
    "address": "1501 Cerrillos Rd",
    "city": "Santa Fe",
    "county": "Santa Fe County",
    "created_at": "2012-01-04T20:16:10Z",
    "id": 16409,
    "latitude": "35.668898",
    "longitude": "-105.967074",
    "mascot": "Braves",
    "name": "Santa Fe Indian School",
    "primary_color": "Red",
    "secondary_color": "Gold",
    "state": "NM",
    "timezone": "America/Denver",
    "updated_at": "2012-07-08T00:32:47Z",
    "zip": "87502"
  },
  {
    "address": "165 N Collison Ave",
    "city": "Cimarron",
    "county": "Colfax County",
    "created_at": "2012-01-04T20:16:10Z",
    "id": 16410,
    "latitude": "36.512258",
    "longitude": "-104.919558",
    "mascot": "Rams",
    "name": "Cimarron High School",
    "primary_color": "White",
    "secondary_color": "Red",
    "state": "NM",
    "timezone": "America/Denver",
    "updated_at": "2012-07-08T00:32:47Z",
    "zip": "87714"
  },
  {
    "address": "800 Odelia Rd NE",
    "city": "Albuquerque",
    "county": "Bernalillo County",
    "created_at": "2012-01-04T20:16:10Z",
    "id": 16411,
    "latitude": "35.098582",
    "longitude": "-106.635211",
    "mascot": "Bulldogs",
    "name": "Albuquerque High School",
    "primary_color": "Kelly Green",
    "secondary_color": "White",
    "state": "NM",
    "timezone": "America/Denver",
    "updated_at": "2012-07-08T00:32:47Z",
    "zip": "87102"
  },
  {
    "address": "807 Mountain Rd NE",
    "city": "Albuquerque",
    "county": "Bernalillo County",
    "created_at": "2012-01-04T20:16:10Z",
    "id": 16412,
    "latitude": "35.093947",
    "longitude": "-106.635700",
    "mascot": null,
    "name": "Career Enrichment Center",
    "primary_color": null,
    "secondary_color": null,
    "state": "NM",
    "timezone": "America/Denver",
    "updated_at": "2012-07-08T00:32:48Z",
    "zip": "87102"
  },
  {
    "address": "2332 San Mateo Pl NE",
    "city": "Albuquerque",
    "county": "Bernalillo County",
    "created_at": "2012-01-04T20:16:10Z",
    "id": 16413,
    "latitude": "35.105421",
    "longitude": "-106.586422",
    "mascot": null,
    "name": "Freedom High School",
    "primary_color": "Royal",
    "secondary_color": "White",
    "state": "NM",
    "timezone": "America/Denver",
    "updated_at": "2012-07-08T00:32:48Z",
    "zip": "87110"
  },
  {
    "address": "11300 Montgomery Blvd NE",
    "city": "Albuquerque",
    "county": "Bernalillo County",
    "created_at": "2012-01-04T20:16:10Z",
    "id": 16414,
    "latitude": "35.130590",
    "longitude": "-106.514213",
    "mascot": "Eagles",
    "name": "Eldorado High School",
    "primary_color": "Gold",
    "secondary_color": "Orange",
    "state": "NM",
    "timezone": "America/Denver",
    "updated_at": "2012-07-08T00:32:48Z",
    "zip": "87111"
  },
  {
    "address": "5400 Cutler St NE",
    "city": "Albuquerque",
    "county": "Bernalillo County",
    "created_at": "2012-01-04T20:16:10Z",
    "id": 16415,
    "latitude": "35.105522",
    "longitude": "-106.584097",
    "mascot": null,
    "name": "New Futures Junior Senior High School",
    "primary_color": "Royal",
    "secondary_color": "White",
    "state": "NM",
    "timezone": "America/Denver",
    "updated_at": "2012-07-08T00:32:48Z",
    "zip": "87110"
  },
  {
    "address": "2300 Arenal Rd SW",
    "city": "Albuquerque",
    "county": "Bernalillo County",
    "created_at": "2012-01-04T20:16:10Z",
    "id": 16416,
    "latitude": "35.051096",
    "longitude": "-106.693991",
    "mascot": "Ravens",
    "name": "Rio Grande High School",
    "primary_color": "Red",
    "secondary_color": "White",
    "state": "NM",
    "timezone": "America/Denver",
    "updated_at": "2012-07-08T00:32:49Z",
    "zip": "87105"
  },
  {
    "address": "100 N Lincoln",
    "city": "Dexter",
    "county": "Chaves County",
    "created_at": "2012-01-04T20:16:10Z",
    "id": 16417,
    "latitude": "33.197627",
    "longitude": "-104.371020",
    "mascot": "Demons",
    "name": "Dexter High School",
    "primary_color": "Royal",
    "secondary_color": "White",
    "state": "NM",
    "timezone": "America/Denver",
    "updated_at": "2012-07-08T00:32:49Z",
    "zip": "88230"
  },
  {
    "address": "700 Broadway",
    "city": "Lake Arthur",
    "county": "Chaves County",
    "created_at": "2012-01-04T20:16:10Z",
    "id": 16418,
    "latitude": "32.998132",
    "longitude": "-104.361925",
    "mascot": null,
    "name": "Lake Arthur Municipal School",
    "primary_color": null,
    "secondary_color": null,
    "state": "NM",
    "timezone": "America/Denver",
    "updated_at": "2012-07-08T00:32:49Z",
    "zip": "88253"
  },
  {
    "address": "701 E Country Club Rd",
    "city": "Roswell",
    "county": "Chaves County",
    "created_at": "2012-01-04T20:16:10Z",
    "id": 16419,
    "latitude": "33.423198",
    "longitude": "-104.513232",
    "mascot": "Rockets",
    "name": "Goddard High School",
    "primary_color": "Royal",
    "secondary_color": "White",
    "state": "NM",
    "timezone": "America/Denver",
    "updated_at": "2012-07-08T00:32:50Z",
    "zip": "88201"
  },
  {
    "address": "500 W Hobbs St",
    "city": "Roswell",
    "county": "Chaves County",
    "created_at": "2012-01-04T20:16:10Z",
    "id": 16420,
    "latitude": "33.372500",
    "longitude": "-104.527968",
    "mascot": "Coyotes",
    "name": "Roswell High School",
    "primary_color": "Red",
    "secondary_color": "White",
    "state": "NM",
    "timezone": "America/Denver",
    "updated_at": "2012-07-08T00:32:50Z",
    "zip": "88201"
  },
  {
    "address": "606 W O'Connor Rd",
    "city": "Roswell",
    "county": "Chaves County",
    "created_at": "2012-01-04T20:16:10Z",
    "id": 16421,
    "latitude": "33.328677",
    "longitude": "-104.529338",
    "mascot": "Phoenix",
    "name": "University High School",
    "primary_color": "Gold",
    "secondary_color": "Maroon",
    "state": "NM",
    "timezone": "America/Denver",
    "updated_at": "2012-07-08T00:32:50Z",
    "zip": "88201"
  },
  {
    "address": "1535 Tiger Cir",
    "city": "Raton",
    "county": "Colfax County",
    "created_at": "2012-01-04T20:16:10Z",
    "id": 16422,
    "latitude": "36.887627",
    "longitude": "-104.451300",
    "mascot": "Tigers",
    "name": "Raton High School",
    "primary_color": "Gold",
    "secondary_color": "Black",
    "state": "NM",
    "timezone": "America/Denver",
    "updated_at": "2012-07-08T00:32:50Z",
    "zip": "87740"
  },
  {
    "address": "1401 8th St",
    "city": "Springer",
    "county": "Colfax County",
    "created_at": "2012-01-04T20:16:10Z",
    "id": 16423,
    "latitude": "36.365650",
    "longitude": "-104.597249",
    "mascot": "Devils",
    "name": "Springer High School",
    "primary_color": "Red",
    "secondary_color": "Black",
    "state": "NM",
    "timezone": "America/Denver",
    "updated_at": "2012-07-08T00:32:51Z",
    "zip": "87747"
  },
  {
    "address": "1400 Cameo",
    "city": "Clovis",
    "county": "Curry County",
    "created_at": "2012-01-04T20:16:10Z",
    "id": 16424,
    "latitude": "34.412077",
    "longitude": "-103.222937",
    "mascot": "Bear Cubs",
    "name": "W D Gattis Junior High School",
    "primary_color": "Kelly Green",
    "secondary_color": "White",
    "state": "NM",
    "timezone": "America/Denver",
    "updated_at": "2012-07-08T00:32:51Z",
    "zip": "88101"
  },
  {
    "address": "410 E Franklin Ave",
    "city": "Grady",
    "county": "Curry County",
    "created_at": "2012-01-04T20:16:10Z",
    "id": 16425,
    "latitude": "34.822508",
    "longitude": "-103.311987",
    "mascot": "Bronchos",
    "name": "Grady School",
    "primary_color": "Royal",
    "secondary_color": "White",
    "state": "NM",
    "timezone": "America/Denver",
    "updated_at": "2012-07-08T00:32:51Z",
    "zip": "88120"
  },
  {
    "address": "100 E Missouri St",
    "city": "Melrose",
    "county": "Curry County",
    "created_at": "2012-01-04T20:16:10Z",
    "id": 16426,
    "latitude": "34.433647",
    "longitude": "-103.632335",
    "mascot": "Buffalos",
    "name": "Melrose Junior Senior High School",
    "primary_color": "Maroon",
    "secondary_color": "White",
    "state": "NM",
    "timezone": "America/Denver",
    "updated_at": "2012-07-08T00:32:51Z",
    "zip": "88124"
  },
  {
    "address": "1001 Sumner Ave",
    "city": "Fort Sumner",
    "county": "DeBaca County",
    "created_at": "2012-01-04T20:16:10Z",
    "id": 16427,
    "latitude": "34.469250",
    "longitude": "-104.237745",
    "mascot": "Foxes & Vixens",
    "name": "Fort Sumner High School",
    "primary_color": "Orange",
    "secondary_color": "Black",
    "state": "NM",
    "timezone": "America/Denver",
    "updated_at": "2012-07-08T00:32:52Z",
    "zip": "88119"
  },
  {
    "address": "1001 E Sumner Ave",
    "city": "Fort Sumner",
    "county": "DeBaca County",
    "created_at": "2012-01-04T20:16:10Z",
    "id": 16428,
    "latitude": "34.469250",
    "longitude": "-104.237745",
    "mascot": "Fox Vixens",
    "name": "Fort Sumner Junior High School",
    "primary_color": "Black",
    "secondary_color": "Orange",
    "state": "NM",
    "timezone": "America/Denver",
    "updated_at": "2012-07-08T00:32:52Z",
    "zip": "88119"
  },
  {
    "address": "400 Main St",
    "city": "Hatch",
    "county": "Doña Ana County",
    "created_at": "2012-01-04T20:16:10Z",
    "id": 16429,
    "latitude": "32.668429",
    "longitude": "-107.151713",
    "mascot": "Bears",
    "name": "Hatch Valley High School",
    "primary_color": "Red",
    "secondary_color": "Black",
    "state": "NM",
    "timezone": "America/Denver",
    "updated_at": "2012-07-08T00:32:52Z",
    "zip": "87937"
  },
  {
    "address": "1755 El Paseo Rd",
    "city": "Las Cruces",
    "county": "Doña Ana County",
    "created_at": "2012-01-04T20:16:10Z",
    "id": 16430,
    "latitude": "32.292387",
    "longitude": "-106.765832",
    "mascot": "Bulldawgs",
    "name": "Las Cruces High School",
    "primary_color": "White",
    "secondary_color": "Red",
    "state": "NM",
    "timezone": "America/Denver",
    "updated_at": "2012-07-08T00:32:53Z",
    "zip": "88001"
  },
  {
    "address": "1955 N Valley Dr",
    "city": "Las Cruces",
    "county": "Doña Ana County",
    "created_at": "2012-01-04T20:16:10Z",
    "id": 16431,
    "latitude": "32.324100",
    "longitude": "-106.801994",
    "mascot": "Trojans",
    "name": "Mayfield High School",
    "primary_color": "Kelly Green",
    "secondary_color": "Gold",
    "state": "NM",
    "timezone": "America/Denver",
    "updated_at": "2012-07-08T00:32:53Z",
    "zip": "88005"
  },
  {
    "address": "505 S Main St",
    "city": "Las Cruces",
    "county": "Doña Ana County",
    "created_at": "2012-01-04T20:16:10Z",
    "id": 16432,
    "latitude": "32.305577",
    "longitude": "-106.777399",
    "mascot": "Turtles",
    "name": "San Andres High School",
    "primary_color": "Maroon",
    "secondary_color": "White",
    "state": "NM",
    "timezone": "America/Denver",
    "updated_at": "2012-07-08T00:32:53Z",
    "zip": "88005"
  },
  {
    "address": "1006 W Richardson Ave",
    "city": "Artesia",
    "county": "Eddy County",
    "created_at": "2012-01-04T20:16:10Z",
    "id": 16433,
    "latitude": "32.840028",
    "longitude": "-104.408665",
    "mascot": "Bulldogs",
    "name": "Artesia High School",
    "primary_color": "Orange",
    "secondary_color": "White",
    "state": "NM",
    "timezone": "America/Denver",
    "updated_at": "2012-07-08T00:32:53Z",
    "zip": "88210"
  },
  {
    "address": "3000 W Church St",
    "city": "Carlsbad",
    "county": "Eddy County",
    "created_at": "2012-01-04T20:16:11Z",
    "id": 16434,
    "latitude": "32.428765",
    "longitude": "-104.263302",
    "mascot": "Cavemen",
    "name": "Carlsbad High School",
    "primary_color": "Royal",
    "secondary_color": "White",
    "state": "NM",
    "timezone": "America/Denver",
    "updated_at": "2012-07-08T00:32:54Z",
    "zip": "88220"
  },
  {
    "address": "602 6th St",
    "city": "Loving",
    "county": "Eddy County",
    "created_at": "2012-01-04T20:16:11Z",
    "id": 16435,
    "latitude": "32.279770",
    "longitude": "-104.098419",
    "mascot": "Falcons",
    "name": "Loving High School",
    "primary_color": "Red",
    "secondary_color": "Black",
    "state": "NM",
    "timezone": "America/Denver",
    "updated_at": "2012-07-08T00:32:54Z",
    "zip": "88256"
  },
  {
    "address": "100 Central Ave",
    "city": "Bayard",
    "county": "Grant County",
    "created_at": "2012-01-04T20:16:11Z",
    "id": 16436,
    "latitude": "32.760033",
    "longitude": "-108.131072",
    "mascot": "Indians",
    "name": "Cobre High School",
    "primary_color": "Red",
    "secondary_color": "White",
    "state": "NM",
    "timezone": "America/Denver",
    "updated_at": "2012-07-08T00:32:54Z",
    "zip": "88023"
  },
  {
    "address": "622 State Hwy 211",
    "city": "Cliff",
    "county": "Grant County",
    "created_at": "2012-01-04T20:16:11Z",
    "id": 16437,
    "latitude": "32.963685",
    "longitude": "-108.613259",
    "mascot": "Cowboys",
    "name": "Cliff School",
    "primary_color": "Red",
    "secondary_color": "Black",
    "state": "NM",
    "timezone": "America/Denver",
    "updated_at": "2012-07-08T00:32:54Z",
    "zip": "88028"
  },
  {
    "address": "3200 N Silver St",
    "city": "Silver City",
    "county": "Grant County",
    "created_at": "2012-01-04T20:16:11Z",
    "id": 16438,
    "latitude": "32.793227",
    "longitude": "-108.267165",
    "mascot": "Fighting Colts",
    "name": "Silver High School",
    "primary_color": "Gray",
    "secondary_color": "Navy",
    "state": "NM",
    "timezone": "America/Denver",
    "updated_at": "2012-07-08T00:32:54Z",
    "zip": "88061"
  },
  {
    "address": "1 Panther Dr Hwy 238",
    "city": "Animas",
    "county": "Hidalgo County",
    "created_at": "2012-01-04T20:16:11Z",
    "id": 16439,
    "latitude": "31.949107",
    "longitude": "-108.813180",
    "mascot": "Panthers",
    "name": "Animas High School",
    "primary_color": "Kelly Green",
    "secondary_color": "White",
    "state": "NM",
    "timezone": "America/Denver",
    "updated_at": "2012-07-08T00:32:55Z",
    "zip": "88020"
  },
  {
    "address": "101 E Stanolind Rd",
    "city": "Hobbs",
    "county": "Lea County",
    "created_at": "2012-01-04T20:16:11Z",
    "id": 16440,
    "latitude": "32.682082",
    "longitude": "-103.137243",
    "mascot": "Eagles",
    "name": "Heizer Junior High School",
    "primary_color": "Black ",
    "secondary_color": "Gold",
    "state": "NM",
    "timezone": "America/Denver",
    "updated_at": "2012-07-08T00:32:55Z",
    "zip": "88240"
  },
  {
    "address": "2500 N Jefferson St",
    "city": "Hobbs",
    "county": "Lea County",
    "created_at": "2012-01-04T20:16:11Z",
    "id": 16441,
    "latitude": "32.728223",
    "longitude": "-103.123231",
    "mascot": "Bears",
    "name": "Highland Junior High School",
    "primary_color": "Kelly Green",
    "secondary_color": "White",
    "state": "NM",
    "timezone": "America/Denver",
    "updated_at": "2012-07-08T00:32:55Z",
    "zip": "88240"
  },
  {
    "address": "300 N Houston St",
    "city": "Hobbs",
    "county": "Lea County",
    "created_at": "2012-01-04T20:16:11Z",
    "id": 16442,
    "latitude": "32.703031",
    "longitude": "-103.131230",
    "mascot": "Devils And Deamons",
    "name": "Houston Junior High School",
    "primary_color": "Red",
    "secondary_color": "White",
    "state": "NM",
    "timezone": "America/Denver",
    "updated_at": "2012-07-08T00:32:56Z",
    "zip": "88240"
  },
  {
    "address": "1720 Ave K",
    "city": "Eunice",
    "county": "Lea County",
    "created_at": "2012-01-04T20:16:11Z",
    "id": 16443,
    "latitude": "32.438390",
    "longitude": "-103.159469",
    "mascot": "Cardinals",
    "name": "Eunice High School",
    "primary_color": "Red",
    "secondary_color": "White",
    "state": "NM",
    "timezone": "America/Denver",
    "updated_at": "2012-07-08T00:32:56Z",
    "zip": "88231"
  },
  {
    "address": "100 Property St",
    "city": "Jal",
    "county": "Lea County",
    "created_at": "2012-01-04T20:16:11Z",
    "id": 16444,
    "latitude": "32.112600",
    "longitude": "-103.192779",
    "mascot": "Panthers",
    "name": "Jal High School",
    "primary_color": "Royal",
    "secondary_color": "Gold",
    "state": "NM",
    "timezone": "America/Denver",
    "updated_at": "2012-07-08T00:32:56Z",
    "zip": "88252"
  },
  {
    "address": "701 W Ave K",
    "city": "Lovington",
    "county": "Lea County",
    "created_at": "2012-01-04T20:16:11Z",
    "id": 16445,
    "latitude": "32.942872",
    "longitude": "-103.356910",
    "mascot": "Wildcats",
    "name": "Lovington High School",
    "primary_color": "Royal",
    "secondary_color": "White",
    "state": "NM",
    "timezone": "America/Denver",
    "updated_at": "2012-07-08T00:32:56Z",
    "zip": "88260"
  },
  {
    "address": "3rd & Ave B",
    "city": "Tatum",
    "county": "Lea County",
    "created_at": "2012-01-04T20:16:11Z",
    "id": 16446,
    "latitude": "33.257324",
    "longitude": "-103.319954",
    "mascot": "Coyotes",
    "name": "Tatum Junior Senior High School",
    "primary_color": "Red",
    "secondary_color": "White",
    "state": "NM",
    "timezone": "America/Denver",
    "updated_at": "2012-07-08T00:32:57Z",
    "zip": "88267"
  },
  {
    "address": "150 Forest St",
    "city": "Capitan",
    "county": "Lincoln County",
    "created_at": "2012-01-04T20:16:11Z",
    "id": 16447,
    "latitude": "33.651633",
    "longitude": "-105.428536",
    "mascot": "Tigers",
    "name": "Capitan High School",
    "primary_color": "Black",
    "secondary_color": "Orange",
    "state": "NM",
    "timezone": "America/Denver",
    "updated_at": "2012-07-08T00:32:57Z",
    "zip": "88316"
  },
  {
    "address": "380 Hwy 70 E",
    "city": "Hondo",
    "county": "Lincoln County",
    "created_at": "2012-01-04T20:16:11Z",
    "id": 16448,
    "latitude": "33.419400",
    "longitude": "-105.421079",
    "mascot": "Eagles",
    "name": "Hondo Valley Public School",
    "primary_color": "Royal",
    "secondary_color": "White",
    "state": "NM",
    "timezone": "America/Denver",
    "updated_at": "2012-07-08T00:32:58Z",
    "zip": "88336"
  },
  {
    "address": "1300 Diamond Dr",
    "city": "Los Alamos",
    "county": "Los Alamos County",
    "created_at": "2012-01-04T20:16:11Z",
    "id": 16449,
    "latitude": "35.886701",
    "longitude": "-106.317956",
    "mascot": "Hilltoppers",
    "name": "Los Alamos High School",
    "primary_color": "Gold",
    "secondary_color": "Hunter Green",
    "state": "NM",
    "timezone": "America/Denver",
    "updated_at": "2012-07-08T00:32:58Z",
    "zip": "87544"
  },
  {
    "address": "1100 S Nickel",
    "city": "Deming",
    "county": "Luna County",
    "created_at": "2012-01-04T20:16:11Z",
    "id": 16450,
    "latitude": "32.257665",
    "longitude": "-107.763121",
    "mascot": "Wildcats",
    "name": "Deming High School",
    "primary_color": "Navy",
    "secondary_color": "Red",
    "state": "NM",
    "timezone": "America/Denver",
    "updated_at": "2012-07-08T00:32:58Z",
    "zip": "88030"
  },
  {
    "address": "1 Eagle Dr",
    "city": "Crownpoint",
    "county": "McKinley County",
    "created_at": "2012-01-04T20:16:11Z",
    "id": 16451,
    "latitude": "35.776233",
    "longitude": "-107.894374",
    "mascot": "Eagles",
    "name": "Crownpoint High School",
    "primary_color": "Red",
    "secondary_color": "Black",
    "state": "NM",
    "timezone": "America/Denver",
    "updated_at": "2012-07-08T00:32:58Z",
    "zip": "87313"
  },
  {
    "address": "1055 Rico St",
    "city": "Gallup",
    "county": "McKinley County",
    "created_at": "2012-01-04T20:16:11Z",
    "id": 16452,
    "latitude": "35.504109",
    "longitude": "-108.820717",
    "mascot": "Bengals",
    "name": "Gallup High School",
    "primary_color": "Orange",
    "secondary_color": "Black",
    "state": "NM",
    "timezone": "America/Denver",
    "updated_at": "2012-07-08T00:32:58Z",
    "zip": "87301"
  },
  {
    "address": "4 Hawks Cir",
    "city": "Thoreau",
    "county": "McKinley County",
    "created_at": "2012-01-04T20:16:11Z",
    "id": 16453,
    "latitude": "35.569722",
    "longitude": "-107.732297",
    "mascot": "Hawks",
    "name": "Thoreau High School",
    "primary_color": "Gold",
    "secondary_color": "Hunter Green",
    "state": "NM",
    "timezone": "America/Denver",
    "updated_at": "2012-07-08T00:32:59Z",
    "zip": "87323"
  },
  {
    "address": "1 Walnut",
    "city": "Navajo",
    "county": "McKinley County",
    "created_at": "2012-01-04T20:16:11Z",
    "id": 16454,
    "latitude": "35.906803",
    "longitude": "-109.031049",
    "mascot": "Warriors",
    "name": "Navajo Pine High School",
    "primary_color": "Gray",
    "secondary_color": "Royal",
    "state": "NM",
    "timezone": "America/Denver",
    "updated_at": "2012-07-08T00:32:59Z",
    "zip": "87328"
  },
  {
    "address": "27 Lewis",
    "city": "Ramah",
    "county": "McKinley County",
    "created_at": "2012-01-04T20:16:11Z",
    "id": 16455,
    "latitude": "35.134615",
    "longitude": "-108.497309",
    "mascot": "Mustangs",
    "name": "Ramah High School",
    "primary_color": "Gray",
    "secondary_color": "Maroon",
    "state": "NM",
    "timezone": "America/Denver",
    "updated_at": "2012-07-08T00:32:59Z",
    "zip": "87321"
  },
  {
    "address": "1271 Hwy 53",
    "city": "Zuni",
    "county": "McKinley County",
    "created_at": "2012-01-04T20:16:11Z",
    "id": 16456,
    "latitude": "35.072384",
    "longitude": "-108.837057",
    "mascot": "Thunderbirds",
    "name": "Zuni High School",
    "primary_color": "Gold",
    "secondary_color": "Royal",
    "state": "NM",
    "timezone": "America/Denver",
    "updated_at": "2012-07-08T00:32:59Z",
    "zip": "87327"
  },
  {
    "address": "16 St Anthony Dr",
    "city": "Zuni",
    "county": "McKinley County",
    "created_at": "2012-01-04T20:16:11Z",
    "id": 16457,
    "latitude": "35.069807",
    "longitude": "-108.851667",
    "mascot": "Panthers",
    "name": "Twin Buttes Junior Senior High School",
    "primary_color": "Gray",
    "secondary_color": "Maroon",
    "state": "NM",
    "timezone": "America/Denver",
    "updated_at": "2012-07-08T00:33:00Z",
    "zip": "87327"
  },
  {
    "address": "103 Cuba Ave",
    "city": "Alamogordo",
    "county": "Otero County",
    "created_at": "2012-01-04T20:16:11Z",
    "id": 16458,
    "latitude": "32.890531",
    "longitude": "-105.946318",
    "mascot": "Tigers",
    "name": "Alamogordo High School",
    "primary_color": "Gold",
    "secondary_color": "Black",
    "state": "NM",
    "timezone": "America/Denver",
    "updated_at": "2012-07-08T00:33:00Z",
    "zip": "88310"
  },
  {
    "address": "504 1st St",
    "city": "Tularosa",
    "county": "Otero County",
    "created_at": "2012-01-04T20:16:11Z",
    "id": 16459,
    "latitude": "33.072848",
    "longitude": "-106.014171",
    "mascot": "Wildcats",
    "name": "Tularosa High School",
    "primary_color": "Maroon",
    "secondary_color": "White",
    "state": "NM",
    "timezone": "America/Denver",
    "updated_at": "2012-07-08T00:33:00Z",
    "zip": "88352"
  },
  {
    "address": "1100 S 7th St",
    "city": "Tucumcari",
    "county": "Quay County",
    "created_at": "2012-01-04T20:16:11Z",
    "id": 16460,
    "latitude": "35.168565",
    "longitude": "-103.732521",
    "mascot": "Rattlers",
    "name": "Tucumcari High School",
    "primary_color": "Gold",
    "secondary_color": "Purple",
    "state": "NM",
    "timezone": "America/Denver",
    "updated_at": "2012-07-08T00:33:00Z",
    "zip": "88401"
  },
  {
    "address": "Hawk Dr",
    "city": "Dulce",
    "county": "Rio Arriba County",
    "created_at": "2012-01-04T20:16:11Z",
    "id": 16461,
    "latitude": "36.934960",
    "longitude": "-106.987664",
    "mascot": "Hawks",
    "name": "Dulce Middle & High School",
    "primary_color": "Gold",
    "secondary_color": "Columbia Blue",
    "state": "NM",
    "timezone": "America/Denver",
    "updated_at": "2012-07-08T00:33:01Z",
    "zip": "87528"
  },
  {
    "address": "State Hwy 531",
    "city": "Tierra Amaril",
    "county": "Rio Arriba County",
    "created_at": "2012-01-04T20:16:11Z",
    "id": 16462,
    "latitude": "36.702034",
    "longitude": "-106.592970",
    "mascot": "Lobos",
    "name": "Escalante High School",
    "primary_color": "Red",
    "secondary_color": "Black",
    "state": "NM",
    "timezone": "America/Denver",
    "updated_at": "2012-07-08T00:33:01Z",
    "zip": "87575"
  },
  {
    "address": "103 N Church St",
    "city": "Elida",
    "county": "Roosevelt County",
    "created_at": "2012-01-04T20:16:11Z",
    "id": 16463,
    "latitude": "33.946976",
    "longitude": "-103.652511",
    "mascot": "Tigers",
    "name": "Elida School",
    "primary_color": "Purple",
    "secondary_color": "White",
    "state": "NM",
    "timezone": "America/Denver",
    "updated_at": "2012-07-08T00:33:01Z",
    "zip": "88116"
  },
  {
    "address": "250 Isidro Sanchez Rd",
    "city": "Bernalillo",
    "county": "Sandoval County",
    "created_at": "2012-01-04T20:16:11Z",
    "id": 16464,
    "latitude": "35.320569",
    "longitude": "-106.542655",
    "mascot": "Spartans",
    "name": "Bernalillo High School",
    "primary_color": "Red",
    "secondary_color": "Gray",
    "state": "NM",
    "timezone": "America/Denver",
    "updated_at": "2012-07-08T00:33:02Z",
    "zip": "87004"
  },
  {
    "address": "329 N Bergin Ln",
    "city": "Bloomfield",
    "county": "San Juan County",
    "created_at": "2012-01-04T20:16:11Z",
    "id": 16465,
    "latitude": "36.714222",
    "longitude": "-108.001605",
    "mascot": "Bobcats",
    "name": "Mesa Alta Junior High School",
    "primary_color": "Royal",
    "secondary_color": "Gold",
    "state": "NM",
    "timezone": "America/Denver",
    "updated_at": "2012-07-08T00:33:02Z",
    "zip": "87413"
  },
  {
    "address": "2200 Sunset Ave",
    "city": "Farmington",
    "county": "San Juan County",
    "created_at": "2012-01-04T20:16:11Z",
    "id": 16466,
    "latitude": "36.750388",
    "longitude": "-108.206780",
    "mascot": "Scorpions",
    "name": "Farmington High School",
    "primary_color": "Kelly Green",
    "secondary_color": "Black",
    "state": "NM",
    "timezone": "America/Denver",
    "updated_at": "2012-07-08T00:33:02Z",
    "zip": "87401"
  },
  {
    "address": "Hwy 666",
    "city": "Newcomb",
    "county": "San Juan County",
    "created_at": "2012-01-04T20:16:11Z",
    "id": 16467,
    "latitude": "36.421590",
    "longitude": "-108.721552",
    "mascot": "Sky Hawks",
    "name": "Newcomb Middle High School",
    "primary_color": "Gold",
    "secondary_color": "Kelly Green",
    "state": "NM",
    "timezone": "America/Denver",
    "updated_at": "2012-07-08T00:33:02Z",
    "zip": "87455"
  },
  {
    "address": "N Hwy 63",
    "city": "Pecos",
    "county": "San Miguel County",
    "created_at": "2012-01-04T20:16:11Z",
    "id": 16468,
    "latitude": "35.496657",
    "longitude": "-105.673191",
    "mascot": "Panthers",
    "name": "Pecos High School",
    "primary_color": "Kelly Green",
    "secondary_color": "Gold",
    "state": "NM",
    "timezone": "America/Denver",
    "updated_at": "2012-07-08T00:33:03Z",
    "zip": "87552"
  },
  {
    "address": "2100 Yucca Rd",
    "city": "Santa Fe",
    "county": "Santa Fe County",
    "created_at": "2012-01-04T20:16:11Z",
    "id": 16469,
    "latitude": "35.651477",
    "longitude": "-105.973791",
    "mascot": "Demons",
    "name": "Santa Fe High School",
    "primary_color": "Royal",
    "secondary_color": "Gold",
    "state": "NM",
    "timezone": "America/Denver",
    "updated_at": "2012-07-08T00:33:04Z",
    "zip": "87505"
  },
  {
    "address": "4851 Paseo Del Sol Dr",
    "city": "Santa Fe",
    "county": "Santa Fe County",
    "created_at": "2012-01-04T20:16:11Z",
    "id": 16470,
    "latitude": "35.638967",
    "longitude": "-106.039553",
    "mascot": "Jaguars",
    "name": "Capital High School",
    "primary_color": "Teal",
    "secondary_color": "Gray",
    "state": "NM",
    "timezone": "America/Denver",
    "updated_at": "2012-07-08T00:33:04Z",
    "zip": "87507"
  },
  {
    "address": "1574 State Rd 502",
    "city": "Santa Fe",
    "county": "Santa Fe County",
    "created_at": "2012-01-04T20:16:11Z",
    "id": 16471,
    "latitude": "35.881807",
    "longitude": "-106.053510",
    "mascot": "Elks",
    "name": "Pojoaque Valley High School",
    "primary_color": "Kelly Green",
    "secondary_color": "White",
    "state": "NM",
    "timezone": "America/Denver",
    "updated_at": "2012-07-08T00:33:04Z",
    "zip": "87506"
  },
  {
    "address": "Hwy 60 W",
    "city": "Socorro",
    "county": "Socorro County",
    "created_at": "2012-01-04T20:16:11Z",
    "id": 16472,
    "latitude": "34.050229",
    "longitude": "-106.902427",
    "mascot": "Warriors",
    "name": "Socorro High School",
    "primary_color": "Royal",
    "secondary_color": "White",
    "state": "NM",
    "timezone": "America/Denver",
    "updated_at": "2012-07-08T00:33:05Z",
    "zip": "87801"
  },
  {
    "address": "134 Cervantes St",
    "city": "Taos",
    "county": "Taos County",
    "created_at": "2012-01-04T20:16:11Z",
    "id": 16473,
    "latitude": "36.391746",
    "longitude": "-105.578204",
    "mascot": "Tigers",
    "name": "Taos High School",
    "primary_color": "Orange",
    "secondary_color": "Black",
    "state": "NM",
    "timezone": "America/Denver",
    "updated_at": "2012-07-08T00:33:05Z",
    "zip": "87571"
  },
  {
    "address": "200 Center St",
    "city": "Moriarty",
    "county": "Torrance County",
    "created_at": "2012-01-04T20:16:11Z",
    "id": 16474,
    "latitude": "34.989592",
    "longitude": "-106.044866",
    "mascot": "Fighting Pintos",
    "name": "Moriarty High School",
    "primary_color": "Kelly Green",
    "secondary_color": "White",
    "state": "NM",
    "timezone": "America/Denver",
    "updated_at": "2012-07-08T00:33:05Z",
    "zip": "87035"
  },
  {
    "address": "901 W 3rd St",
    "city": "Mountainair",
    "county": "Torrance County",
    "created_at": "2012-01-04T20:16:11Z",
    "id": 16475,
    "latitude": "34.518340",
    "longitude": "-106.250004",
    "mascot": "Mustangs",
    "name": "Mountainair Junior Senior High School",
    "primary_color": "Gray",
    "secondary_color": "Red",
    "state": "NM",
    "timezone": "America/Denver",
    "updated_at": "2012-07-08T00:33:05Z",
    "zip": "87036"
  },
  {
    "address": "323 S 5th St",
    "city": "Clayton",
    "county": "Union County",
    "created_at": "2012-01-04T20:16:11Z",
    "id": 16476,
    "latitude": "36.450872",
    "longitude": "-103.177975",
    "mascot": "Yellowjackets",
    "name": "Clayton High School",
    "primary_color": "Orange",
    "secondary_color": "Black",
    "state": "NM",
    "timezone": "America/Denver",
    "updated_at": "2012-07-08T00:33:06Z",
    "zip": "88415"
  },
  {
    "address": "500 Des Moines Ave",
    "city": "Des Moines",
    "county": "Union County",
    "created_at": "2012-01-04T20:16:11Z",
    "id": 16477,
    "latitude": "36.759421",
    "longitude": "-103.832209",
    "mascot": "Demons",
    "name": "Des Moines Municipal School",
    "primary_color": "Gold",
    "secondary_color": "Black",
    "state": "NM",
    "timezone": "America/Denver",
    "updated_at": "2012-07-08T00:33:06Z",
    "zip": "88418"
  },
  {
    "address": "500 Mountain Rd",
    "city": "Grants",
    "county": "Cibola County",
    "created_at": "2012-01-04T20:16:11Z",
    "id": 16478,
    "latitude": "35.156887",
    "longitude": "-107.848976",
    "mascot": "Pirates",
    "name": "Grants High School",
    "primary_color": "Red",
    "secondary_color": "Black",
    "state": "NM",
    "timezone": "America/Denver",
    "updated_at": "2012-07-08T00:33:06Z",
    "zip": "87020"
  },
  {
    "address": "I40 W Exit 108, 1 Mile S",
    "city": "Casa Blanca",
    "county": "Cibola County",
    "created_at": "2012-01-04T20:16:11Z",
    "id": 16479,
    "latitude": "35.067026",
    "longitude": "-107.439415",
    "mascot": "Hawks",
    "name": "Laguna-Acoma Junior Senior High School",
    "primary_color": "Gray",
    "secondary_color": "Royal",
    "state": "NM",
    "timezone": "America/Denver",
    "updated_at": "2012-07-08T00:33:07Z",
    "zip": "87007"
  },
  {
    "address": "904 Spring St",
    "city": "Socorro",
    "county": "Socorro County",
    "created_at": "2012-01-04T20:16:11Z",
    "id": 16480,
    "latitude": "34.052097",
    "longitude": "-106.901521",
    "mascot": "Warriors",
    "name": "Aim High Alternative School",
    "primary_color": "Royal",
    "secondary_color": "White",
    "state": "NM",
    "timezone": "America/Denver",
    "updated_at": "2012-07-08T00:33:07Z",
    "zip": "87801"
  },
  {
    "address": "402 San Clemente NW",
    "city": "Albuquerque",
    "county": "Bernalillo County",
    "created_at": "2012-01-04T20:16:11Z",
    "id": 16481,
    "latitude": "35.127097",
    "longitude": "-106.644030",
    "mascot": "Warriors",
    "name": "Old Time Gospel",
    "primary_color": "Red",
    "secondary_color": "Royal",
    "state": "NM",
    "timezone": "America/Denver",
    "updated_at": "2012-07-08T00:33:07Z",
    "zip": "87107"
  },
  {
    "address": "1200 E 30th St",
    "city": "Farmington",
    "county": "San Juan County",
    "created_at": "2012-01-04T20:16:11Z",
    "id": 16482,
    "latitude": "36.755612",
    "longitude": "-108.193274",
    "mascot": "Saints",
    "name": "Living Word Christian School",
    "primary_color": "Columbia Blue",
    "secondary_color": "Navy",
    "state": "NM",
    "timezone": "America/Denver",
    "updated_at": "2012-07-08T00:33:07Z",
    "zip": "87401"
  },
  {
    "address": "1105 S Miller",
    "city": "Farmington",
    "county": "San Juan County",
    "created_at": "2012-01-04T20:16:11Z",
    "id": 16483,
    "latitude": "36.719130",
    "longitude": "-108.202756",
    "mascot": null,
    "name": "Bible Baptist Shepherd School",
    "primary_color": "Red",
    "secondary_color": "Black",
    "state": "NM",
    "timezone": "America/Denver",
    "updated_at": "2012-07-08T00:33:08Z",
    "zip": "87401"
  },
  {
    "address": "290 East Lisa Drive",
    "city": "Chaparral",
    "county": "Doña Ana County",
    "created_at": "2012-01-04T20:16:11Z",
    "id": 16484,
    "latitude": "32.038141",
    "longitude": "-106.412731",
    "mascot": "Knights",
    "name": "Chaparral High School",
    "primary_color": "Royal Blue",
    "secondary_color": "White",
    "state": "NM",
    "timezone": "America/Denver",
    "updated_at": "2012-07-08T00:33:08Z",
    "zip": "88021"
  },
  {
    "address": "PO Box 925",
    "city": "Tijeras",
    "county": "Bernalillo County",
    "created_at": "2012-01-04T20:16:11Z",
    "id": 16485,
    "latitude": "34.926700",
    "longitude": "-106.288559",
    "mascot": null,
    "name": "Oak Flats Christian School",
    "primary_color": "Royal",
    "secondary_color": "White",
    "state": "NM",
    "timezone": "America/Denver",
    "updated_at": "2012-07-08T00:33:08Z",
    "zip": "87059"
  },
  {
    "address": "2851 Arenal Rd SW",
    "city": "Albuquerque",
    "county": "Bernalillo County",
    "created_at": "2012-01-04T20:16:11Z",
    "id": 16486,
    "latitude": "35.051228",
    "longitude": "-106.703128",
    "mascot": null,
    "name": "Abundant Life Christian School",
    "primary_color": "Maroon",
    "secondary_color": "Navy",
    "state": "NM",
    "timezone": "America/Denver",
    "updated_at": "2012-07-08T00:33:08Z",
    "zip": "87121"
  },
  {
    "address": "580 N Mesa Rd",
    "city": "Los Alamos",
    "county": "Los Alamos County",
    "created_at": "2012-01-04T20:16:11Z",
    "id": 16487,
    "latitude": "35.895031",
    "longitude": "-106.286679",
    "mascot": "Warriors",
    "name": "Calvary Christian School",
    "primary_color": "Royal",
    "secondary_color": "White",
    "state": "NM",
    "timezone": "America/Denver",
    "updated_at": "2012-07-08T00:33:09Z",
    "zip": "87544"
  },
  {
    "address": "12 Unser Blvd",
    "city": "Rio Rancho",
    "county": "Sandoval County",
    "created_at": "2012-01-04T20:16:11Z",
    "id": 16488,
    "latitude": "35.257573",
    "longitude": "-106.696845",
    "mascot": "Mavericks",
    "name": "Christian Life Academy",
    "primary_color": "Turquoise",
    "secondary_color": "Black",
    "state": "NM",
    "timezone": "America/Denver",
    "updated_at": "2012-07-08T00:33:09Z",
    "zip": "87124"
  },
  {
    "address": "100 Airport Road",
    "city": "Santa Teresa",
    "county": "Doña Ana County",
    "created_at": "2012-01-04T20:16:11Z",
    "id": 16489,
    "latitude": "31.862812",
    "longitude": "-106.646638",
    "mascot": "Desert Warriors",
    "name": "Santa Teresa High School",
    "primary_color": "Black",
    "secondary_color": "Turquoise",
    "state": "NM",
    "timezone": "America/Denver",
    "updated_at": "2012-07-08T00:33:09Z",
    "zip": "88008"
  },
  {
    "address": "125 Warrior Dr",
    "city": "Ruidoso",
    "county": "Lincoln County",
    "created_at": "2012-01-04T20:16:11Z",
    "id": 16490,
    "latitude": "33.351317",
    "longitude": "-105.653895",
    "mascot": "Warriors",
    "name": "Ruidoso High School",
    "primary_color": "Gold",
    "secondary_color": "Royal",
    "state": "NM",
    "timezone": "America/Denver",
    "updated_at": "2012-07-08T00:33:10Z",
    "zip": "88345"
  },
  {
    "address": "21 CR 356",
    "city": "Mora",
    "county": "Mora County",
    "created_at": "2012-01-04T20:16:11Z",
    "id": 16491,
    "latitude": "35.996132",
    "longitude": "-105.372217",
    "mascot": "Rangers And Rangerettes",
    "name": "Mora High School",
    "primary_color": "Kelly Green",
    "secondary_color": "White",
    "state": "NM",
    "timezone": "America/Denver",
    "updated_at": "2012-07-08T00:33:10Z",
    "zip": "87732"
  },
  {
    "address": "8501 Hwy 4",
    "city": "Jemez Pueblo",
    "county": "Sandoval County",
    "created_at": "2012-01-04T20:16:11Z",
    "id": 16492,
    "latitude": "35.655560",
    "longitude": "-106.735247",
    "mascot": "Warriors",
    "name": "Jemez Valley High School",
    "primary_color": "Kelly Green",
    "secondary_color": "Gold",
    "state": "NM",
    "timezone": "America/Denver",
    "updated_at": "2012-07-08T00:33:10Z",
    "zip": "87024"
  },
  {
    "address": "3250 E 30th St",
    "city": "Farmington",
    "county": "San Juan County",
    "created_at": "2012-01-04T20:16:11Z",
    "id": 16493,
    "latitude": "36.759028",
    "longitude": "-108.162822",
    "mascot": "Rebels",
    "name": "Rocinante High School",
    "primary_color": "Gray",
    "secondary_color": "Maroon",
    "state": "NM",
    "timezone": "America/Denver",
    "updated_at": "2012-07-08T00:33:10Z",
    "zip": "87402"
  },
  {
    "address": "Hwy 285 & 111",
    "city": "Ojo Caliente",
    "county": "Taos County",
    "created_at": "2012-01-04T20:16:11Z",
    "id": 16494,
    "latitude": "36.358764",
    "longitude": "-105.889506",
    "mascot": "Trojans",
    "name": "Mesa Vista Middle & High School",
    "primary_color": "Black",
    "secondary_color": "Gold",
    "state": "NM",
    "timezone": "America/Denver",
    "updated_at": "2012-07-08T00:33:11Z",
    "zip": "87549"
  },
  {
    "address": "800 Hinkle Rd",
    "city": "Clovis",
    "county": "Curry County",
    "created_at": "2012-01-04T20:16:11Z",
    "id": 16495,
    "latitude": "34.405863",
    "longitude": "-103.211717",
    "mascot": "Eagles",
    "name": "Clovis Christian School",
    "primary_color": "Gold",
    "secondary_color": "Royal",
    "state": "NM",
    "timezone": "America/Denver",
    "updated_at": "2012-07-08T00:33:11Z",
    "zip": "88101"
  },
  {
    "address": "4700 Coal Ave SE",
    "city": "Albuquerque",
    "county": "Bernalillo County",
    "created_at": "2012-01-04T20:16:11Z",
    "id": 16496,
    "latitude": "35.075647",
    "longitude": "-106.592306",
    "mascot": "Hornets",
    "name": "Highland High School",
    "primary_color": "Gold",
    "secondary_color": "Royal",
    "state": "NM",
    "timezone": "America/Denver",
    "updated_at": "2012-07-08T00:33:12Z",
    "zip": "87108"
  },
  {
    "address": "165 OJO Ct",
    "city": "Farmington",
    "county": "San Juan County",
    "created_at": "2012-01-04T20:16:11Z",
    "id": 16497,
    "latitude": "36.720342",
    "longitude": "-108.232049",
    "mascot": null,
    "name": "Casa Amigos",
    "primary_color": "Red",
    "secondary_color": "White",
    "state": "NM",
    "timezone": "America/Denver",
    "updated_at": "2012-07-08T00:33:12Z",
    "zip": "87499"
  },
  {
    "address": "3021 Todos Santos NW",
    "city": "Albuquerque",
    "county": "Bernalillo County",
    "created_at": "2012-01-04T20:16:11Z",
    "id": 16498,
    "latitude": "35.116161",
    "longitude": "-106.722976",
    "mascot": "Warriors",
    "name": "The Church Christian Academy",
    "primary_color": "Gold",
    "secondary_color": "Turquoise",
    "state": "NM",
    "timezone": "America/Denver",
    "updated_at": "2012-07-08T00:33:12Z",
    "zip": "87120"
  },
  {
    "address": "Box 1",
    "city": "Valmora",
    "county": "Mora County",
    "created_at": "2012-01-04T20:16:11Z",
    "id": 16499,
    "latitude": "35.795050",
    "longitude": "-104.933488",
    "mascot": "Blackhawks",
    "name": "Valmora High School",
    "primary_color": "Gray",
    "secondary_color": "Black",
    "state": "NM",
    "timezone": "America/Denver",
    "updated_at": "2012-07-08T00:33:12Z",
    "zip": "87750"
  },
  {
    "address": "325 Marguerite St",
    "city": "Gallup",
    "county": "McKinley County",
    "created_at": "2012-01-04T20:16:11Z",
    "id": 16500,
    "latitude": "35.516714",
    "longitude": "-108.770813",
    "mascot": "Wild Cats",
    "name": "Gallop Central Alternative High School",
    "primary_color": "Gray",
    "secondary_color": "Purple",
    "state": "NM",
    "timezone": "America/Denver",
    "updated_at": "2012-07-08T00:33:12Z",
    "zip": "87301"
  },
  {
    "address": "406 N Cambridge St",
    "city": "Hagerman",
    "county": "Chaves County",
    "created_at": "2012-01-04T20:16:11Z",
    "id": 16501,
    "latitude": "33.117859",
    "longitude": "-104.326217",
    "mascot": "Bobcats",
    "name": "Hagerman High School",
    "primary_color": "Kelly Green",
    "secondary_color": "White",
    "state": "NM",
    "timezone": "America/Denver",
    "updated_at": "2012-07-08T00:33:13Z",
    "zip": "88232"
  },
  {
    "address": "301 W Amador",
    "city": "Las Cruces",
    "county": "Doña Ana County",
    "created_at": "2012-01-04T20:16:11Z",
    "id": 16502,
    "latitude": "32.306584",
    "longitude": "-106.780793",
    "mascot": null,
    "name": "Mesilla Valley Vocational Training",
    "primary_color": "Turquoise",
    "secondary_color": "Red",
    "state": "NM",
    "timezone": "America/Denver",
    "updated_at": "2012-07-08T00:33:13Z",
    "zip": "88005"
  },
  {
    "address": "7801 Candelaria Rd NE",
    "city": "Albuquerque",
    "county": "Bernalillo County",
    "created_at": "2012-01-04T20:16:11Z",
    "id": 16503,
    "latitude": "35.116498",
    "longitude": "-106.557553",
    "mascot": "Matadors",
    "name": "Sandia High School",
    "primary_color": "Columbia Blue",
    "secondary_color": "Red",
    "state": "NM",
    "timezone": "America/Denver",
    "updated_at": "2012-07-08T00:33:13Z",
    "zip": "87110"
  },
  {
    "address": "301 Loma Colorado",
    "city": "Rio Rancho",
    "county": "Sandoval County",
    "created_at": "2012-01-04T20:16:11Z",
    "id": 16504,
    "latitude": "35.262578",
    "longitude": "-106.671927",
    "mascot": "Rams",
    "name": "Rio Rancho High School",
    "primary_color": "Hunter Green",
    "secondary_color": "Navy",
    "state": "NM",
    "timezone": "America/Denver",
    "updated_at": "2012-07-08T00:33:13Z",
    "zip": "87124"
  },
  {
    "address": "HC 73 Box 33",
    "city": "Tererro",
    "county": "San Miguel County",
    "created_at": "2012-01-04T20:16:11Z",
    "id": 16505,
    "latitude": "35.737707",
    "longitude": "-105.621746",
    "mascot": "Bulldogs",
    "name": "Brush Ranch School",
    "primary_color": "Navy",
    "secondary_color": "Gold",
    "state": "NM",
    "timezone": "America/Denver",
    "updated_at": "2012-07-08T00:33:14Z",
    "zip": "87573"
  },
  {
    "address": "69 Blueberry Hill Rd",
    "city": "Ranchos De Taos",
    "county": "Taos County",
    "created_at": "2012-01-04T20:16:11Z",
    "id": 16506,
    "latitude": "36.337563",
    "longitude": "-105.604423",
    "mascot": "Tree Frogs",
    "name": "Chamisa Mesa High School",
    "primary_color": "Hunter Green",
    "secondary_color": "Maroon",
    "state": "NM",
    "timezone": "America/Denver",
    "updated_at": "2012-07-08T00:33:14Z",
    "zip": "87557"
  },
  {
    "address": "Rt 125",
    "city": "Pine Hill",
    "county": "Cibola County",
    "created_at": "2012-01-04T20:16:11Z",
    "id": 16507,
    "latitude": "34.999378",
    "longitude": "-108.409697",
    "mascot": "Warriors",
    "name": "Pine Hill High School",
    "primary_color": "Red",
    "secondary_color": "Teal",
    "state": "NM",
    "timezone": "America/Denver",
    "updated_at": "2012-07-08T00:33:14Z",
    "zip": "87357"
  },
  {
    "address": "1301 Santa Rita",
    "city": "Silver City",
    "county": "Grant County",
    "created_at": "2012-01-04T20:16:11Z",
    "id": 16508,
    "latitude": "32.779070",
    "longitude": "-108.278321",
    "mascot": "Warriors",
    "name": "Agape Christian School",
    "primary_color": "Maroon",
    "secondary_color": "White",
    "state": "NM",
    "timezone": "America/Denver",
    "updated_at": "2012-07-08T00:33:14Z",
    "zip": "88061"
  },
  {
    "address": "716 W Market St",
    "city": "Silver City",
    "county": "Grant County",
    "created_at": "2012-01-04T20:16:11Z",
    "id": 16509,
    "latitude": "32.771556",
    "longitude": "-108.280992",
    "mascot": null,
    "name": "Down To Earth School",
    "primary_color": null,
    "secondary_color": null,
    "state": "NM",
    "timezone": "America/Denver",
    "updated_at": "2012-07-08T00:33:15Z",
    "zip": "88061"
  },
  {
    "address": "1501 Cerrillos",
    "city": "Santa Fe",
    "county": "Santa Fe County",
    "created_at": "2012-01-04T20:16:11Z",
    "id": 16510,
    "latitude": "35.668898",
    "longitude": "-105.967074",
    "mascot": null,
    "name": "Santa Fe Indian School Academic Program",
    "primary_color": null,
    "secondary_color": null,
    "state": "NM",
    "timezone": "America/Denver",
    "updated_at": "2012-07-08T00:33:15Z",
    "zip": "87501"
  },
  {
    "address": "680 S Boardman",
    "city": "Gallup",
    "county": "McKinley County",
    "created_at": "2012-01-04T20:16:11Z",
    "id": 16511,
    "latitude": "35.518195",
    "longitude": "-108.706764",
    "mascot": "Tigers",
    "name": "Gallup Junior High School",
    "primary_color": "Orange",
    "secondary_color": "Black",
    "state": "NM",
    "timezone": "America/Denver",
    "updated_at": "2012-07-08T00:33:15Z",
    "zip": "87301"
  },
  {
    "address": "714 Calle Don Diego",
    "city": "Espanola",
    "county": "Rio Arriba County",
    "created_at": "2012-01-04T20:16:11Z",
    "id": 16512,
    "latitude": "35.988219",
    "longitude": "-106.083691",
    "mascot": "Sun Devils",
    "name": "Espanola Valley High School",
    "primary_color": "Red",
    "secondary_color": "Gold",
    "state": "NM",
    "timezone": "America/Denver",
    "updated_at": "2012-07-08T00:33:16Z",
    "zip": "87533"
  },
  {
    "address": "1400 S Iron St",
    "city": "Deming",
    "county": "Luna County",
    "created_at": "2012-01-04T20:16:11Z",
    "id": 16513,
    "latitude": "32.254911",
    "longitude": "-107.759980",
    "mascot": "Wildcats",
    "name": "Hofacket Mid High School",
    "primary_color": "Maroon",
    "secondary_color": "Navy",
    "state": "NM",
    "timezone": "America/Denver",
    "updated_at": "2012-07-08T00:33:16Z",
    "zip": "88030"
  },
  {
    "address": "I-40 Exit 131 8 Miles N",
    "city": "To'hajiilee",
    "county": "Cibola County",
    "created_at": "2012-01-04T20:16:11Z",
    "id": 16514,
    "latitude": "34.993015",
    "longitude": "-107.245956",
    "mascot": null,
    "name": "To'hajiilee Community School",
    "primary_color": null,
    "secondary_color": null,
    "state": "NM",
    "timezone": "America/Denver",
    "updated_at": "2012-07-08T02:47:52Z",
    "zip": "87026"
  },
  {
    "address": "7100 Idalia Rd",
    "city": "Rio Rancho",
    "county": "Sandoval County",
    "created_at": "2012-01-04T20:16:11Z",
    "id": 16515,
    "latitude": "35.307002",
    "longitude": "-106.591544",
    "mascot": "Eagles",
    "name": "Independence High School",
    "primary_color": "Gray",
    "secondary_color": "Red",
    "state": "NM",
    "timezone": "America/Denver",
    "updated_at": "2012-07-08T00:33:19Z",
    "zip": "87124"
  },
  {
    "address": "924 S Bloomfield Blvd",
    "city": "Bloomfield",
    "county": "San Juan County",
    "created_at": "2012-01-04T20:16:11Z",
    "id": 16516,
    "latitude": "36.702676",
    "longitude": "-107.986167",
    "mascot": null,
    "name": "Charlie Y Brown Secondary School",
    "primary_color": null,
    "secondary_color": null,
    "state": "NM",
    "timezone": "America/Denver",
    "updated_at": "2012-07-08T00:33:19Z",
    "zip": "87413"
  },
  {
    "address": "819 Gavilan Canyon Rd",
    "city": "Ruidoso",
    "county": "Lincoln County",
    "created_at": "2012-01-04T20:16:11Z",
    "id": 16517,
    "latitude": "33.347296",
    "longitude": "-105.643868",
    "mascot": "Warriors",
    "name": "Gavilan Canyon School",
    "primary_color": "Gold",
    "secondary_color": "Royal",
    "state": "NM",
    "timezone": "America/Denver",
    "updated_at": "2012-07-08T00:33:19Z",
    "zip": "88345"
  },
  {
    "address": "814 Witt Rd",
    "city": "Taos",
    "county": "Taos County",
    "created_at": "2012-01-04T20:16:12Z",
    "id": 16518,
    "latitude": "36.390002",
    "longitude": "-105.563517",
    "mascot": "Crusaders",
    "name": "Taos Christian Academy",
    "primary_color": null,
    "secondary_color": null,
    "state": "NM",
    "timezone": "America/Denver",
    "updated_at": "2012-07-08T00:33:20Z",
    "zip": "87571"
  },
  {
    "address": "Hwy 55 AO 43 S",
    "city": "Estancia",
    "county": "Torrance County",
    "created_at": "2012-01-04T20:16:12Z",
    "id": 16519,
    "latitude": "34.754060",
    "longitude": "-106.069104",
    "mascot": null,
    "name": "Liberty Ranch Christian School",
    "primary_color": null,
    "secondary_color": null,
    "state": "NM",
    "timezone": "America/Denver",
    "updated_at": "2012-07-08T00:33:20Z",
    "zip": "87016"
  },
  {
    "address": "5331 Montano Rd NW",
    "city": "Albuquerque",
    "county": "Bernalillo County",
    "created_at": "2012-01-04T20:16:12Z",
    "id": 16520,
    "latitude": "35.152608",
    "longitude": "-106.698911",
    "mascot": "Eagles",
    "name": "Trinity Christian Academy",
    "primary_color": "Red",
    "secondary_color": "White",
    "state": "NM",
    "timezone": "America/Denver",
    "updated_at": "2012-07-08T00:33:21Z",
    "zip": "87120"
  },
  {
    "address": "2800 Louisiana NE",
    "city": "Albuquerque",
    "county": "Bernalillo County",
    "created_at": "2012-01-04T20:16:12Z",
    "id": 16521,
    "latitude": "35.112964",
    "longitude": "-106.568763",
    "mascot": null,
    "name": "Christian Heritage School",
    "primary_color": null,
    "secondary_color": null,
    "state": "NM",
    "timezone": "America/Denver",
    "updated_at": "2012-07-08T00:33:21Z",
    "zip": "87110"
  },
  {
    "address": "2801 Lomas Blvd NE",
    "city": "Albuquerque",
    "county": "Bernalillo County",
    "created_at": "2012-01-04T20:16:12Z",
    "id": 16522,
    "latitude": "35.087540",
    "longitude": "-106.614207",
    "mascot": "Crusaders",
    "name": "Cornerstone Christian Academy",
    "primary_color": "Gold",
    "secondary_color": "Purple",
    "state": "NM",
    "timezone": "America/Denver",
    "updated_at": "2012-07-08T00:33:22Z",
    "zip": "87110"
  },
  {
    "address": "5310 Sequoia NW",
    "city": "Albuquerque",
    "county": "Bernalillo County",
    "created_at": "2012-01-04T20:16:12Z",
    "id": 16523,
    "latitude": "35.121792",
    "longitude": "-106.699024",
    "mascot": null,
    "name": "Desert Hills School",
    "primary_color": null,
    "secondary_color": null,
    "state": "NM",
    "timezone": "America/Denver",
    "updated_at": "2012-07-08T00:33:22Z",
    "zip": "87124"
  },
  {
    "address": "County Rd 0062 School #8",
    "city": "Dixon",
    "county": "Rio Arriba County",
    "created_at": "2012-01-04T20:16:12Z",
    "id": 16524,
    "latitude": "36.190610",
    "longitude": "-105.867209",
    "mascot": "Angels",
    "name": "Apostolic Praise Christian Academy",
    "primary_color": "Maroon",
    "secondary_color": "White",
    "state": "NM",
    "timezone": "America/Denver",
    "updated_at": "2012-07-08T00:33:22Z",
    "zip": "87527"
  },
  {
    "address": "1-A Ram Das Guru Pl",
    "city": "Espanola",
    "county": "Santa Fe County",
    "created_at": "2012-01-04T20:16:12Z",
    "id": 16525,
    "latitude": "35.979520",
    "longitude": "-106.036326",
    "mascot": null,
    "name": "Miri Piri Academy",
    "primary_color": null,
    "secondary_color": null,
    "state": "NM",
    "timezone": "America/Denver",
    "updated_at": "2012-07-08T00:33:22Z",
    "zip": "87532"
  },
  {
    "address": "5700 College Blvd",
    "city": "Farmington",
    "county": "San Juan County",
    "created_at": "2012-01-04T20:16:12Z",
    "id": 16526,
    "latitude": "36.780833",
    "longitude": "-108.162283",
    "mascot": "Panthers",
    "name": "Piedra Vista High School",
    "primary_color": "Gray",
    "secondary_color": "Navy",
    "state": "NM",
    "timezone": "America/Denver",
    "updated_at": "2012-07-08T00:33:23Z",
    "zip": "87401"
  },
  {
    "address": "2395 Richard Ave",
    "city": "Santa Fe",
    "county": "Santa Fe County",
    "created_at": "2012-01-04T20:16:12Z",
    "id": 16527,
    "latitude": "35.642242",
    "longitude": "-105.998963",
    "mascot": null,
    "name": "Academy For Technology & The Classics",
    "primary_color": null,
    "secondary_color": null,
    "state": "NM",
    "timezone": "America/Denver",
    "updated_at": "2012-07-08T00:33:23Z",
    "zip": "87505"
  },
  {
    "address": "1034 Community Way",
    "city": "Portales",
    "county": "Roosevelt County",
    "created_at": "2012-01-04T20:16:12Z",
    "id": 16528,
    "latitude": "34.184051",
    "longitude": "-103.344275",
    "mascot": null,
    "name": "Broad Horizons Educational Center",
    "primary_color": null,
    "secondary_color": null,
    "state": "NM",
    "timezone": "America/Denver",
    "updated_at": "2012-07-08T00:33:23Z",
    "zip": "88130"
  },
  {
    "address": "1021 Isleta Blvd SW",
    "city": "Albuquerque",
    "county": "Bernalillo County",
    "created_at": "2012-01-04T20:16:12Z",
    "id": 16529,
    "latitude": "35.055739",
    "longitude": "-106.669842",
    "mascot": null,
    "name": "Nuestros Valores Charter School",
    "primary_color": null,
    "secondary_color": null,
    "state": "NM",
    "timezone": "America/Denver",
    "updated_at": "2012-07-08T00:33:24Z",
    "zip": "87105"
  },
  {
    "address": "614 E Lahman Ave",
    "city": "Las Cruces",
    "county": "Doña Ana County",
    "created_at": "2012-01-04T20:16:12Z",
    "id": 16530,
    "latitude": "32.307297",
    "longitude": "-106.772043",
    "mascot": null,
    "name": "Rivers Academy",
    "primary_color": null,
    "secondary_color": null,
    "state": "NM",
    "timezone": "America/Denver",
    "updated_at": "2012-07-08T00:33:24Z",
    "zip": "88001"
  },
  {
    "address": "11820 Hwy 337 S",
    "city": "Tijeras",
    "county": "Bernalillo County",
    "created_at": "2012-01-04T20:16:12Z",
    "id": 16531,
    "latitude": "35.078635",
    "longitude": "-106.387770",
    "mascot": "Lions",
    "name": "East Mountain Christian Academy",
    "primary_color": "Blue",
    "secondary_color": "Gold",
    "state": "NM",
    "timezone": "America/Denver",
    "updated_at": "2012-07-08T00:33:24Z",
    "zip": "87059"
  }
]