[
  {
    "address": "Douglass & Stanton Rd SE",
    "city": "Washington",
    "county": "District of Columbia",
    "created_at": "2012-01-04T20:13:52Z",
    "id": 4758,
    "latitude": "38.857300",
    "longitude": "-76.987199",
    "mascot": null,
    "name": "Douglass Junior High School",
    "primary_color": "Royal",
    "secondary_color": "Gold",
    "state": "DC",
    "timezone": "America/New_York",
    "updated_at": "2012-07-07T23:14:20Z",
    "zip": "20020"
  },
  {
    "address": "1400 Bruce Pl",
    "city": "Washington",
    "county": "District of Columbia",
    "created_at": "2012-01-04T20:13:52Z",
    "id": 4759,
    "latitude": "38.849328",
    "longitude": "-76.985174",
    "mascot": "Panthers",
    "name": "Johnson Junior High School",
    "primary_color": "Gold",
    "secondary_color": "Black",
    "state": "DC",
    "timezone": "America/New_York",
    "updated_at": "2012-07-07T23:14:21Z",
    "zip": "20020"
  },
  {
    "address": "2425 N Street, NW",
    "city": "Washington",
    "county": "District of Columbia",
    "created_at": "2012-01-04T20:13:52Z",
    "id": 4760,
    "latitude": "38.907248",
    "longitude": "-77.051922",
    "mascot": "Tigers",
    "name": "Francis Junior High School",
    "primary_color": "Gold",
    "secondary_color": "Purple",
    "state": "DC",
    "timezone": "America/New_York",
    "updated_at": "2012-07-07T23:14:22Z",
    "zip": "20037"
  },
  {
    "address": "1700 East Capitol Street, NE",
    "city": "Washington",
    "county": "District of Columbia",
    "created_at": "2012-01-04T20:13:52Z",
    "id": 4761,
    "latitude": "38.889810",
    "longitude": "-76.980584",
    "mascot": "Ramblers",
    "name": "Eastern High School",
    "primary_color": "Columbia Blue",
    "secondary_color": "White",
    "state": "DC",
    "timezone": "America/New_York",
    "updated_at": "2012-07-07T23:14:23Z",
    "zip": "20003"
  },
  {
    "address": "335 8th Street, SE",
    "city": "Washington",
    "county": "District of Columbia",
    "created_at": "2012-01-04T20:13:52Z",
    "id": 4762,
    "latitude": "38.885477",
    "longitude": "-76.994947",
    "mascot": "Panthers",
    "name": "Hine Junior High School",
    "primary_color": "Maroon",
    "secondary_color": "White",
    "state": "DC",
    "timezone": "America/New_York",
    "updated_at": "2012-07-07T23:14:24Z",
    "zip": "20003"
  },
  {
    "address": "6th St & Brentwood Pky",
    "city": "Washington",
    "county": "District of Columbia",
    "created_at": "2012-01-04T20:13:52Z",
    "id": 4763,
    "latitude": "38.909650",
    "longitude": "-76.995819",
    "mascot": "Tigers",
    "name": "Hamilton Alternative School",
    "primary_color": "Maroon",
    "secondary_color": "White",
    "state": "DC",
    "timezone": "America/New_York",
    "updated_at": "2012-07-07T23:14:26Z",
    "zip": "20002"
  },
  {
    "address": "850 26th St NE",
    "city": "Washington",
    "county": "District of Columbia",
    "created_at": "2012-01-04T20:13:52Z",
    "id": 4764,
    "latitude": "38.902013",
    "longitude": "-76.970236",
    "mascot": "Bomber Planes",
    "name": "Browne Junior High School",
    "primary_color": "Gold",
    "secondary_color": "Kelly Green",
    "state": "DC",
    "timezone": "America/New_York",
    "updated_at": "2012-07-07T23:14:27Z",
    "zip": "20002"
  },
  {
    "address": "5800 8th St NW",
    "city": "Washington",
    "county": "District of Columbia",
    "created_at": "2012-01-04T20:13:52Z",
    "id": 4765,
    "latitude": "38.960274",
    "longitude": "-77.024207",
    "mascot": null,
    "name": "Paul Junior High School",
    "primary_color": "Royal",
    "secondary_color": "Gold",
    "state": "DC",
    "timezone": "America/New_York",
    "updated_at": "2012-07-07T23:14:28Z",
    "zip": "20011"
  },
  {
    "address": "1800 Perry Street, NE",
    "city": "Washington",
    "county": "District of Columbia",
    "created_at": "2012-01-04T20:13:52Z",
    "id": 4766,
    "latitude": "38.936162",
    "longitude": "-76.979638",
    "mascot": "Warriors",
    "name": "Taft Center",
    "primary_color": "Royal",
    "secondary_color": "White",
    "state": "DC",
    "timezone": "America/New_York",
    "updated_at": "2012-07-07T23:14:29Z",
    "zip": "20018"
  },
  {
    "address": "1830 Constitution Ave NE",
    "city": "Washington",
    "county": "District of Columbia",
    "created_at": "2012-01-04T20:13:52Z",
    "id": 4767,
    "latitude": "38.892002",
    "longitude": "-76.978290",
    "mascot": "Wildcats",
    "name": "Elliot Junior High School",
    "primary_color": "Gold",
    "secondary_color": "Columbia Blue",
    "state": "DC",
    "timezone": "America/New_York",
    "updated_at": "2012-07-07T23:14:30Z",
    "zip": "20002"
  },
  {
    "address": "3815 Fort Dr NW",
    "city": "Washington",
    "county": "District of Columbia",
    "created_at": "2012-01-04T20:13:52Z",
    "id": 4768,
    "latitude": "38.952338",
    "longitude": "-77.073742",
    "mascot": null,
    "name": "Alice Deal Junior High School",
    "primary_color": "Gold",
    "secondary_color": "Maroon",
    "state": "DC",
    "timezone": "America/New_York",
    "updated_at": "2012-07-07T23:14:31Z",
    "zip": "20016"
  },
  {
    "address": "3401 4th St SE",
    "city": "Washington",
    "county": "District of Columbia",
    "created_at": "2012-01-04T20:13:52Z",
    "id": 4769,
    "latitude": "38.840155",
    "longitude": "-77.000567",
    "mascot": "Knights",
    "name": "Ballou High School",
    "primary_color": "Navy",
    "secondary_color": "Gold",
    "state": "DC",
    "timezone": "America/New_York",
    "updated_at": "2012-07-07T23:14:32Z",
    "zip": "20032"
  },
  {
    "address": "4301 13th St NW",
    "city": "Washington",
    "county": "District of Columbia",
    "created_at": "2012-01-04T20:13:52Z",
    "id": 4770,
    "latitude": "38.943044",
    "longitude": "-77.029691",
    "mascot": "Rough Riders",
    "name": "Roosevelt Senior High School",
    "primary_color": "Orange",
    "secondary_color": "Royal",
    "state": "DC",
    "timezone": "America/New_York",
    "updated_at": "2012-07-07T23:14:33Z",
    "zip": "20011"
  },
  {
    "address": "160l R. Street, S.E. ",
    "city": "Washington",
    "county": "District of Columbia",
    "created_at": "2012-01-04T20:13:52Z",
    "id": 4771,
    "latitude": "38.869460",
    "longitude": "-76.982209",
    "mascot": "Indians",
    "name": "Anacostia High School",
    "primary_color": "Red",
    "secondary_color": "Royal",
    "state": "DC",
    "timezone": "America/New_York",
    "updated_at": "2012-07-07T23:14:34Z",
    "zip": "20020"
  },
  {
    "address": "100 Gallatin St NE",
    "city": "Washington",
    "county": "District of Columbia",
    "created_at": "2012-01-04T20:13:52Z",
    "id": 4772,
    "latitude": "38.952391",
    "longitude": "-77.008130",
    "mascot": "Wildcats",
    "name": "Mamie D Lee School",
    "primary_color": "Gold",
    "secondary_color": "Royal",
    "state": "DC",
    "timezone": "America/New_York",
    "updated_at": "2012-07-07T23:14:35Z",
    "zip": "20011"
  },
  {
    "address": "3500 R St NW",
    "city": "Washington",
    "county": "District of Columbia",
    "created_at": "2012-01-04T20:13:52Z",
    "id": 4773,
    "latitude": "38.913638",
    "longitude": "-77.069487",
    "mascot": null,
    "name": "Ellington School Of Arts",
    "primary_color": "Black",
    "secondary_color": "White",
    "state": "DC",
    "timezone": "America/New_York",
    "updated_at": "2012-07-07T23:14:36Z",
    "zip": "20007"
  },
  {
    "address": "Mount Saint Alban NW",
    "city": "Washington",
    "county": "District of Columbia",
    "created_at": "2012-01-04T20:13:52Z",
    "id": 4774,
    "latitude": "38.928120",
    "longitude": "-77.108414",
    "mascot": "Bulldogs",
    "name": "Saint Albans School For Boys",
    "primary_color": "Royal",
    "secondary_color": "White",
    "state": "DC",
    "timezone": "America/New_York",
    "updated_at": "2012-07-07T23:14:37Z",
    "zip": "20016"
  },
  {
    "address": "4501 S Dakota Ave NE",
    "city": "Washington",
    "county": "District of Columbia",
    "created_at": "2012-01-04T20:13:52Z",
    "id": 4775,
    "latitude": "38.944353",
    "longitude": "-76.985617",
    "mascot": "Panthers",
    "name": "Saint Anselm's Abbey School",
    "primary_color": "Maroon",
    "secondary_color": "Gold",
    "state": "DC",
    "timezone": "America/New_York",
    "updated_at": "2012-07-07T23:14:38Z",
    "zip": "20017"
  },
  {
    "address": "3145 Hiatt Pl NW",
    "city": "Washington",
    "county": "District of Columbia",
    "created_at": "2012-01-04T20:13:52Z",
    "id": 4776,
    "latitude": "38.929337",
    "longitude": "-77.034660",
    "mascot": "Griffins",
    "name": "Bell Multicultural High School",
    "primary_color": "Navy",
    "secondary_color": "Gold",
    "state": "DC",
    "timezone": "America/New_York",
    "updated_at": "2012-07-07T23:14:39Z",
    "zip": "20010"
  },
  {
    "address": "4300 Harewood Rd NE",
    "city": "Washington",
    "county": "District of Columbia",
    "created_at": "2012-01-04T20:13:52Z",
    "id": 4777,
    "latitude": "38.939197",
    "longitude": "-77.002715",
    "mascot": "Lions",
    "name": "Archbishop Carroll High School",
    "primary_color": "Gold",
    "secondary_color": "Kelly Green",
    "state": "DC",
    "timezone": "America/New_York",
    "updated_at": "2012-07-07T23:14:40Z",
    "zip": "20017"
  },
  {
    "address": "1524 35th NW",
    "city": "Washington",
    "county": "District of Columbia",
    "created_at": "2012-01-04T20:13:52Z",
    "id": 4778,
    "latitude": "38.909322",
    "longitude": "-77.069121",
    "mascot": "Tigers/Bears",
    "name": "Georgetown Visitation Preparatory School",
    "primary_color": "Gold",
    "secondary_color": "White",
    "state": "DC",
    "timezone": "America/New_York",
    "updated_at": "2012-07-07T23:14:41Z",
    "zip": "20007"
  },
  {
    "address": "801 Buchanan St NE",
    "city": "Washington",
    "county": "District of Columbia",
    "created_at": "2012-01-04T20:13:52Z",
    "id": 4779,
    "latitude": "38.946263",
    "longitude": "-76.994699",
    "mascot": null,
    "name": "Joseph P Kennedy School",
    "primary_color": "Kelly Green",
    "secondary_color": "Gold",
    "state": "DC",
    "timezone": "America/New_York",
    "updated_at": "2012-07-07T23:14:42Z",
    "zip": "20017"
  },
  {
    "address": "19 I St NW",
    "city": "Washington",
    "county": "District of Columbia",
    "created_at": "2012-01-04T20:13:52Z",
    "id": 4780,
    "latitude": "38.901311",
    "longitude": "-77.011663",
    "mascot": "Eagles",
    "name": "Gonzaga College High School",
    "primary_color": "Purple",
    "secondary_color": "White",
    "state": "DC",
    "timezone": "America/New_York",
    "updated_at": "2012-07-07T23:14:43Z",
    "zip": "20001"
  },
  {
    "address": "800 Florida Ave NE",
    "city": "Washington",
    "county": "District of Columbia",
    "created_at": "2012-01-04T20:13:52Z",
    "id": 4781,
    "latitude": "38.904740",
    "longitude": "-76.994815",
    "mascot": "Eagles",
    "name": "Model Secondary School For The Deaf",
    "primary_color": "Red",
    "secondary_color": "White",
    "state": "DC",
    "timezone": "America/New_York",
    "updated_at": "2012-07-07T23:14:44Z",
    "zip": "20002"
  },
  {
    "address": "4530 MacArthur Blvd NW",
    "city": "Washington",
    "county": "District of Columbia",
    "created_at": "2012-01-04T20:13:52Z",
    "id": 4782,
    "latitude": "38.908712",
    "longitude": "-77.085878",
    "mascot": null,
    "name": "Georgetown Day School",
    "primary_color": "Hunter Green",
    "secondary_color": "White",
    "state": "DC",
    "timezone": "America/New_York",
    "updated_at": "2012-07-07T23:14:45Z",
    "zip": "20007"
  },
  {
    "address": "3609 Woodley Rd",
    "city": "Washington",
    "county": "District of Columbia",
    "created_at": "2012-01-04T20:13:52Z",
    "id": 4783,
    "latitude": "38.931772",
    "longitude": "-77.071134",
    "mascot": null,
    "name": "National Cathedral School",
    "primary_color": "Gold",
    "secondary_color": "Purple",
    "state": "DC",
    "timezone": "America/New_York",
    "updated_at": "2012-07-07T23:14:46Z",
    "zip": "20016"
  },
  {
    "address": "3825 Wisconsin Ave NW",
    "city": "Washington",
    "county": "District of Columbia",
    "created_at": "2012-01-04T20:13:52Z",
    "id": 4784,
    "latitude": "38.939018",
    "longitude": "-77.074701",
    "mascot": null,
    "name": "Sidwell Friends Upper School",
    "primary_color": "Gray",
    "secondary_color": "Maroon",
    "state": "DC",
    "timezone": "America/New_York",
    "updated_at": "2012-07-07T23:14:47Z",
    "zip": "20016"
  },
  {
    "address": "3100 Macomb St",
    "city": "Washington",
    "county": "District of Columbia",
    "created_at": "2012-01-04T20:13:52Z",
    "id": 4785,
    "latitude": "38.933492",
    "longitude": "-77.062267",
    "mascot": null,
    "name": "Washington International Upper School",
    "primary_color": "Red",
    "secondary_color": "White",
    "state": "DC",
    "timezone": "America/New_York",
    "updated_at": "2012-07-07T23:14:48Z",
    "zip": "20008"
  },
  {
    "address": "3000 Cathedral Ave NW",
    "city": "Washington",
    "county": "District of Columbia",
    "created_at": "2012-01-04T20:13:52Z",
    "id": 4786,
    "latitude": "38.929022",
    "longitude": "-77.060056",
    "mascot": "Frogs",
    "name": "Maret School",
    "primary_color": "Hunter Green",
    "secondary_color": "White",
    "state": "DC",
    "timezone": "America/New_York",
    "updated_at": "2012-07-07T23:14:49Z",
    "zip": "20008"
  },
  {
    "address": "2955 Upton St NW",
    "city": "Washington",
    "county": "District of Columbia",
    "created_at": "2012-01-04T20:13:52Z",
    "id": 4787,
    "latitude": "38.942058",
    "longitude": "-77.060624",
    "mascot": "Bengals",
    "name": "Edmund Burke School",
    "primary_color": "Gray",
    "secondary_color": "Maroon",
    "state": "DC",
    "timezone": "America/New_York",
    "updated_at": "2012-07-07T23:14:50Z",
    "zip": "20008"
  },
  {
    "address": "1324 18th St NW",
    "city": "Washington",
    "county": "District of Columbia",
    "created_at": "2012-01-04T20:13:52Z",
    "id": 4788,
    "latitude": "38.908397",
    "longitude": "-77.041670",
    "mascot": "Owls",
    "name": "Emerson Preparatory School",
    "primary_color": "Gold",
    "secondary_color": "Maroon",
    "state": "DC",
    "timezone": "America/New_York",
    "updated_at": "2012-07-07T23:14:51Z",
    "zip": "20036"
  },
  {
    "address": "4842 16th St NW",
    "city": "Washington",
    "county": "District of Columbia",
    "created_at": "2012-01-04T20:13:52Z",
    "id": 4789,
    "latitude": "38.949416",
    "longitude": "-77.036457",
    "mascot": null,
    "name": "Parkmont School",
    "primary_color": null,
    "secondary_color": null,
    "state": "DC",
    "timezone": "America/New_York",
    "updated_at": "2012-07-07T23:14:52Z",
    "zip": "20011"
  },
  {
    "address": "2301 Foxhall Rd NW",
    "city": "Washington",
    "county": "District of Columbia",
    "created_at": "2012-01-04T20:13:52Z",
    "id": 4790,
    "latitude": "38.920558",
    "longitude": "-77.088866",
    "mascot": "Falcons",
    "name": "The Field School",
    "primary_color": "Royal",
    "secondary_color": "Gold",
    "state": "DC",
    "timezone": "America/New_York",
    "updated_at": "2012-07-07T23:14:54Z",
    "zip": "20007"
  },
  {
    "address": "3942 Alabama Ave SE",
    "city": "Washington",
    "county": "District of Columbia",
    "created_at": "2012-01-04T20:13:52Z",
    "id": 4791,
    "latitude": "38.869176",
    "longitude": "-76.947838",
    "mascot": null,
    "name": "DuPont Park Adventist School",
    "primary_color": "Navy",
    "secondary_color": "White",
    "state": "DC",
    "timezone": "America/New_York",
    "updated_at": "2012-07-07T23:14:54Z",
    "zip": "20020"
  },
  {
    "address": "62 T St NE",
    "city": "Washington",
    "county": "District of Columbia",
    "created_at": "2012-01-04T20:13:52Z",
    "id": 4792,
    "latitude": "38.915558",
    "longitude": "-77.006506",
    "mascot": null,
    "name": "City Lights School",
    "primary_color": "Gold",
    "secondary_color": "Royal",
    "state": "DC",
    "timezone": "America/New_York",
    "updated_at": "2012-07-07T23:14:56Z",
    "zip": "20002"
  },
  {
    "address": "770 Park Rd NW",
    "city": "Washington",
    "county": "District of Columbia",
    "created_at": "2012-01-04T20:13:52Z",
    "id": 4793,
    "latitude": "38.932912",
    "longitude": "-77.024931",
    "mascot": null,
    "name": "Nation House",
    "primary_color": "Orange",
    "secondary_color": "Brown",
    "state": "DC",
    "timezone": "America/New_York",
    "updated_at": "2012-07-07T23:14:57Z",
    "zip": "20010"
  },
  {
    "address": "4200 Davenport St NW",
    "city": "Washington",
    "county": "District of Columbia",
    "created_at": "2012-01-04T20:13:52Z",
    "id": 4794,
    "latitude": "38.952109",
    "longitude": "-77.082194",
    "mascot": null,
    "name": "Georgetown Day School",
    "primary_color": "Hunter Green",
    "secondary_color": "White",
    "state": "DC",
    "timezone": "America/New_York",
    "updated_at": "2012-07-07T23:14:58Z",
    "zip": "20016"
  },
  {
    "address": "1438 Morris Rd SE",
    "city": "Washington",
    "county": "District of Columbia",
    "created_at": "2012-01-04T20:13:52Z",
    "id": 4795,
    "latitude": "38.859386",
    "longitude": "-76.986808",
    "mascot": null,
    "name": "Harambee House For Youth",
    "primary_color": null,
    "secondary_color": null,
    "state": "DC",
    "timezone": "America/New_York",
    "updated_at": "2012-07-07T23:14:59Z",
    "zip": "20020"
  },
  {
    "address": "1825 Michigan Ave NE",
    "city": "Washington",
    "county": "District of Columbia",
    "created_at": "2012-01-04T20:13:52Z",
    "id": 4796,
    "latitude": "38.944528",
    "longitude": "-76.979342",
    "mascot": "Doves",
    "name": "Rhema Christian Center School",
    "primary_color": "Red",
    "secondary_color": "Royal",
    "state": "DC",
    "timezone": "America/New_York",
    "updated_at": "2012-07-07T23:15:00Z",
    "zip": "20018"
  },
  {
    "address": "801 7th Street, SW",
    "city": "Washington",
    "county": "District of Columbia",
    "created_at": "2012-01-04T20:13:52Z",
    "id": 4797,
    "latitude": "38.880119",
    "longitude": "-77.021905",
    "mascot": null,
    "name": "Jefferson Junior High School",
    "primary_color": "Maroon",
    "secondary_color": "Gold",
    "state": "DC",
    "timezone": "America/New_York",
    "updated_at": "2012-07-07T23:15:01Z",
    "zip": "20024"
  },
  {
    "address": "925 Rhode Island Ave NW",
    "city": "Washington",
    "county": "District of Columbia",
    "created_at": "2012-01-04T20:13:52Z",
    "id": 4798,
    "latitude": "38.911498",
    "longitude": "-77.024502",
    "mascot": "Falcons",
    "name": "Shaw Junior High School",
    "primary_color": "Kelly Green",
    "secondary_color": "White",
    "state": "DC",
    "timezone": "America/New_York",
    "updated_at": "2012-07-07T23:15:02Z",
    "zip": "20001"
  },
  {
    "address": "2130 G St NW",
    "city": "Washington",
    "county": "District of Columbia",
    "created_at": "2012-01-04T20:13:52Z",
    "id": 4799,
    "latitude": "38.898315",
    "longitude": "-77.047439",
    "mascot": "Penguins",
    "name": "School Without Walls Senior High School",
    "primary_color": "Black",
    "secondary_color": "White",
    "state": "DC",
    "timezone": "America/New_York",
    "updated_at": "2012-07-07T23:15:03Z",
    "zip": "20037"
  },
  {
    "address": "United States Senate",
    "city": "Washington",
    "county": "District of Columbia",
    "created_at": "2012-01-04T20:13:52Z",
    "id": 4800,
    "latitude": "38.890370",
    "longitude": "-77.031959",
    "mascot": null,
    "name": "United States Senate Page School",
    "primary_color": "Royal",
    "secondary_color": "White",
    "state": "DC",
    "timezone": "America/New_York",
    "updated_at": "2012-07-07T23:15:05Z",
    "zip": "20510"
  },
  {
    "address": "6315 5th St NW",
    "city": "Washington",
    "county": "District of Columbia",
    "created_at": "2012-01-04T20:13:52Z",
    "id": 4801,
    "latitude": "38.966275",
    "longitude": "-77.019868",
    "mascot": "Colts",
    "name": "Coolidge Senior High School",
    "primary_color": "Orange",
    "secondary_color": "Gray",
    "state": "DC",
    "timezone": "America/New_York",
    "updated_at": "2012-07-07T23:15:06Z",
    "zip": "20011"
  },
  {
    "address": "3950 Chesapeake St NW",
    "city": "Washington",
    "county": "District of Columbia",
    "created_at": "2012-01-04T20:13:52Z",
    "id": 4802,
    "latitude": "38.950685",
    "longitude": "-77.077391",
    "mascot": "Tigers",
    "name": "Woodrow Wilson Senior High School",
    "primary_color": "Kelly Green",
    "secondary_color": "White",
    "state": "DC",
    "timezone": "America/New_York",
    "updated_at": "2012-07-07T23:15:07Z",
    "zip": "20016"
  },
  {
    "address": "800 Euclid St NW",
    "city": "Washington",
    "county": "District of Columbia",
    "created_at": "2012-01-04T20:13:52Z",
    "id": 4803,
    "latitude": "38.924076",
    "longitude": "-77.023499",
    "mascot": "Achievers",
    "name": "Banneker High School",
    "primary_color": "Red",
    "secondary_color": "White",
    "state": "DC",
    "timezone": "America/New_York",
    "updated_at": "2012-07-07T23:15:08Z",
    "zip": "20001"
  },
  {
    "address": "1200 Clifton St NW",
    "city": "Washington",
    "county": "District of Columbia",
    "created_at": "2012-01-04T20:13:52Z",
    "id": 4804,
    "latitude": "38.922403",
    "longitude": "-77.028217",
    "mascot": "Owls",
    "name": "Cardozo High School",
    "primary_color": "Purple",
    "secondary_color": "White",
    "state": "DC",
    "timezone": "America/New_York",
    "updated_at": "2012-07-07T23:15:09Z",
    "zip": "20009"
  },
  {
    "address": "1301 New Jersey Ave NW",
    "city": "Washington",
    "county": "District of Columbia",
    "created_at": "2012-01-04T20:13:52Z",
    "id": 4805,
    "latitude": "38.907550",
    "longitude": "-77.015513",
    "mascot": null,
    "name": "Dunbar Senior High School",
    "primary_color": "Red",
    "secondary_color": "Black",
    "state": "DC",
    "timezone": "America/New_York",
    "updated_at": "2012-07-07T23:15:10Z",
    "zip": "20001"
  },
  {
    "address": "2500 Benning Rd NE",
    "city": "Washington",
    "county": "District of Columbia",
    "created_at": "2012-01-04T20:13:52Z",
    "id": 4806,
    "latitude": "38.898041",
    "longitude": "-76.971114",
    "mascot": "Green Wave",
    "name": "Joel Elias Spingarn Senior High School",
    "primary_color": "Gold",
    "secondary_color": "Kelly Green",
    "state": "DC",
    "timezone": "America/New_York",
    "updated_at": "2012-07-07T23:15:11Z",
    "zip": "20002"
  },
  {
    "address": "27 O St NW",
    "city": "Washington",
    "county": "District of Columbia",
    "created_at": "2012-01-04T20:13:53Z",
    "id": 4807,
    "latitude": "38.908568",
    "longitude": "-77.010004",
    "mascot": "Hornets",
    "name": "Margaret Washington Career High School",
    "primary_color": "Gold",
    "secondary_color": "Black",
    "state": "DC",
    "timezone": "America/New_York",
    "updated_at": "2012-07-07T23:15:12Z",
    "zip": "20001"
  },
  {
    "address": "1001 Monroe St NE",
    "city": "Washington",
    "county": "District of Columbia",
    "created_at": "2012-01-04T20:13:53Z",
    "id": 4808,
    "latitude": "38.932490",
    "longitude": "-76.992448",
    "mascot": "Eagles",
    "name": "Luke C Moore Academy",
    "primary_color": "Gold",
    "secondary_color": "Maroon",
    "state": "DC",
    "timezone": "America/New_York",
    "updated_at": "2012-07-07T23:15:13Z",
    "zip": "20017"
  },
  {
    "address": "1400 Bruce Place, SE",
    "city": "Washington",
    "county": "District of Columbia",
    "created_at": "2012-01-04T20:13:53Z",
    "id": 4809,
    "latitude": "38.849328",
    "longitude": "-76.985174",
    "mascot": "Panthers",
    "name": "J Hayden Johnson Junior High School",
    "primary_color": "Gold",
    "secondary_color": "Black",
    "state": "DC",
    "timezone": "America/New_York",
    "updated_at": "2012-07-07T23:15:14Z",
    "zip": "20020"
  },
  {
    "address": "5500 Eads St NE",
    "city": "Washington",
    "county": "District of Columbia",
    "created_at": "2012-01-04T20:13:53Z",
    "id": 4810,
    "latitude": "38.895790",
    "longitude": "-76.921731",
    "mascot": "Warriors",
    "name": "Howard D Woodson Senior High School",
    "primary_color": "Red",
    "secondary_color": "Black",
    "state": "DC",
    "timezone": "America/New_York",
    "updated_at": "2012-07-07T23:15:15Z",
    "zip": "20019"
  },
  {
    "address": "3401 4th St SE",
    "city": "Washington",
    "county": "District of Columbia",
    "created_at": "2012-01-04T20:13:53Z",
    "id": 4811,
    "latitude": "38.840155",
    "longitude": "-77.000567",
    "mascot": null,
    "name": "Ballou Stay Senior High School",
    "primary_color": "Royal",
    "secondary_color": "Yellow",
    "state": "DC",
    "timezone": "America/New_York",
    "updated_at": "2012-07-07T23:15:16Z",
    "zip": "20032"
  },
  {
    "address": "2607 Military Rd NW",
    "city": "Washington",
    "county": "District of Columbia",
    "created_at": "2012-01-04T20:13:53Z",
    "id": 4812,
    "latitude": "38.961205",
    "longitude": "-77.054106",
    "mascot": "Cadets",
    "name": "Saint John's College High School",
    "primary_color": "Gray",
    "secondary_color": "Red",
    "state": "DC",
    "timezone": "America/New_York",
    "updated_at": "2012-07-07T23:15:18Z",
    "zip": "20015"
  },
  {
    "address": "4301 Harewood Rd NE",
    "city": "Washington",
    "county": "District of Columbia",
    "created_at": "2012-01-04T20:13:53Z",
    "id": 4813,
    "latitude": "38.940196",
    "longitude": "-77.002868",
    "mascot": null,
    "name": "The Kirov Academy Of Ballet",
    "primary_color": null,
    "secondary_color": null,
    "state": "DC",
    "timezone": "America/New_York",
    "updated_at": "2012-07-07T23:15:19Z",
    "zip": "20017"
  },
  {
    "address": "4300 13th St NW",
    "city": "Washington",
    "county": "District of Columbia",
    "created_at": "2012-01-04T20:13:53Z",
    "id": 4814,
    "latitude": "38.943044",
    "longitude": "-77.029707",
    "mascot": "Dolphins",
    "name": "C Melvin Sharpe Health School",
    "primary_color": "Gold",
    "secondary_color": "Royal",
    "state": "DC",
    "timezone": "America/New_York",
    "updated_at": "2012-07-07T23:15:20Z",
    "zip": "20011"
  },
  {
    "address": "101 T St NE",
    "city": "Washington",
    "county": "District of Columbia",
    "created_at": "2012-01-04T20:13:53Z",
    "id": 4815,
    "latitude": "38.915542",
    "longitude": "-77.005705",
    "mascot": null,
    "name": "Hyde Leadership Charter School",
    "primary_color": "Gold",
    "secondary_color": "Royal",
    "state": "DC",
    "timezone": "America/New_York",
    "updated_at": "2012-07-07T23:15:21Z",
    "zip": "20002"
  },
  {
    "address": "4325 20th St NE",
    "city": "Washington",
    "county": "District of Columbia",
    "created_at": "2012-01-04T20:13:53Z",
    "id": 4816,
    "latitude": "38.942104",
    "longitude": "-76.976191",
    "mascot": "Eagles",
    "name": "New Vistas Prep Charter School",
    "primary_color": "Gray",
    "secondary_color": "Red",
    "state": "DC",
    "timezone": "America/New_York",
    "updated_at": "2012-07-07T23:15:21Z",
    "zip": "20011"
  },
  {
    "address": "4400 Massachusetts Ave NW",
    "city": "Washington",
    "county": "District of Columbia",
    "created_at": "2012-01-04T20:13:53Z",
    "id": 4817,
    "latitude": "38.938475",
    "longitude": "-77.086683",
    "mascot": "Eagles",
    "name": "American University",
    "primary_color": "Red",
    "secondary_color": "Royal",
    "state": "DC",
    "timezone": "America/New_York",
    "updated_at": "2012-07-07T23:15:23Z",
    "zip": "20016"
  },
  {
    "address": "709 12th Street SE",
    "city": "Washington",
    "county": "District of Columbia",
    "created_at": "2012-01-04T20:13:53Z",
    "id": 4818,
    "latitude": "38.880982",
    "longitude": "-76.990244",
    "mascot": "Eagle",
    "name": "Cesar Chavez Public Charter High School",
    "primary_color": "Red",
    "secondary_color": "Black",
    "state": "DC",
    "timezone": "America/New_York",
    "updated_at": "2012-07-07T23:15:23Z",
    "zip": "20003"
  },
  {
    "address": "4095 Minnesota Ave NE",
    "city": "Washington",
    "county": "District of Columbia",
    "created_at": "2012-01-04T20:13:53Z",
    "id": 4819,
    "latitude": "38.897558",
    "longitude": "-76.946958",
    "mascot": "Knights",
    "name": "Friendship Edison Collegiate Academy",
    "primary_color": "Navy",
    "secondary_color": "Gold",
    "state": "DC",
    "timezone": "America/New_York",
    "updated_at": "2012-07-07T23:15:24Z",
    "zip": "20019"
  },
  {
    "address": "1023 45th St NE",
    "city": "Washington",
    "county": "District of Columbia",
    "created_at": "2012-01-04T20:13:53Z",
    "id": 4820,
    "latitude": "38.903349",
    "longitude": "-76.937663",
    "mascot": "Timberwolves",
    "name": "Integrated Design Electronics Academy",
    "primary_color": "Navy",
    "secondary_color": "White ",
    "state": "DC",
    "timezone": "America/New_York",
    "updated_at": "2012-07-07T23:15:25Z",
    "zip": "20019"
  },
  {
    "address": "770 M St SE",
    "city": "Washington",
    "county": "District of Columbia",
    "created_at": "2012-01-04T20:13:53Z",
    "id": 4821,
    "latitude": "38.876478",
    "longitude": "-76.995351",
    "mascot": null,
    "name": "Washington Math Science Tech School",
    "primary_color": null,
    "secondary_color": null,
    "state": "DC",
    "timezone": "America/New_York",
    "updated_at": "2012-07-07T23:15:27Z",
    "zip": "20003"
  }
]