[
  {
    "address": "112 W 3rd St",
    "city": "Shoshoni",
    "county": "Fremont County",
    "created_at": "2012-01-04T20:18:26Z",
    "id": 26958,
    "latitude": "43.269918",
    "longitude": "-108.070664",
    "mascot": "Wranglers",
    "name": "Shoshoni School",
    "primary_color": "Gold",
    "secondary_color": "Royal",
    "state": "WY",
    "timezone": "America/Denver",
    "updated_at": "2012-07-08T01:57:45Z",
    "zip": "82649"
  },
  {
    "address": "2107 Idaho St",
    "city": "Meeteetse",
    "county": "Park County",
    "created_at": "2012-01-04T20:18:26Z",
    "id": 26959,
    "latitude": "44.154572",
    "longitude": "-108.872638",
    "mascot": "Longhorns",
    "name": "Meeteetse School",
    "primary_color": "Red",
    "secondary_color": "White",
    "state": "WY",
    "timezone": "America/Denver",
    "updated_at": "2012-07-08T01:57:45Z",
    "zip": "82433"
  },
  {
    "address": "109 North St",
    "city": "Burlington",
    "county": "Big Horn County",
    "created_at": "2012-01-04T20:18:26Z",
    "id": 26960,
    "latitude": "44.450320",
    "longitude": "-108.431986",
    "mascot": "Huskies",
    "name": "Burlington School",
    "primary_color": "Orange",
    "secondary_color": "Black",
    "state": "WY",
    "timezone": "America/Denver",
    "updated_at": "2012-07-08T01:57:46Z",
    "zip": "82411"
  },
  {
    "address": "1601 Meade Ave",
    "city": "Clearmont",
    "county": "Sheridan County",
    "created_at": "2012-01-04T20:18:26Z",
    "id": 26961,
    "latitude": "44.638370",
    "longitude": "-106.383039",
    "mascot": "Panthers",
    "name": "Arvada Clearmont School",
    "primary_color": "Gold",
    "secondary_color": "Columbia Blue",
    "state": "WY",
    "timezone": "America/Denver",
    "updated_at": "2012-07-08T01:57:46Z",
    "zip": "82835"
  },
  {
    "address": "245 N. Evarts ",
    "city": "Powell",
    "county": "Park County",
    "created_at": "2012-01-04T20:18:26Z",
    "id": 26962,
    "latitude": "44.754793",
    "longitude": "-108.753091",
    "mascot": "Panthers",
    "name": "Powell High School",
    "primary_color": "Orange",
    "secondary_color": "Black",
    "state": "WY",
    "timezone": "America/Denver",
    "updated_at": "2012-07-08T01:57:46Z",
    "zip": "82435"
  },
  {
    "address": "5500 Education Dr",
    "city": "Cheyenne",
    "county": "Laramie County",
    "created_at": "2012-01-04T20:18:26Z",
    "id": 26963,
    "latitude": "41.170199",
    "longitude": "-104.832599",
    "mascot": "Indians",
    "name": "Cheyenne Central High School",
    "primary_color": "Red",
    "secondary_color": "Black",
    "state": "WY",
    "timezone": "America/Denver",
    "updated_at": "2012-07-08T01:57:47Z",
    "zip": "82009"
  },
  {
    "address": "502 Hampshire Ave",
    "city": "Lovell",
    "county": "Big Horn County",
    "created_at": "2012-01-04T20:18:26Z",
    "id": 26964,
    "latitude": "44.836254",
    "longitude": "-108.401663",
    "mascot": "Bulldogs",
    "name": "Lovell High School",
    "primary_color": "Royal",
    "secondary_color": "White",
    "state": "WY",
    "timezone": "America/Denver",
    "updated_at": "2012-07-08T01:57:47Z",
    "zip": "82431"
  },
  {
    "address": "1 Lacy St",
    "city": "Yoder",
    "county": "Goshen County",
    "created_at": "2012-01-04T20:18:26Z",
    "id": 26965,
    "latitude": "41.918805",
    "longitude": "-104.297276",
    "mascot": "Cyclones",
    "name": "Southeast School",
    "primary_color": "Royal",
    "secondary_color": "White",
    "state": "WY",
    "timezone": "America/Denver",
    "updated_at": "2012-07-08T01:57:48Z",
    "zip": "82244"
  },
  {
    "address": "340 Spruce",
    "city": "Medicine Bow",
    "county": "Carbon County",
    "created_at": "2012-01-04T20:18:26Z",
    "id": 26966,
    "latitude": "41.900218",
    "longitude": "-106.201771",
    "mascot": "Wranglers",
    "name": "Medicine Bow School",
    "primary_color": "Red",
    "secondary_color": "White",
    "state": "WY",
    "timezone": "America/Denver",
    "updated_at": "2012-07-08T01:57:48Z",
    "zip": "82329"
  },
  {
    "address": "425 S Maple St",
    "city": "Lusk",
    "county": "Niobrara County",
    "created_at": "2012-01-04T20:18:26Z",
    "id": 26967,
    "latitude": "42.760933",
    "longitude": "-104.447943",
    "mascot": "Tigers",
    "name": "Niobrara County High School",
    "primary_color": "Red",
    "secondary_color": "White",
    "state": "WY",
    "timezone": "America/Denver",
    "updated_at": "2012-07-08T01:57:48Z",
    "zip": "82225"
  },
  {
    "address": "350 Baldwin Creek Rd",
    "city": "Lander",
    "county": "Fremont County",
    "created_at": "2012-01-04T20:18:26Z",
    "id": 26968,
    "latitude": "42.838978",
    "longitude": "-108.745432",
    "mascot": "Tigers",
    "name": "Lander Valley High School",
    "primary_color": "Kelly Green",
    "secondary_color": "Black",
    "state": "WY",
    "timezone": "America/Denver",
    "updated_at": "2012-07-08T01:57:49Z",
    "zip": "82520"
  },
  {
    "address": "300 Pine St",
    "city": "Cokeville",
    "county": "Lincoln County",
    "created_at": "2012-01-04T20:18:26Z",
    "id": 26969,
    "latitude": "42.084065",
    "longitude": "-110.956429",
    "mascot": "Panthers",
    "name": "Cokeville Junior Senior High School",
    "primary_color": "Orange",
    "secondary_color": "Black",
    "state": "WY",
    "timezone": "America/Denver",
    "updated_at": "2012-07-08T01:57:49Z",
    "zip": "83114"
  },
  {
    "address": "100 East 7th ",
    "city": "Gillette",
    "county": "Campbell County",
    "created_at": "2012-01-04T20:18:26Z",
    "id": 26970,
    "latitude": "44.288235",
    "longitude": "-105.503823",
    "mascot": "Warriors",
    "name": "Twin Spruce Junior High School",
    "primary_color": "Royal",
    "secondary_color": "Gold",
    "state": "WY",
    "timezone": "America/Denver",
    "updated_at": "2012-07-08T01:57:50Z",
    "zip": "82716"
  },
  {
    "address": "2211 Essex Ave",
    "city": "Casper",
    "county": "Natrona County",
    "created_at": "2012-01-04T20:18:26Z",
    "id": 26971,
    "latitude": "42.827412",
    "longitude": "-106.350175",
    "mascot": "Cyclones",
    "name": "CY Junior High School",
    "primary_color": "Gray",
    "secondary_color": "Royal",
    "state": "WY",
    "timezone": "America/Denver",
    "updated_at": "2012-07-08T01:57:51Z",
    "zip": "82604"
  },
  {
    "address": "1000 Camel Dr",
    "city": "Gillette",
    "county": "Campbell County",
    "created_at": "2012-01-04T20:18:26Z",
    "id": 26972,
    "latitude": "44.281829",
    "longitude": "-105.490335",
    "mascot": "Camels",
    "name": "Campbell County Senior High School",
    "primary_color": "Gold",
    "secondary_color": "Purple",
    "state": "WY",
    "timezone": "America/Denver",
    "updated_at": "2012-07-08T01:57:51Z",
    "zip": "82716"
  },
  {
    "address": "1401 Colorado St",
    "city": "Rawlins",
    "county": "Carbon County",
    "created_at": "2012-01-04T20:18:26Z",
    "id": 26973,
    "latitude": "41.800665",
    "longitude": "-107.234971",
    "mascot": "Bucking Horses And Outlaws",
    "name": "Rawlins High School",
    "primary_color": "Red",
    "secondary_color": "White",
    "state": "WY",
    "timezone": "America/Denver",
    "updated_at": "2012-07-08T01:57:52Z",
    "zip": "82301"
  },
  {
    "address": "930 S Elm",
    "city": "Casper",
    "county": "Natrona County",
    "created_at": "2012-01-04T20:18:26Z",
    "id": 26974,
    "latitude": "42.841927",
    "longitude": "-106.329321",
    "mascot": "Mustangs",
    "name": "Natrona County High School",
    "primary_color": "Black",
    "secondary_color": "Orange",
    "state": "WY",
    "timezone": "America/Denver",
    "updated_at": "2012-07-08T01:57:53Z",
    "zip": "82601"
  },
  {
    "address": "1615 Hitching Post Dr",
    "city": "Green River",
    "county": "Sweetwater County",
    "created_at": "2012-01-04T20:18:26Z",
    "id": 26975,
    "latitude": "41.502363",
    "longitude": "-109.463969",
    "mascot": "Wolves",
    "name": "Green River High School",
    "primary_color": "Kelly Green",
    "secondary_color": "Black",
    "state": "WY",
    "timezone": "America/Denver",
    "updated_at": "2012-07-08T01:57:53Z",
    "zip": "82935"
  },
  {
    "address": "1910 High School Rd",
    "city": "Jackson",
    "county": "Teton County",
    "created_at": "2012-01-04T20:18:26Z",
    "id": 26976,
    "latitude": "43.458416",
    "longitude": "-110.802674",
    "mascot": "Broncos",
    "name": "Jackson Hole High School",
    "primary_color": "Orange",
    "secondary_color": "Black",
    "state": "WY",
    "timezone": "America/Denver",
    "updated_at": "2012-07-08T01:57:54Z",
    "zip": "83001"
  },
  {
    "address": "510 Wallstreet Ct",
    "city": "Gillette",
    "county": "Campbell County",
    "created_at": "2012-01-04T20:18:26Z",
    "id": 26977,
    "latitude": "44.289427",
    "longitude": "-105.444593",
    "mascot": "Patriots",
    "name": "Heritage Christian School",
    "primary_color": "Red",
    "secondary_color": "White",
    "state": "WY",
    "timezone": "America/Denver",
    "updated_at": "2012-07-08T01:57:55Z",
    "zip": "82718"
  },
  {
    "address": "PO Box 1090",
    "city": "Lyman",
    "county": "Uinta County",
    "created_at": "2012-01-04T20:18:26Z",
    "id": 26978,
    "latitude": "41.329886",
    "longitude": "-110.308310",
    "mascot": "Eagles",
    "name": "Lyman High School",
    "primary_color": "Royal",
    "secondary_color": "White",
    "state": "WY",
    "timezone": "America/Denver",
    "updated_at": "2012-07-08T01:57:55Z",
    "zip": "82937"
  },
  {
    "address": "100 North St",
    "city": "Baggs",
    "county": "Carbon County",
    "created_at": "2012-01-04T20:18:26Z",
    "id": 26979,
    "latitude": "41.035973",
    "longitude": "-107.651444",
    "mascot": "Rattlesnakes",
    "name": "Little Snake River Valley School",
    "primary_color": "Gold",
    "secondary_color": "Purple",
    "state": "WY",
    "timezone": "America/Denver",
    "updated_at": "2012-07-08T01:57:56Z",
    "zip": "82321"
  },
  {
    "address": "331 Park St",
    "city": "Thermopolis",
    "county": "Hot Springs County",
    "created_at": "2012-01-04T20:18:26Z",
    "id": 26980,
    "latitude": "43.650442",
    "longitude": "-108.204121",
    "mascot": "Bobcats",
    "name": "Hot Springs County High School",
    "primary_color": "Gold",
    "secondary_color": "Purple",
    "state": "WY",
    "timezone": "America/Denver",
    "updated_at": "2012-07-08T01:57:56Z",
    "zip": "82443"
  },
  {
    "address": "218 E 7th St",
    "city": "Casper",
    "county": "Natrona County",
    "created_at": "2012-01-04T20:18:26Z",
    "id": 26981,
    "latitude": "42.843628",
    "longitude": "-106.323406",
    "mascot": "Spartans",
    "name": "Saint Anthony School",
    "primary_color": "Navy",
    "secondary_color": "White",
    "state": "WY",
    "timezone": "America/Denver",
    "updated_at": "2012-07-08T01:57:57Z",
    "zip": "82601"
  },
  {
    "address": "3500 Big Horn Ave",
    "city": "Sheridan",
    "county": "Sheridan County",
    "created_at": "2012-01-04T20:18:26Z",
    "id": 26982,
    "latitude": "44.760716",
    "longitude": "-106.964006",
    "mascot": null,
    "name": "Wyoming Girls School",
    "primary_color": null,
    "secondary_color": null,
    "state": "WY",
    "timezone": "America/Denver",
    "updated_at": "2012-07-08T01:57:57Z",
    "zip": "82801"
  },
  {
    "address": "Rt 2 1550 Hwy 20 S",
    "city": "Worland",
    "county": "Washakie County",
    "created_at": "2012-01-04T20:18:26Z",
    "id": 26983,
    "latitude": "44.016835",
    "longitude": "-107.955114",
    "mascot": null,
    "name": "Wyoming State Boys School",
    "primary_color": null,
    "secondary_color": null,
    "state": "WY",
    "timezone": "America/Denver",
    "updated_at": "2012-07-08T01:57:59Z",
    "zip": "82401"
  },
  {
    "address": "710 Garfield St Ste 105",
    "city": "Laramie",
    "county": "Albany County",
    "created_at": "2012-01-04T20:18:26Z",
    "id": 26984,
    "latitude": "41.309747",
    "longitude": "-105.588203",
    "mascot": "Stallions",
    "name": "Laramie Christian School",
    "primary_color": "Teal",
    "secondary_color": "Black",
    "state": "WY",
    "timezone": "America/Denver",
    "updated_at": "2012-07-08T01:57:59Z",
    "zip": "82070"
  },
  {
    "address": "1170 Country Club Rd",
    "city": "Gillette",
    "county": "Campbell County",
    "created_at": "2012-01-04T20:18:26Z",
    "id": 26985,
    "latitude": "44.275399",
    "longitude": "-105.484444",
    "mascot": "Crusaders",
    "name": "Central Baptist Academy",
    "primary_color": "Royal",
    "secondary_color": "Gray",
    "state": "WY",
    "timezone": "America/Denver",
    "updated_at": "2012-07-08T01:58:00Z",
    "zip": "82716"
  },
  {
    "address": "10th & Birch St",
    "city": "Douglas",
    "county": "Converse County",
    "created_at": "2012-01-04T20:18:26Z",
    "id": 26986,
    "latitude": "42.752590",
    "longitude": "-105.374539",
    "mascot": null,
    "name": "Calvary Baptist Academy",
    "primary_color": "Red",
    "secondary_color": "White",
    "state": "WY",
    "timezone": "America/Denver",
    "updated_at": "2012-07-08T01:58:00Z",
    "zip": "82633"
  },
  {
    "address": "3041 Paradise Dr",
    "city": "Casper",
    "county": "Natrona County",
    "created_at": "2012-01-04T20:18:26Z",
    "id": 26987,
    "latitude": "42.819558",
    "longitude": "-106.395691",
    "mascot": "Eagles",
    "name": "Paradise Valley Christian School",
    "primary_color": "Red",
    "secondary_color": "White",
    "state": "WY",
    "timezone": "America/Denver",
    "updated_at": "2012-07-08T01:58:01Z",
    "zip": "82604"
  },
  {
    "address": "2 Mi N On Hwy 287",
    "city": "Laramie",
    "county": "Albany County",
    "created_at": "2012-01-04T20:18:26Z",
    "id": 26988,
    "latitude": "41.263160",
    "longitude": "-105.599399",
    "mascot": null,
    "name": "Cathedral Home For Children",
    "primary_color": "Royal",
    "secondary_color": "White",
    "state": "WY",
    "timezone": "America/Denver",
    "updated_at": "2012-07-08T01:58:01Z",
    "zip": "82070"
  },
  {
    "address": "118 W 5th St",
    "city": "Sheridan",
    "county": "Sheridan County",
    "created_at": "2012-01-04T20:18:26Z",
    "id": 26989,
    "latitude": "44.806838",
    "longitude": "-106.956514",
    "mascot": "Knights",
    "name": "Sheridan Christian School",
    "primary_color": null,
    "secondary_color": null,
    "state": "WY",
    "timezone": "America/Denver",
    "updated_at": "2012-07-08T01:58:02Z",
    "zip": "82801"
  },
  {
    "address": "1355 N 22nd St",
    "city": "Laramie",
    "county": "Albany County",
    "created_at": "2012-01-04T20:18:26Z",
    "id": 26990,
    "latitude": "41.323658",
    "longitude": "-105.567213",
    "mascot": "Scouts",
    "name": "Laramie Junior High School",
    "primary_color": "Black",
    "secondary_color": "White",
    "state": "WY",
    "timezone": "America/Denver",
    "updated_at": "2012-07-08T01:58:02Z",
    "zip": "82070"
  },
  {
    "address": "1275 N 11th St",
    "city": "Laramie",
    "county": "Albany County",
    "created_at": "2012-01-04T20:18:26Z",
    "id": 26991,
    "latitude": "41.323322",
    "longitude": "-105.581743",
    "mascot": "Plainsmen",
    "name": "Laramie Senior High School",
    "primary_color": "Maroon",
    "secondary_color": "White",
    "state": "WY",
    "timezone": "America/Denver",
    "updated_at": "2012-07-08T01:58:03Z",
    "zip": "82072"
  },
  {
    "address": "262 N Morris",
    "city": "Rock River",
    "county": "Albany County",
    "created_at": "2012-01-04T20:18:26Z",
    "id": 26992,
    "latitude": "41.742103",
    "longitude": "-105.970381",
    "mascot": "Longhorns",
    "name": "Rock River School",
    "primary_color": "Royal",
    "secondary_color": "White",
    "state": "WY",
    "timezone": "America/Denver",
    "updated_at": "2012-07-08T01:58:03Z",
    "zip": "82083"
  },
  {
    "address": "30 E Main St",
    "city": "Byron",
    "county": "Big Horn County",
    "created_at": "2012-01-04T20:18:26Z",
    "id": 26993,
    "latitude": "44.796225",
    "longitude": "-108.506337",
    "mascot": "Grizzlies",
    "name": "Rocky Mountain High School",
    "primary_color": "Gold",
    "secondary_color": "Brown",
    "state": "WY",
    "timezone": "America/Denver",
    "updated_at": "2012-07-08T01:58:05Z",
    "zip": "82412"
  },
  {
    "address": "919 W B St",
    "city": "Basin",
    "county": "Big Horn County",
    "created_at": "2012-01-04T20:18:26Z",
    "id": 26994,
    "latitude": "44.380015",
    "longitude": "-108.046729",
    "mascot": "Rebels",
    "name": "Riverside High School",
    "primary_color": "Red",
    "secondary_color": "White",
    "state": "WY",
    "timezone": "America/Denver",
    "updated_at": "2012-07-08T01:58:05Z",
    "zip": "82410"
  },
  {
    "address": "600 N 6th St",
    "city": "Greybull",
    "county": "Big Horn County",
    "created_at": "2012-01-04T20:18:26Z",
    "id": 26995,
    "latitude": "44.495081",
    "longitude": "-108.055328",
    "mascot": "Buffalo",
    "name": "Greybull High School",
    "primary_color": "Royal",
    "secondary_color": "Gold",
    "state": "WY",
    "timezone": "America/Denver",
    "updated_at": "2012-07-08T01:58:05Z",
    "zip": "82426"
  },
  {
    "address": "1000 W Lakeway Rd",
    "city": "Gillette",
    "county": "Campbell County",
    "created_at": "2012-01-04T20:18:26Z",
    "id": 26996,
    "latitude": "44.268969",
    "longitude": "-105.516772",
    "mascot": "Eagles",
    "name": "Sage Valley Junior High School",
    "primary_color": "Royal",
    "secondary_color": "Red",
    "state": "WY",
    "timezone": "America/Denver",
    "updated_at": "2012-07-08T01:58:06Z",
    "zip": "82718"
  },
  {
    "address": "220 Wright Blvd",
    "city": "Wright",
    "county": "Campbell County",
    "created_at": "2012-01-04T20:18:26Z",
    "id": 26997,
    "latitude": "43.760120",
    "longitude": "-105.489589",
    "mascot": "Panthers",
    "name": "Wright Junior Senior High School",
    "primary_color": "Gold",
    "secondary_color": "Black",
    "state": "WY",
    "timezone": "America/Denver",
    "updated_at": "2012-07-08T01:58:06Z",
    "zip": "82732"
  },
  {
    "address": "801 W Elm St",
    "city": "Saratoga",
    "county": "Carbon County",
    "created_at": "2012-01-04T20:18:26Z",
    "id": 26998,
    "latitude": "41.452770",
    "longitude": "-106.815009",
    "mascot": "Panthers",
    "name": "Saratoga High School",
    "primary_color": "Gold",
    "secondary_color": "Purple",
    "state": "WY",
    "timezone": "America/Denver",
    "updated_at": "2012-07-08T01:58:07Z",
    "zip": "82331"
  },
  {
    "address": "514 Rankin Ave",
    "city": "Encampment",
    "county": "Carbon County",
    "created_at": "2012-01-04T20:18:26Z",
    "id": 26999,
    "latitude": "41.209281",
    "longitude": "-106.792428",
    "mascot": "Tigers",
    "name": "Encampment K12 School",
    "primary_color": "Red",
    "secondary_color": "Black",
    "state": "WY",
    "timezone": "America/Denver",
    "updated_at": "2012-07-08T01:58:07Z",
    "zip": "82325"
  },
  {
    "address": "Hwy 72",
    "city": "Hanna",
    "county": "Carbon County",
    "created_at": "2012-01-04T20:18:26Z",
    "id": 27000,
    "latitude": "41.854130",
    "longitude": "-106.549369",
    "mascot": "Miners",
    "name": "Hanna-Elk Mountain Junior Senior High",
    "primary_color": "Royal",
    "secondary_color": "Orange",
    "state": "WY",
    "timezone": "America/Denver",
    "updated_at": "2012-07-08T01:58:07Z",
    "zip": "82327"
  },
  {
    "address": "615 Hamilton St",
    "city": "Douglas",
    "county": "Converse County",
    "created_at": "2012-01-04T20:18:26Z",
    "id": 27001,
    "latitude": "42.751202",
    "longitude": "-105.379597",
    "mascot": "Bear Cats",
    "name": "Douglas High School",
    "primary_color": "Royal",
    "secondary_color": "White",
    "state": "WY",
    "timezone": "America/Denver",
    "updated_at": "2012-07-08T01:58:07Z",
    "zip": "82633"
  },
  {
    "address": "225 Oregon Trl",
    "city": "Glenrock",
    "county": "Converse County",
    "created_at": "2012-01-04T20:18:26Z",
    "id": 27002,
    "latitude": "42.861640",
    "longitude": "-105.849139",
    "mascot": "Rams",
    "name": "Glenrock High School",
    "primary_color": "Purple",
    "secondary_color": "White",
    "state": "WY",
    "timezone": "America/Denver",
    "updated_at": "2012-07-08T01:58:08Z",
    "zip": "82637"
  },
  {
    "address": "401 Sager St",
    "city": "Hulett",
    "county": "Crook County",
    "created_at": "2012-01-04T20:18:26Z",
    "id": 27003,
    "latitude": "44.686140",
    "longitude": "-104.601574",
    "mascot": "Red Devils",
    "name": "Hulett School",
    "primary_color": "Red",
    "secondary_color": "Black",
    "state": "WY",
    "timezone": "America/Denver",
    "updated_at": "2012-07-08T01:58:08Z",
    "zip": "82720"
  },
  {
    "address": "101 Country Lane",
    "city": "Moorcroft",
    "county": "Crook County",
    "created_at": "2012-01-04T20:18:26Z",
    "id": 27004,
    "latitude": "44.249500",
    "longitude": "-104.931579",
    "mascot": "Wolves",
    "name": "Moorcroft Junior Senior High School",
    "primary_color": "Kelly Green",
    "secondary_color": "White",
    "state": "WY",
    "timezone": "America/Denver",
    "updated_at": "2012-07-08T01:58:09Z",
    "zip": "82721"
  },
  {
    "address": "1016 E. Cleveland ",
    "city": "Sundance",
    "county": "Crook County",
    "created_at": "2012-01-04T20:18:26Z",
    "id": 27005,
    "latitude": "44.407989",
    "longitude": "-104.370986",
    "mascot": "Bulldogs",
    "name": "Sundance High School",
    "primary_color": "Red",
    "secondary_color": "White",
    "state": "WY",
    "timezone": "America/Denver",
    "updated_at": "2012-07-08T01:58:18Z",
    "zip": "82729"
  },
  {
    "address": "314 Helmer St",
    "city": "Dubois",
    "county": "Fremont County",
    "created_at": "2012-01-04T20:18:26Z",
    "id": 27006,
    "latitude": "43.534760",
    "longitude": "-109.636300",
    "mascot": "Rams",
    "name": "Dubois High School",
    "primary_color": "Gold",
    "secondary_color": "Royal",
    "state": "WY",
    "timezone": "America/Denver",
    "updated_at": "2012-07-08T01:58:20Z",
    "zip": "82513"
  },
  {
    "address": "636 Blue Sky Hwy",
    "city": "Ethete",
    "county": "Fremont County",
    "created_at": "2012-01-04T20:18:26Z",
    "id": 27007,
    "latitude": "43.015062",
    "longitude": "-108.774952",
    "mascot": "Chiefs",
    "name": "Wyoming Indian High School",
    "primary_color": "Columbia Blue",
    "secondary_color": "Red",
    "state": "WY",
    "timezone": "America/Denver",
    "updated_at": "2012-07-08T01:58:21Z",
    "zip": "82520"
  },
  {
    "address": "121 N 5th W",
    "city": "Riverton",
    "county": "Fremont County",
    "created_at": "2012-01-04T20:18:26Z",
    "id": 27008,
    "latitude": "43.024755",
    "longitude": "-108.396301",
    "mascot": "Wolverines",
    "name": "Riverton High School",
    "primary_color": "Red",
    "secondary_color": "White",
    "state": "WY",
    "timezone": "America/Denver",
    "updated_at": "2012-07-08T01:58:21Z",
    "zip": "82501"
  },
  {
    "address": "1994 N Cougar Dr",
    "city": "Pavillion",
    "county": "Fremont County",
    "created_at": "2012-01-04T20:18:26Z",
    "id": 27009,
    "latitude": "43.244040",
    "longitude": "-108.684869",
    "mascot": "Cougars",
    "name": "Wind River Middle & High School",
    "primary_color": "Gray",
    "secondary_color": "Purple",
    "state": "WY",
    "timezone": "America/Denver",
    "updated_at": "2012-07-08T01:58:22Z",
    "zip": "82523"
  },
  {
    "address": "2400 W C St",
    "city": "Torrington",
    "county": "Goshen County",
    "created_at": "2012-01-04T20:18:26Z",
    "id": 27010,
    "latitude": "42.064762",
    "longitude": "-104.188844",
    "mascot": "Trailblazers",
    "name": "Torrington High School",
    "primary_color": "Gold",
    "secondary_color": "Maroon",
    "state": "WY",
    "timezone": "America/Denver",
    "updated_at": "2012-07-08T01:58:23Z",
    "zip": "82240"
  },
  {
    "address": "404 3rd St",
    "city": "Lingle",
    "county": "Goshen County",
    "created_at": "2012-01-04T20:18:26Z",
    "id": 27011,
    "latitude": "42.135770",
    "longitude": "-104.341179",
    "mascot": "Doggers",
    "name": "Lingle-Fort Laramie High School",
    "primary_color": "Red",
    "secondary_color": "Royal",
    "state": "WY",
    "timezone": "America/Denver",
    "updated_at": "2012-07-08T01:58:23Z",
    "zip": "82223"
  },
  {
    "address": "3rd St",
    "city": "Lingle",
    "county": "Goshen County",
    "created_at": "2012-01-04T20:18:26Z",
    "id": 27012,
    "latitude": "42.135835",
    "longitude": "-104.341179",
    "mascot": null,
    "name": "Lingle-Fort Laramie School",
    "primary_color": "Red",
    "secondary_color": "Royal",
    "state": "WY",
    "timezone": "America/Denver",
    "updated_at": "2012-07-08T01:58:24Z",
    "zip": "82223"
  },
  {
    "address": "601 W Lott St",
    "city": "Buffalo",
    "county": "Johnson County",
    "created_at": "2012-01-04T20:18:26Z",
    "id": 27013,
    "latitude": "44.349744",
    "longitude": "-106.707336",
    "mascot": "Bison",
    "name": "Buffalo High School",
    "primary_color": "Black",
    "secondary_color": "Gold",
    "state": "WY",
    "timezone": "America/Denver",
    "updated_at": "2012-07-08T01:58:25Z",
    "zip": "82834"
  },
  {
    "address": "115 Holt St",
    "city": "Kaycee",
    "county": "Johnson County",
    "created_at": "2012-01-04T20:18:26Z",
    "id": 27014,
    "latitude": "43.713317",
    "longitude": "-106.634988",
    "mascot": "Buckaroos / Lady Bucks",
    "name": "Kaycee Junior Senior High School",
    "primary_color": "Red",
    "secondary_color": "Royal",
    "state": "WY",
    "timezone": "America/Denver",
    "updated_at": "2012-07-08T01:58:27Z",
    "zip": "82639"
  },
  {
    "address": "2800 E Pershing Blvd",
    "city": "Cheyenne",
    "county": "Laramie County",
    "created_at": "2012-01-04T20:18:26Z",
    "id": 27015,
    "latitude": "41.145648",
    "longitude": "-104.777606",
    "mascot": "Thunderbirds",
    "name": "East High School",
    "primary_color": "Columbia Blue",
    "secondary_color": "Black",
    "state": "WY",
    "timezone": "America/Denver",
    "updated_at": "2012-07-08T01:58:27Z",
    "zip": "82001"
  },
  {
    "address": "1238 W Allison Rd",
    "city": "Cheyenne",
    "county": "Laramie County",
    "created_at": "2012-01-04T20:18:26Z",
    "id": 27016,
    "latitude": "41.110021",
    "longitude": "-104.820336",
    "mascot": "Firebirds",
    "name": "Johnson Junior High School",
    "primary_color": "Red",
    "secondary_color": "White",
    "state": "WY",
    "timezone": "America/Denver",
    "updated_at": "2012-07-08T01:58:27Z",
    "zip": "82007"
  },
  {
    "address": "6000 Education Dr",
    "city": "Cheyenne",
    "county": "Laramie County",
    "created_at": "2012-01-04T20:18:26Z",
    "id": 27017,
    "latitude": "41.173943",
    "longitude": "-104.833346",
    "mascot": "Warriors",
    "name": "McCormick Junior High School",
    "primary_color": "Maroon",
    "secondary_color": "Black",
    "state": "WY",
    "timezone": "America/Denver",
    "updated_at": "2012-07-08T01:58:27Z",
    "zip": "82009"
  },
  {
    "address": "2201 Morrie Ave",
    "city": "Cheyenne",
    "county": "Laramie County",
    "created_at": "2012-01-04T20:18:26Z",
    "id": 27018,
    "latitude": "41.142325",
    "longitude": "-104.807615",
    "mascot": "Rising Sun",
    "name": "Triumph High School",
    "primary_color": "Gray",
    "secondary_color": "Black",
    "state": "WY",
    "timezone": "America/Denver",
    "updated_at": "2012-07-08T01:58:28Z",
    "zip": "82001"
  },
  {
    "address": "524 E 4th St",
    "city": "Burns",
    "county": "Laramie County",
    "created_at": "2012-01-04T20:18:26Z",
    "id": 27019,
    "latitude": "41.187234",
    "longitude": "-104.353407",
    "mascot": "Broncs",
    "name": "Burns Junior Senior High School",
    "primary_color": "Orange",
    "secondary_color": "Black",
    "state": "WY",
    "timezone": "America/Denver",
    "updated_at": "2012-07-08T01:58:28Z",
    "zip": "82053"
  },
  {
    "address": "512 Maple St",
    "city": "Pine Bluffs",
    "county": "Laramie County",
    "created_at": "2012-01-04T20:18:26Z",
    "id": 27020,
    "latitude": "41.179610",
    "longitude": "-104.064155",
    "mascot": "Hornets",
    "name": "Pine Bluffs Junior Senior High School",
    "primary_color": "Gold",
    "secondary_color": "Purple",
    "state": "WY",
    "timezone": "America/Denver",
    "updated_at": "2012-07-08T01:58:28Z",
    "zip": "82082"
  },
  {
    "address": "445 W Swift Creek Ln",
    "city": "Afton",
    "county": "Lincoln County",
    "created_at": "2012-01-04T20:18:26Z",
    "id": 27021,
    "latitude": "42.737050",
    "longitude": "-110.950053",
    "mascot": "Braves",
    "name": "Star Valley High School",
    "primary_color": "Gold",
    "secondary_color": "Red",
    "state": "WY",
    "timezone": "America/Denver",
    "updated_at": "2012-07-08T01:58:29Z",
    "zip": "83110"
  },
  {
    "address": "1440 S Elm St",
    "city": "Casper",
    "county": "Natrona County",
    "created_at": "2012-01-04T20:18:26Z",
    "id": 27022,
    "latitude": "42.836075",
    "longitude": "-106.329327",
    "mascot": null,
    "name": "Dean Morgan Junior High School",
    "primary_color": "Red",
    "secondary_color": "Black",
    "state": "WY",
    "timezone": "America/Denver",
    "updated_at": "2012-07-08T01:58:30Z",
    "zip": "82601"
  },
  {
    "address": "3500 E 12th St",
    "city": "Casper",
    "county": "Natrona County",
    "created_at": "2012-01-04T20:18:26Z",
    "id": 27023,
    "latitude": "42.838939",
    "longitude": "-106.280301",
    "mascot": "Trojans",
    "name": "Kelly Walsh High School",
    "primary_color": "White",
    "secondary_color": "Kelly Green",
    "state": "WY",
    "timezone": "America/Denver",
    "updated_at": "2012-07-08T01:58:30Z",
    "zip": "82609"
  },
  {
    "address": "140 E K St",
    "city": "Casper",
    "county": "Natrona County",
    "created_at": "2012-01-04T20:18:26Z",
    "id": 27024,
    "latitude": "42.860958",
    "longitude": "-106.324505",
    "mascot": "Bulldogs",
    "name": "Roosevelt High School",
    "primary_color": "Black",
    "secondary_color": "Royal",
    "state": "WY",
    "timezone": "America/Denver",
    "updated_at": "2012-07-08T01:58:31Z",
    "zip": "82601"
  },
  {
    "address": "1421 S Waterford",
    "city": "Casper",
    "county": "Natrona County",
    "created_at": "2012-01-04T20:18:26Z",
    "id": 27025,
    "latitude": "42.834113",
    "longitude": "-106.264703",
    "mascot": null,
    "name": "Centennial Junior High School",
    "primary_color": "Brown",
    "secondary_color": "Gold",
    "state": "WY",
    "timezone": "America/Denver",
    "updated_at": "2012-07-08T01:58:31Z",
    "zip": "82609"
  },
  {
    "address": "1225 10th St",
    "city": "Cody",
    "county": "Park County",
    "created_at": "2012-01-04T20:18:26Z",
    "id": 27026,
    "latitude": "44.523809",
    "longitude": "-109.067836",
    "mascot": "Broncs And Fillies",
    "name": "Cody High School",
    "primary_color": "Royal",
    "secondary_color": "Gold",
    "state": "WY",
    "timezone": "America/Denver",
    "updated_at": "2012-07-08T01:58:31Z",
    "zip": "82414"
  },
  {
    "address": "406 5th St",
    "city": "Chugwater",
    "county": "Platte County",
    "created_at": "2012-01-04T20:18:26Z",
    "id": 27027,
    "latitude": "41.760537",
    "longitude": "-104.822952",
    "mascot": "Buffalos",
    "name": "Chugwater School",
    "primary_color": "Royal",
    "secondary_color": "White",
    "state": "WY",
    "timezone": "America/Denver",
    "updated_at": "2012-07-08T01:58:32Z",
    "zip": "82210"
  },
  {
    "address": "305 Nth Paige Ave",
    "city": "Glendo",
    "county": "Platte County",
    "created_at": "2012-01-04T20:18:26Z",
    "id": 27028,
    "latitude": "42.504737",
    "longitude": "-105.022317",
    "mascot": "Eagles",
    "name": "Glendo School",
    "primary_color": "Maroon",
    "secondary_color": "White",
    "state": "WY",
    "timezone": "America/Denver",
    "updated_at": "2012-07-08T01:58:32Z",
    "zip": "82213"
  },
  {
    "address": "1207 13th St",
    "city": "Wheatland",
    "county": "Platte County",
    "created_at": "2012-01-04T20:18:26Z",
    "id": 27029,
    "latitude": "42.060827",
    "longitude": "-104.958888",
    "mascot": "Bulldogs",
    "name": "Wheatland High School",
    "primary_color": "Gold",
    "secondary_color": "Royal",
    "state": "WY",
    "timezone": "America/Denver",
    "updated_at": "2012-07-08T01:58:32Z",
    "zip": "82201"
  },
  {
    "address": "555 S Wyoming St",
    "city": "Guernsey",
    "county": "Platte County",
    "created_at": "2012-01-04T20:18:26Z",
    "id": 27030,
    "latitude": "42.265790",
    "longitude": "-104.741569",
    "mascot": "Vikings",
    "name": "Guernsey Sunrise School",
    "primary_color": "Black",
    "secondary_color": "White",
    "state": "WY",
    "timezone": "America/Denver",
    "updated_at": "2012-07-08T01:58:33Z",
    "zip": "82214"
  },
  {
    "address": "PO Box 408",
    "city": "Dayton",
    "county": "Sheridan County",
    "created_at": "2012-01-04T20:18:26Z",
    "id": 27031,
    "latitude": "44.794500",
    "longitude": "-107.479299",
    "mascot": "Eagles",
    "name": "Tongue River High School",
    "primary_color": "Hunter Green",
    "secondary_color": "White",
    "state": "WY",
    "timezone": "America/Denver",
    "updated_at": "2012-07-08T01:58:33Z",
    "zip": "82836"
  },
  {
    "address": "333 Hwy 335",
    "city": "Sheridan",
    "county": "Sheridan County",
    "created_at": "2012-01-04T20:18:26Z",
    "id": 27032,
    "latitude": "44.777300",
    "longitude": "-106.965739",
    "mascot": "Rams",
    "name": "Big Horn Middle High School",
    "primary_color": "Gold",
    "secondary_color": "Maroon",
    "state": "WY",
    "timezone": "America/Denver",
    "updated_at": "2012-07-08T01:58:34Z",
    "zip": "82801"
  },
  {
    "address": "1056 Long Dr",
    "city": "Sheridan",
    "county": "Sheridan County",
    "created_at": "2012-01-04T20:18:26Z",
    "id": 27033,
    "latitude": "44.809240",
    "longitude": "-106.983178",
    "mascot": "Broncs",
    "name": "Sheridan High School",
    "primary_color": "Gold",
    "secondary_color": "Royal",
    "state": "WY",
    "timezone": "America/Denver",
    "updated_at": "2012-07-08T01:58:35Z",
    "zip": "82801"
  },
  {
    "address": "600 Adair St",
    "city": "Sheridan",
    "county": "Sheridan County",
    "created_at": "2012-01-04T20:18:26Z",
    "id": 27034,
    "latitude": "44.802796",
    "longitude": "-106.962744",
    "mascot": "Broncs",
    "name": "Sheridan Junior High School",
    "primary_color": "Gold",
    "secondary_color": "Royal",
    "state": "WY",
    "timezone": "America/Denver",
    "updated_at": "2012-07-08T01:58:35Z",
    "zip": "82801"
  },
  {
    "address": "101 E Hennick St",
    "city": "Pinedale",
    "county": "Sublette County",
    "created_at": "2012-01-04T20:18:26Z",
    "id": 27035,
    "latitude": "42.870108",
    "longitude": "-109.859713",
    "mascot": "Wranglers",
    "name": "Pinedale High School",
    "primary_color": "Kelly Green",
    "secondary_color": "White",
    "state": "WY",
    "timezone": "America/Denver",
    "updated_at": "2012-07-08T01:58:36Z",
    "zip": "82941"
  },
  {
    "address": "916 Piney Dr",
    "city": "Big Piney",
    "county": "Sublette County",
    "created_at": "2012-01-04T20:18:26Z",
    "id": 27036,
    "latitude": "42.540837",
    "longitude": "-110.120941",
    "mascot": "Punchers",
    "name": "Big Piney High School",
    "primary_color": "Red",
    "secondary_color": "White",
    "state": "WY",
    "timezone": "America/Denver",
    "updated_at": "2012-07-08T01:58:36Z",
    "zip": "83113"
  },
  {
    "address": "1375 James Dr",
    "city": "Rock Springs",
    "county": "Sweetwater County",
    "created_at": "2012-01-04T20:18:26Z",
    "id": 27037,
    "latitude": "41.591065",
    "longitude": "-109.206955",
    "mascot": "Tigers",
    "name": "Rock Springs High School",
    "primary_color": "Orange",
    "secondary_color": "Black",
    "state": "WY",
    "timezone": "America/Denver",
    "updated_at": "2012-07-08T01:58:38Z",
    "zip": "82902"
  },
  {
    "address": "30 Hwy 28 E",
    "city": "Farson",
    "county": "Sweetwater County",
    "created_at": "2012-01-04T20:18:26Z",
    "id": 27038,
    "latitude": "42.110732",
    "longitude": "-109.444141",
    "mascot": "Pronghorns",
    "name": "Farson Eden School",
    "primary_color": "Gold",
    "secondary_color": "Kelly Green",
    "state": "WY",
    "timezone": "America/Denver",
    "updated_at": "2012-07-08T01:58:39Z",
    "zip": "82932"
  },
  {
    "address": "220 S Glenwood St",
    "city": "Jackson",
    "county": "Teton County",
    "created_at": "2012-01-04T20:18:27Z",
    "id": 27039,
    "latitude": "43.477701",
    "longitude": "-110.763739",
    "mascot": "Phoenix",
    "name": "Western Wyoming High School",
    "primary_color": "Maroon",
    "secondary_color": "Gray",
    "state": "WY",
    "timezone": "America/Denver",
    "updated_at": "2012-07-08T01:58:40Z",
    "zip": "83001"
  },
  {
    "address": "3 37th St",
    "city": "Mountain View",
    "county": "Uinta County",
    "created_at": "2012-01-04T20:18:27Z",
    "id": 27040,
    "latitude": "41.271698",
    "longitude": "-110.335192",
    "mascot": "Buffalos",
    "name": "Mountain View High School",
    "primary_color": "Purple",
    "secondary_color": "White",
    "state": "WY",
    "timezone": "America/Denver",
    "updated_at": "2012-07-08T01:58:40Z",
    "zip": "82939"
  },
  {
    "address": "242 Cedar St",
    "city": "Ten Sleep",
    "county": "Washakie County",
    "created_at": "2012-01-04T20:18:27Z",
    "id": 27041,
    "latitude": "44.034060",
    "longitude": "-107.447249",
    "mascot": "Pioneers",
    "name": "Ten Sleep School",
    "primary_color": "Royal",
    "secondary_color": "Red",
    "state": "WY",
    "timezone": "America/Denver",
    "updated_at": "2012-07-08T01:58:41Z",
    "zip": "82442"
  },
  {
    "address": "801 S 17th St",
    "city": "Worland",
    "county": "Washakie County",
    "created_at": "2012-01-04T20:18:27Z",
    "id": 27042,
    "latitude": "44.009286",
    "longitude": "-107.945974",
    "mascot": "Warriors",
    "name": "Worland High School",
    "primary_color": "Orange",
    "secondary_color": "Black",
    "state": "WY",
    "timezone": "America/Denver",
    "updated_at": "2012-07-08T01:58:41Z",
    "zip": "82401"
  },
  {
    "address": "15 Stampede St",
    "city": "Newcastle",
    "county": "Weston County",
    "created_at": "2012-01-04T20:18:27Z",
    "id": 27043,
    "latitude": "43.847571",
    "longitude": "-104.210568",
    "mascot": "Dogies",
    "name": "Newcastle High School",
    "primary_color": "Orange",
    "secondary_color": "Black",
    "state": "WY",
    "timezone": "America/Denver",
    "updated_at": "2012-07-08T01:58:42Z",
    "zip": "82701"
  },
  {
    "address": "710 Pine St",
    "city": "Upton",
    "county": "Weston County",
    "created_at": "2012-01-04T20:18:27Z",
    "id": 27044,
    "latitude": "44.100121",
    "longitude": "-104.625919",
    "mascot": "Bobcats",
    "name": "Upton Senior High School",
    "primary_color": "Royal",
    "secondary_color": "White",
    "state": "WY",
    "timezone": "America/Denver",
    "updated_at": "2012-07-08T01:58:42Z",
    "zip": "82730"
  },
  {
    "address": "701 W Cheyenne Dr",
    "city": "Evanston",
    "county": "Uinta County",
    "created_at": "2012-01-04T20:18:27Z",
    "id": 27045,
    "latitude": "41.256568",
    "longitude": "-110.970656",
    "mascot": "Red Devils",
    "name": "Evanston High School",
    "primary_color": "Royal",
    "secondary_color": "Red",
    "state": "WY",
    "timezone": "America/Denver",
    "updated_at": "2012-07-08T01:58:43Z",
    "zip": "82930"
  },
  {
    "address": "1525 3rd West Ave",
    "city": "Kemmerer",
    "county": "Lincoln County",
    "created_at": "2012-01-04T20:18:27Z",
    "id": 27046,
    "latitude": "41.786166",
    "longitude": "-110.543147",
    "mascot": "Rangers",
    "name": "Kemmerer High School",
    "primary_color": "Red",
    "secondary_color": "Black",
    "state": "WY",
    "timezone": "America/Denver",
    "updated_at": "2012-07-08T01:58:43Z",
    "zip": "83101"
  },
  {
    "address": "1000 E University Dept 3374",
    "city": "Laramie",
    "county": "Albany County",
    "created_at": "2012-01-04T20:18:27Z",
    "id": 27047,
    "latitude": "41.312465",
    "longitude": "-105.586024",
    "mascot": null,
    "name": "University Of Wyoming Lab School",
    "primary_color": null,
    "secondary_color": null,
    "state": "WY",
    "timezone": "America/Denver",
    "updated_at": "2012-07-08T01:58:43Z",
    "zip": "82071"
  },
  {
    "address": "810 S College Dr",
    "city": "Cheyenne",
    "county": "Laramie County",
    "created_at": "2012-01-04T20:18:27Z",
    "id": 27048,
    "latitude": "41.107637",
    "longitude": "-104.770207",
    "mascot": "Lions",
    "name": "Lighthouse Baptist Academy",
    "primary_color": "Black",
    "secondary_color": "Gold",
    "state": "WY",
    "timezone": "America/Denver",
    "updated_at": "2012-07-08T01:58:44Z",
    "zip": "82007"
  },
  {
    "address": "509 S 9th St",
    "city": "Laramie",
    "county": "Albany County",
    "created_at": "2012-01-04T20:18:27Z",
    "id": 27049,
    "latitude": "41.308492",
    "longitude": "-105.585958",
    "mascot": "Wizards",
    "name": "Whiting High School",
    "primary_color": "Purple",
    "secondary_color": "Black",
    "state": "WY",
    "timezone": "America/Denver",
    "updated_at": "2012-07-08T01:58:45Z",
    "zip": "82070"
  },
  {
    "address": "411 Main St",
    "city": "Sundance",
    "county": "Crook County",
    "created_at": "2012-01-04T20:18:27Z",
    "id": 27050,
    "latitude": "44.406307",
    "longitude": "-104.378347",
    "mascot": "Bears",
    "name": "Bear Lodge High School",
    "primary_color": null,
    "secondary_color": null,
    "state": "WY",
    "timezone": "America/Denver",
    "updated_at": "2012-07-08T01:58:45Z",
    "zip": "82729"
  },
  {
    "address": "465 Lincoln",
    "city": "Lander",
    "county": "Fremont County",
    "created_at": "2012-01-04T20:18:27Z",
    "id": 27051,
    "latitude": "42.834872",
    "longitude": "-108.734062",
    "mascot": "Eagles",
    "name": "Sunrise School",
    "primary_color": "Orange",
    "secondary_color": "Red",
    "state": "WY",
    "timezone": "America/Denver",
    "updated_at": "2012-07-08T01:58:45Z",
    "zip": "82520"
  },
  {
    "address": "7905 S Fall Creek Rd",
    "city": "Wilson",
    "county": "Teton County",
    "created_at": "2012-01-04T20:18:27Z",
    "id": 27052,
    "latitude": "43.400890",
    "longitude": "-110.824369",
    "mascot": null,
    "name": "Red Top Meadows School & Residential",
    "primary_color": null,
    "secondary_color": null,
    "state": "WY",
    "timezone": "America/Denver",
    "updated_at": "2012-07-08T01:58:46Z",
    "zip": "83014"
  },
  {
    "address": "404 W Brundage Ln",
    "city": "Sheridan",
    "county": "Sheridan County",
    "created_at": "2012-01-04T20:18:27Z",
    "id": 27053,
    "latitude": "44.773070",
    "longitude": "-106.961709",
    "mascot": null,
    "name": "Three Peaks Christian School",
    "primary_color": "Kelly Green",
    "secondary_color": "White",
    "state": "WY",
    "timezone": "America/Denver",
    "updated_at": "2012-07-08T01:58:46Z",
    "zip": "82801"
  },
  {
    "address": "601 Rohan Ave",
    "city": "Gillette",
    "county": "Campbell County",
    "created_at": "2012-01-04T20:18:27Z",
    "id": 27054,
    "latitude": "44.289012",
    "longitude": "-105.512428",
    "mascot": "Bulldogs",
    "name": "Westwood High School",
    "primary_color": "Teal",
    "secondary_color": "Black",
    "state": "WY",
    "timezone": "America/Denver",
    "updated_at": "2012-07-08T01:58:47Z",
    "zip": "82716"
  },
  {
    "address": "4001 Saunders Blvd",
    "city": "Gillette",
    "county": "Campbell County",
    "created_at": "2012-01-04T20:18:27Z",
    "id": 27055,
    "latitude": "44.258762",
    "longitude": "-105.514499",
    "mascot": "Camels",
    "name": "Campbell County High School South Campus",
    "primary_color": "Gold",
    "secondary_color": "Purple",
    "state": "WY",
    "timezone": "America/Denver",
    "updated_at": "2012-07-08T01:58:48Z",
    "zip": "82718"
  },
  {
    "address": "3411 Cleveland Ave",
    "city": "Cheyenne",
    "county": "Laramie County",
    "created_at": "2012-01-04T20:18:27Z",
    "id": 27056,
    "latitude": "41.147628",
    "longitude": "-104.756428",
    "mascot": null,
    "name": "Noah Webster Christian School",
    "primary_color": null,
    "secondary_color": null,
    "state": "WY",
    "timezone": "America/Denver",
    "updated_at": "2012-07-08T01:58:52Z",
    "zip": "82001"
  }
]