[
  {
    "address": "400 West F St. ",
    "city": "Elmwood",
    "county": "Cass County",
    "created_at": "2012-01-04T20:15:56Z",
    "id": 15251,
    "latitude": "40.843968",
    "longitude": "-96.298496",
    "mascot": "Knights",
    "name": "Elmwood-Murdock Public School",
    "primary_color": "Black",
    "secondary_color": "White",
    "state": "NE",
    "timezone": "America/Chicago",
    "updated_at": "2012-07-08T00:26:57Z",
    "zip": "68349"
  },
  {
    "address": "405 S 7th St",
    "city": "Humphrey",
    "county": "Platte County",
    "created_at": "2012-01-04T20:15:56Z",
    "id": 15252,
    "latitude": "41.688630",
    "longitude": "-97.489546",
    "mascot": "Bulldogs",
    "name": "Humphrey Public School",
    "primary_color": "Red",
    "secondary_color": "White",
    "state": "NE",
    "timezone": "America/Chicago",
    "updated_at": "2012-07-08T00:26:57Z",
    "zip": "68642"
  },
  {
    "address": "Hwy 77 & 75",
    "city": "Winnebago",
    "county": "Dakota County",
    "created_at": "2012-01-04T20:15:56Z",
    "id": 15253,
    "latitude": "42.281135",
    "longitude": "-96.485364",
    "mascot": "Indians",
    "name": "Winnebago Public Schools",
    "primary_color": "Royal",
    "secondary_color": "White",
    "state": "NE",
    "timezone": "America/Chicago",
    "updated_at": "2012-07-08T00:26:58Z",
    "zip": "68071"
  },
  {
    "address": "810 Central Ave Rt 1 Box 31",
    "city": "Humboldt",
    "county": "Richardson County",
    "created_at": "2012-01-04T20:15:56Z",
    "id": 15254,
    "latitude": "40.161422",
    "longitude": "-95.946100",
    "mascot": "Cardinals",
    "name": "Humboldt Public School",
    "primary_color": "Red",
    "secondary_color": "White",
    "state": "NE",
    "timezone": "America/Chicago",
    "updated_at": "2012-07-08T00:26:58Z",
    "zip": "68376"
  },
  {
    "address": "2W6 Rd",
    "city": "Giltner",
    "county": "Sherman County",
    "created_at": "2012-01-04T20:15:56Z",
    "id": 15255,
    "latitude": "41.103343",
    "longitude": "-99.067733",
    "mascot": "Hornets",
    "name": "Giltner School",
    "primary_color": "Orange",
    "secondary_color": "Black",
    "state": "NE",
    "timezone": "America/Chicago",
    "updated_at": "2012-07-08T00:26:58Z",
    "zip": "68844"
  },
  {
    "address": "101 N 4th St",
    "city": "Elgin",
    "county": "Antelope County",
    "created_at": "2012-01-04T20:15:56Z",
    "id": 15256,
    "latitude": "41.984422",
    "longitude": "-98.080931",
    "mascot": "Eagles",
    "name": "Elgin School",
    "primary_color": "Orange",
    "secondary_color": "Black",
    "state": "NE",
    "timezone": "America/Chicago",
    "updated_at": "2012-07-08T00:26:58Z",
    "zip": "68636"
  },
  {
    "address": "9th & Franklin St",
    "city": "Wilber",
    "county": "Saline County",
    "created_at": "2012-01-04T20:15:56Z",
    "id": 15257,
    "latitude": "40.482254",
    "longitude": "-96.962822",
    "mascot": "Wolverines",
    "name": "Wilber-Clatonia High School",
    "primary_color": "Kelly Green",
    "secondary_color": "White",
    "state": "NE",
    "timezone": "America/Chicago",
    "updated_at": "2012-07-08T00:26:59Z",
    "zip": "68465"
  },
  {
    "address": "9405 S Lincoln Ave",
    "city": "Roseland",
    "county": "Adams County",
    "created_at": "2012-01-04T20:15:56Z",
    "id": 15258,
    "latitude": "40.468360",
    "longitude": "-98.558930",
    "mascot": "Mustangs",
    "name": "Silver Lake High School",
    "primary_color": "Gray",
    "secondary_color": "Maroon",
    "state": "NE",
    "timezone": "America/Chicago",
    "updated_at": "2012-07-08T00:26:59Z",
    "zip": "68973"
  },
  {
    "address": "100 Prairie St",
    "city": "Osmond",
    "county": "Pierce County",
    "created_at": "2012-01-04T20:15:56Z",
    "id": 15259,
    "latitude": "42.365558",
    "longitude": "-97.601181",
    "mascot": "Tigers",
    "name": "Osmond Community School",
    "primary_color": "Orange",
    "secondary_color": "Black",
    "state": "NE",
    "timezone": "America/Chicago",
    "updated_at": "2012-07-08T00:27:00Z",
    "zip": "68765"
  },
  {
    "address": "212 S 3rd St",
    "city": "Homer",
    "county": "Dakota County",
    "created_at": "2012-01-04T20:15:56Z",
    "id": 15260,
    "latitude": "42.321440",
    "longitude": "-96.492359",
    "mascot": "Knights",
    "name": "Homer Community School",
    "primary_color": "Red",
    "secondary_color": "Black",
    "state": "NE",
    "timezone": "America/Chicago",
    "updated_at": "2012-07-08T00:27:00Z",
    "zip": "68030"
  },
  {
    "address": "126 E 5th St",
    "city": "Allen",
    "county": "Dixon County",
    "created_at": "2012-01-04T20:15:56Z",
    "id": 15261,
    "latitude": "42.412860",
    "longitude": "-96.841764",
    "mascot": "Eagles",
    "name": "Allen Consolidated School",
    "primary_color": "Gold",
    "secondary_color": "Royal",
    "state": "NE",
    "timezone": "America/Chicago",
    "updated_at": "2012-07-08T00:27:00Z",
    "zip": "68710"
  },
  {
    "address": "109 Thayer St",
    "city": "Spencer",
    "county": "Boyd County",
    "created_at": "2012-01-04T20:15:56Z",
    "id": 15262,
    "latitude": "42.874130",
    "longitude": "-98.701327",
    "mascot": "Pirates",
    "name": "Spencer-Naper Public School",
    "primary_color": "Gold",
    "secondary_color": "Purple",
    "state": "NE",
    "timezone": "America/Chicago",
    "updated_at": "2012-07-08T00:27:00Z",
    "zip": "68777"
  },
  {
    "address": "901 Hoffman St",
    "city": "Lynch",
    "county": "Boyd County",
    "created_at": "2012-01-04T20:15:56Z",
    "id": 15263,
    "latitude": "42.830160",
    "longitude": "-98.470689",
    "mascot": "Eagles",
    "name": "Lynch Public School",
    "primary_color": "Orange",
    "secondary_color": "Black",
    "state": "NE",
    "timezone": "America/Chicago",
    "updated_at": "2012-07-08T00:27:01Z",
    "zip": "68746"
  },
  {
    "address": "3223 N 45th St",
    "city": "Omaha",
    "county": "Douglas County",
    "created_at": "2012-01-04T20:15:56Z",
    "id": 15264,
    "latitude": "41.288005",
    "longitude": "-95.980541",
    "mascot": null,
    "name": "Nebraska School For The Deaf",
    "primary_color": "Orange",
    "secondary_color": "Black",
    "state": "NE",
    "timezone": "America/Chicago",
    "updated_at": "2012-07-08T00:27:01Z",
    "zip": "68104"
  },
  {
    "address": "5612 L St",
    "city": "Omaha",
    "county": "Douglas County",
    "created_at": "2012-01-04T20:15:56Z",
    "id": 15265,
    "latitude": "41.212567",
    "longitude": "-96.000726",
    "mascot": "Eagles",
    "name": "Omaha Christian Academy",
    "primary_color": "Gold",
    "secondary_color": "Royal",
    "state": "NE",
    "timezone": "America/Chicago",
    "updated_at": "2012-07-08T00:27:01Z",
    "zip": "68114"
  },
  {
    "address": "212 S Madison",
    "city": "Brainard",
    "county": "Butler County",
    "created_at": "2012-01-04T20:15:56Z",
    "id": 15266,
    "latitude": "41.182024",
    "longitude": "-97.001666",
    "mascot": "Tigers",
    "name": "East Butler School",
    "primary_color": "Gold",
    "secondary_color": "Maroon",
    "state": "NE",
    "timezone": "America/Chicago",
    "updated_at": "2012-07-08T00:27:02Z",
    "zip": "68626"
  },
  {
    "address": "501 Iowa St",
    "city": "Clearwater",
    "county": "Antelope County",
    "created_at": "2012-01-04T20:15:56Z",
    "id": 15267,
    "latitude": "42.175410",
    "longitude": "-98.192699",
    "mascot": "Cardinals",
    "name": "Clearwater Public Schools",
    "primary_color": "Red",
    "secondary_color": "Black",
    "state": "NE",
    "timezone": "America/Chicago",
    "updated_at": "2012-07-08T00:27:02Z",
    "zip": "68726"
  },
  {
    "address": "201 S A St",
    "city": "Chambers",
    "county": "Holt County",
    "created_at": "2012-01-04T20:15:56Z",
    "id": 15268,
    "latitude": "42.203635",
    "longitude": "-98.750127",
    "mascot": "Coyotes",
    "name": "Chambers Public School",
    "primary_color": "Orange",
    "secondary_color": "White",
    "state": "NE",
    "timezone": "America/Chicago",
    "updated_at": "2012-07-08T00:27:02Z",
    "zip": "68725"
  },
  {
    "address": "1506 Lincoln St",
    "city": "Fort Calhoun",
    "county": "Washington County",
    "created_at": "2012-01-04T20:15:56Z",
    "id": 15269,
    "latitude": "41.462690",
    "longitude": "-96.027629",
    "mascot": "Pioneers",
    "name": "Fort Calhoun High School",
    "primary_color": "Black",
    "secondary_color": "Orange",
    "state": "NE",
    "timezone": "America/Chicago",
    "updated_at": "2012-07-08T00:27:02Z",
    "zip": "68023"
  },
  {
    "address": "72380-560 Ave",
    "city": "Daykin",
    "county": "Jefferson County",
    "created_at": "2012-01-04T20:15:56Z",
    "id": 15270,
    "latitude": "40.306657",
    "longitude": "-97.283939",
    "mascot": "Mustangs",
    "name": "Meridian School",
    "primary_color": "Red",
    "secondary_color": "White",
    "state": "NE",
    "timezone": "America/Chicago",
    "updated_at": "2012-07-08T00:27:03Z",
    "zip": "68338"
  },
  {
    "address": "1609 Redick Ave",
    "city": "Creighton",
    "county": "Knox County",
    "created_at": "2012-01-04T20:15:56Z",
    "id": 15271,
    "latitude": "42.458310",
    "longitude": "-97.906271",
    "mascot": "Bulldogs",
    "name": "Creighton Community School",
    "primary_color": "Red",
    "secondary_color": "Black",
    "state": "NE",
    "timezone": "America/Chicago",
    "updated_at": "2012-07-08T00:27:03Z",
    "zip": "68729"
  },
  {
    "address": "540 E Hynes",
    "city": "O'Neill",
    "county": "Holt County",
    "created_at": "2012-01-04T20:15:56Z",
    "id": 15272,
    "latitude": "42.464978",
    "longitude": "-98.645252",
    "mascot": "Eagles",
    "name": "O'Neill Junior Senior High School",
    "primary_color": "Royal",
    "secondary_color": "White",
    "state": "NE",
    "timezone": "America/Chicago",
    "updated_at": "2012-07-08T00:27:03Z",
    "zip": "68763"
  },
  {
    "address": "204 W O St",
    "city": "Weeping Water",
    "county": "Cass County",
    "created_at": "2012-01-04T20:15:56Z",
    "id": 15273,
    "latitude": "40.865188",
    "longitude": "-96.141417",
    "mascot": "Indians",
    "name": "Weeping Water School",
    "primary_color": "Red",
    "secondary_color": "White",
    "state": "NE",
    "timezone": "America/Chicago",
    "updated_at": "2012-07-08T00:27:03Z",
    "zip": "68463"
  },
  {
    "address": "8404 42nd St",
    "city": "Murray",
    "county": "Cass County",
    "created_at": "2012-01-04T20:15:56Z",
    "id": 15274,
    "latitude": "40.923317",
    "longitude": "-95.978342",
    "mascot": "Cougars",
    "name": "Conestoga High School",
    "primary_color": "Gold",
    "secondary_color": "Red",
    "state": "NE",
    "timezone": "America/Chicago",
    "updated_at": "2012-07-08T00:27:03Z",
    "zip": "68409"
  },
  {
    "address": "202 W 3rd St",
    "city": "Louisville",
    "county": "Cass County",
    "created_at": "2012-01-04T20:15:56Z",
    "id": 15275,
    "latitude": "40.999877",
    "longitude": "-96.162599",
    "mascot": "Lions",
    "name": "Louisville Public School",
    "primary_color": "Gold",
    "secondary_color": "Purple",
    "state": "NE",
    "timezone": "America/Chicago",
    "updated_at": "2012-07-08T00:27:04Z",
    "zip": "68037"
  },
  {
    "address": "405 N Haskell Ave",
    "city": "Arnold",
    "county": "Custer County",
    "created_at": "2012-01-04T20:15:56Z",
    "id": 15276,
    "latitude": "41.425300",
    "longitude": "-100.192389",
    "mascot": "Cardinals",
    "name": "Arnold Public School",
    "primary_color": "Red",
    "secondary_color": "White",
    "state": "NE",
    "timezone": "America/Chicago",
    "updated_at": "2012-07-08T00:27:04Z",
    "zip": "69120"
  },
  {
    "address": "502 1st Ave",
    "city": "Elwood",
    "county": "Gosper County",
    "created_at": "2012-01-04T20:15:56Z",
    "id": 15277,
    "latitude": "40.588177",
    "longitude": "-99.864175",
    "mascot": "Pirates",
    "name": "Elwood Public School",
    "primary_color": "Maroon",
    "secondary_color": "White",
    "state": "NE",
    "timezone": "America/Chicago",
    "updated_at": "2012-07-08T00:27:04Z",
    "zip": "68937"
  },
  {
    "address": "6th & Main St",
    "city": "Stapleton",
    "county": "Logan County",
    "created_at": "2012-01-04T20:15:56Z",
    "id": 15278,
    "latitude": "41.476950",
    "longitude": "-100.513059",
    "mascot": "Broncos",
    "name": "Stapleton Public School",
    "primary_color": "Red",
    "secondary_color": "White",
    "state": "NE",
    "timezone": "America/Chicago",
    "updated_at": "2012-07-08T00:27:05Z",
    "zip": "69163"
  },
  {
    "address": "415 Hwy 30",
    "city": "Maxwell",
    "county": "Lincoln County",
    "created_at": "2012-01-04T20:15:56Z",
    "id": 15279,
    "latitude": "41.080876",
    "longitude": "-100.531052",
    "mascot": "Wildcats",
    "name": "Maxwell Public School",
    "primary_color": "Orange",
    "secondary_color": "Black",
    "state": "NE",
    "timezone": "America/Chicago",
    "updated_at": "2012-07-08T00:27:05Z",
    "zip": "69151"
  },
  {
    "address": "1415 Ave G",
    "city": "Gothenburg",
    "county": "Dawson County",
    "created_at": "2012-01-04T20:15:56Z",
    "id": 15280,
    "latitude": "40.944697",
    "longitude": "-100.153389",
    "mascot": "Swedes",
    "name": "Gothenburg High School",
    "primary_color": "Maroon",
    "secondary_color": "White",
    "state": "NE",
    "timezone": "America/Chicago",
    "updated_at": "2012-07-08T00:27:05Z",
    "zip": "69138"
  },
  {
    "address": "503 School St",
    "city": "Bertrand",
    "county": "Phelps County",
    "created_at": "2012-01-04T20:15:56Z",
    "id": 15281,
    "latitude": "40.522781",
    "longitude": "-99.633652",
    "mascot": "Vikings",
    "name": "Bertrand Community School",
    "primary_color": "Royal",
    "secondary_color": "White",
    "state": "NE",
    "timezone": "America/Chicago",
    "updated_at": "2012-07-08T00:27:06Z",
    "zip": "68927"
  },
  {
    "address": "41750 Carthage Rd",
    "city": "Ravenna",
    "county": "Buffalo County",
    "created_at": "2012-01-04T20:15:56Z",
    "id": 15282,
    "latitude": "41.029314",
    "longitude": "-98.922949",
    "mascot": "Bluejays",
    "name": "Ravenna Senior High School",
    "primary_color": "Royal",
    "secondary_color": "White",
    "state": "NE",
    "timezone": "America/Chicago",
    "updated_at": "2012-07-08T00:27:06Z",
    "zip": "68869"
  },
  {
    "address": "151 N Wallace Rd",
    "city": "Wallace",
    "county": "Lincoln County",
    "created_at": "2012-01-04T20:15:56Z",
    "id": 15283,
    "latitude": "40.839718",
    "longitude": "-101.169932",
    "mascot": "Wildcats",
    "name": "Wallace School",
    "primary_color": "Royal",
    "secondary_color": "White",
    "state": "NE",
    "timezone": "America/Chicago",
    "updated_at": "2012-07-08T00:27:06Z",
    "zip": "69169"
  },
  {
    "address": "318 W D St",
    "city": "Trenton",
    "county": "Hitchcock County",
    "created_at": "2012-01-04T20:15:56Z",
    "id": 15284,
    "latitude": "40.175695",
    "longitude": "-101.020359",
    "mascot": "Falcons",
    "name": "Lakeside Central High School",
    "primary_color": "Purple",
    "secondary_color": "Gray",
    "state": "NE",
    "timezone": "America/Chicago",
    "updated_at": "2012-07-08T00:27:06Z",
    "zip": "69044"
  },
  {
    "address": "600 Daniels",
    "city": "Hayes Center",
    "county": "Hayes County",
    "created_at": "2012-01-04T20:15:56Z",
    "id": 15285,
    "latitude": "40.529200",
    "longitude": "-101.024741",
    "mascot": "Cardinals",
    "name": "Hayes Center School",
    "primary_color": "Red",
    "secondary_color": "White",
    "state": "NE",
    "timezone": "America/Chicago",
    "updated_at": "2012-07-08T00:27:07Z",
    "zip": "69032"
  },
  {
    "address": "416 N Spruce St",
    "city": "Ewing",
    "county": "Holt County",
    "created_at": "2012-01-04T20:15:56Z",
    "id": 15286,
    "latitude": "42.261783",
    "longitude": "-98.343692",
    "mascot": "Tigers",
    "name": "Ewing Public School",
    "primary_color": "Black",
    "secondary_color": "Orange",
    "state": "NE",
    "timezone": "America/Chicago",
    "updated_at": "2012-07-08T00:27:07Z",
    "zip": "68735"
  },
  {
    "address": "13727 Flanagan Blvd",
    "city": "Boys Town",
    "county": "Douglas County",
    "created_at": "2012-01-04T20:15:56Z",
    "id": 15287,
    "latitude": "41.260368",
    "longitude": "-96.128446",
    "mascot": "Cowboys",
    "name": "Boys Town High School",
    "primary_color": "Royal",
    "secondary_color": "White",
    "state": "NE",
    "timezone": "America/Chicago",
    "updated_at": "2012-07-08T00:27:07Z",
    "zip": "68010"
  },
  {
    "address": "1200 Ruby Ave",
    "city": "Grand Island",
    "county": "Hall County",
    "created_at": "2012-01-04T20:15:56Z",
    "id": 15288,
    "latitude": "40.930593",
    "longitude": "-98.363796",
    "mascot": "Crusaders",
    "name": "Central Catholic School",
    "primary_color": "Columbia Blue",
    "secondary_color": "Navy",
    "state": "NE",
    "timezone": "America/Chicago",
    "updated_at": "2012-07-08T00:27:08Z",
    "zip": "68803"
  },
  {
    "address": "6000 A St",
    "city": "Lincoln",
    "county": "Lancaster County",
    "created_at": "2012-01-04T20:15:56Z",
    "id": 15289,
    "latitude": "40.798983",
    "longitude": "-96.638043",
    "mascot": "Thunderbolts",
    "name": "Pius X High School",
    "primary_color": "Kelly Green",
    "secondary_color": "Gold",
    "state": "NE",
    "timezone": "America/Chicago",
    "updated_at": "2012-07-08T00:27:08Z",
    "zip": "68510"
  },
  {
    "address": "5th & Wakefield",
    "city": "Laurel",
    "county": "Cedar County",
    "created_at": "2012-01-04T20:15:56Z",
    "id": 15290,
    "latitude": "42.426090",
    "longitude": "-97.093949",
    "mascot": "Bears",
    "name": "Laurel-Concord High School",
    "primary_color": "Black",
    "secondary_color": "Orange",
    "state": "NE",
    "timezone": "America/Chicago",
    "updated_at": "2012-07-08T00:27:08Z",
    "zip": "68745"
  },
  {
    "address": "301 S Lincoln St",
    "city": "Hershey",
    "county": "Lincoln County",
    "created_at": "2012-01-04T20:15:56Z",
    "id": 15291,
    "latitude": "41.156540",
    "longitude": "-101.002429",
    "mascot": "Panthers",
    "name": "Hershey Public School",
    "primary_color": "Royal",
    "secondary_color": "White",
    "state": "NE",
    "timezone": "America/Chicago",
    "updated_at": "2012-07-08T00:27:09Z",
    "zip": "69143"
  },
  {
    "address": "1010 S 144th St",
    "city": "Omaha",
    "county": "Douglas County",
    "created_at": "2012-01-04T20:15:56Z",
    "id": 15292,
    "latitude": "41.249945",
    "longitude": "-96.138717",
    "mascot": "Mustangs",
    "name": "Millard North High School",
    "primary_color": "Royal",
    "secondary_color": "Gray",
    "state": "NE",
    "timezone": "America/Chicago",
    "updated_at": "2012-07-08T00:27:09Z",
    "zip": "68154"
  },
  {
    "address": "1100 W 14th St",
    "city": "Hastings",
    "county": "Adams County",
    "created_at": "2012-01-04T20:15:56Z",
    "id": 15293,
    "latitude": "40.600813",
    "longitude": "-98.394977",
    "mascot": "Tigers",
    "name": "Hastings Senior High School",
    "primary_color": "Black",
    "secondary_color": "Orange",
    "state": "NE",
    "timezone": "America/Chicago",
    "updated_at": "2012-07-08T00:27:09Z",
    "zip": "68901"
  },
  {
    "address": "12200 Burke Blvd",
    "city": "Omaha",
    "county": "Douglas County",
    "created_at": "2012-01-04T20:15:56Z",
    "id": 15294,
    "latitude": "41.259666",
    "longitude": "-96.104562",
    "mascot": "Bulldogs",
    "name": "Burke Senior High School",
    "primary_color": "Gold",
    "secondary_color": "Black",
    "state": "NE",
    "timezone": "America/Chicago",
    "updated_at": "2012-07-08T00:27:10Z",
    "zip": "68154"
  },
  {
    "address": "4410 N 36th St",
    "city": "Omaha",
    "county": "Douglas County",
    "created_at": "2012-01-04T20:15:56Z",
    "id": 15295,
    "latitude": "41.298711",
    "longitude": "-95.966097",
    "mascot": "Vikings",
    "name": "Omaha North High School",
    "primary_color": "Gold",
    "secondary_color": "Navy",
    "state": "NE",
    "timezone": "America/Chicago",
    "updated_at": "2012-07-08T00:27:10Z",
    "zip": "68111"
  },
  {
    "address": "4519 S 24th St",
    "city": "Omaha",
    "county": "Douglas County",
    "created_at": "2012-01-04T20:15:56Z",
    "id": 15296,
    "latitude": "41.214370",
    "longitude": "-95.947041",
    "mascot": "Bulls",
    "name": "South Senior High School",
    "primary_color": "Red",
    "secondary_color": "White",
    "state": "NE",
    "timezone": "America/Chicago",
    "updated_at": "2012-07-08T00:27:10Z",
    "zip": "68107"
  },
  {
    "address": "1501 9th St",
    "city": "Fairbury",
    "county": "Jefferson County",
    "created_at": "2012-01-04T20:15:56Z",
    "id": 15297,
    "latitude": "40.140488",
    "longitude": "-97.168863",
    "mascot": "Jeffman",
    "name": "Fairbury Junior Senior High School",
    "primary_color": "Gold",
    "secondary_color": "Red",
    "state": "NE",
    "timezone": "America/Chicago",
    "updated_at": "2012-07-08T00:27:10Z",
    "zip": "68352"
  },
  {
    "address": "1000 W 2nd St",
    "city": "North Platte",
    "county": "Lincoln County",
    "created_at": "2012-01-04T20:15:56Z",
    "id": 15298,
    "latitude": "41.136048",
    "longitude": "-100.774903",
    "mascot": "Bulldogs",
    "name": "North Platte High School",
    "primary_color": "Royal",
    "secondary_color": "Gold",
    "state": "NE",
    "timezone": "America/Chicago",
    "updated_at": "2012-07-08T00:27:11Z",
    "zip": "69101"
  },
  {
    "address": "801 Riverside Blvd",
    "city": "Norfolk",
    "county": "Madison County",
    "created_at": "2012-01-04T20:15:56Z",
    "id": 15299,
    "latitude": "42.040306",
    "longitude": "-97.412052",
    "mascot": "Panthers",
    "name": "Norfolk Senior High School",
    "primary_color": "Maroon",
    "secondary_color": "White",
    "state": "NE",
    "timezone": "America/Chicago",
    "updated_at": "2012-07-08T00:27:11Z",
    "zip": "68701"
  },
  {
    "address": "1500 E 15th St",
    "city": "Crete",
    "county": "Saline County",
    "created_at": "2012-01-04T20:15:56Z",
    "id": 15300,
    "latitude": "40.627028",
    "longitude": "-96.944639",
    "mascot": "Cardinals",
    "name": "Crete High School",
    "primary_color": "Red",
    "secondary_color": "White",
    "state": "NE",
    "timezone": "America/Chicago",
    "updated_at": "2012-07-08T00:27:11Z",
    "zip": "68333"
  },
  {
    "address": "1401 High School Dr",
    "city": "Bellevue",
    "county": "Sarpy County",
    "created_at": "2012-01-04T20:15:56Z",
    "id": 15301,
    "latitude": "41.146477",
    "longitude": "-95.906093",
    "mascot": "Chieftains",
    "name": "Bellevue East High School",
    "primary_color": "Purple",
    "secondary_color": "White",
    "state": "NE",
    "timezone": "America/Chicago",
    "updated_at": "2012-07-08T00:27:12Z",
    "zip": "68005"
  },
  {
    "address": "509 Annie St",
    "city": "Newcastle",
    "county": "Dixon County",
    "created_at": "2012-01-04T20:15:56Z",
    "id": 15302,
    "latitude": "42.652368",
    "longitude": "-96.875117",
    "mascot": "Raiders",
    "name": "Newcastle Public School",
    "primary_color": "Red",
    "secondary_color": "White",
    "state": "NE",
    "timezone": "America/Chicago",
    "updated_at": "2012-07-08T00:27:12Z",
    "zip": "68757"
  },
  {
    "address": "2nd & Fremont St",
    "city": "Stuart",
    "county": "Holt County",
    "created_at": "2012-01-04T20:15:56Z",
    "id": 15303,
    "latitude": "42.599380",
    "longitude": "-99.138349",
    "mascot": "Broncos",
    "name": "Stuart Public School",
    "primary_color": "Maroon",
    "secondary_color": "White",
    "state": "NE",
    "timezone": "America/Chicago",
    "updated_at": "2012-07-08T00:27:12Z",
    "zip": "68780"
  },
  {
    "address": "800 N 8th St",
    "city": "Loup City",
    "county": "Sherman County",
    "created_at": "2012-01-04T20:15:56Z",
    "id": 15304,
    "latitude": "41.282405",
    "longitude": "-98.968702",
    "mascot": "Red Raiders",
    "name": "Loup City High School",
    "primary_color": "Red",
    "secondary_color": "Black",
    "state": "NE",
    "timezone": "America/Chicago",
    "updated_at": "2012-07-08T00:27:13Z",
    "zip": "68853"
  },
  {
    "address": "49216 Pearl St",
    "city": "O'Neill",
    "county": "Holt County",
    "created_at": "2012-01-04T20:15:56Z",
    "id": 15305,
    "latitude": "42.480680",
    "longitude": "-98.656792",
    "mascot": "Warriors",
    "name": "Word Of Life Christian School",
    "primary_color": "Maroon",
    "secondary_color": "White",
    "state": "NE",
    "timezone": "America/Chicago",
    "updated_at": "2012-07-08T00:27:13Z",
    "zip": "68763"
  },
  {
    "address": "1100 N 56th St",
    "city": "Lincoln",
    "county": "Lancaster County",
    "created_at": "2012-01-04T20:15:56Z",
    "id": 15306,
    "latitude": "40.824601",
    "longitude": "-96.644109",
    "mascot": "Warriors",
    "name": "Lincoln Lutheran Junior Senior High",
    "primary_color": "Gold",
    "secondary_color": "Royal",
    "state": "NE",
    "timezone": "America/Chicago",
    "updated_at": "2012-07-08T00:27:13Z",
    "zip": "68504"
  },
  {
    "address": "203 Kendall St",
    "city": "Waco",
    "county": "York County",
    "created_at": "2012-01-04T20:15:56Z",
    "id": 15307,
    "latitude": "40.896129",
    "longitude": "-97.459817",
    "mascot": "Knights",
    "name": "Nebraska Lutheran High School",
    "primary_color": "Gold",
    "secondary_color": "Royal",
    "state": "NE",
    "timezone": "America/Chicago",
    "updated_at": "2012-07-08T00:27:13Z",
    "zip": "68460"
  },
  {
    "address": "4400 N 1st St",
    "city": "Lincoln",
    "county": "Lancaster County",
    "created_at": "2012-01-04T20:15:56Z",
    "id": 15308,
    "latitude": "40.852911",
    "longitude": "-96.720288",
    "mascot": "Patriots",
    "name": "Parkview Christian School",
    "primary_color": "Red",
    "secondary_color": "Royal",
    "state": "NE",
    "timezone": "America/Chicago",
    "updated_at": "2012-07-08T00:27:14Z",
    "zip": "68521"
  },
  {
    "address": "310 W Marguerite",
    "city": "Spalding",
    "county": "Greeley County",
    "created_at": "2012-01-04T20:15:56Z",
    "id": 15309,
    "latitude": "41.689788",
    "longitude": "-98.365890",
    "mascot": "Shamrocks",
    "name": "Spalding Academy",
    "primary_color": "Kelly Green",
    "secondary_color": "White",
    "state": "NE",
    "timezone": "America/Chicago",
    "updated_at": "2012-07-08T00:27:14Z",
    "zip": "68665"
  },
  {
    "address": "300 N 4th St",
    "city": "O'Neill",
    "county": "Holt County",
    "created_at": "2012-01-04T20:15:56Z",
    "id": 15310,
    "latitude": "42.460195",
    "longitude": "-98.647872",
    "mascot": "Cardinals",
    "name": "Saint Marys High School",
    "primary_color": "Maroon",
    "secondary_color": "White",
    "state": "NE",
    "timezone": "America/Chicago",
    "updated_at": "2012-07-08T00:27:14Z",
    "zip": "68763"
  },
  {
    "address": "2300 Madison",
    "city": "Norfolk",
    "county": "Madison County",
    "created_at": "2012-01-04T20:15:56Z",
    "id": 15311,
    "latitude": "42.031488",
    "longitude": "-97.440824",
    "mascot": "Knights",
    "name": "Norfolk Catholic Junior Senior High",
    "primary_color": "Red",
    "secondary_color": "White",
    "state": "NE",
    "timezone": "America/Chicago",
    "updated_at": "2012-07-08T00:27:14Z",
    "zip": "68701"
  },
  {
    "address": "412 2nd Ave",
    "city": "Nebraska City",
    "county": "Otoe County",
    "created_at": "2012-01-04T20:15:56Z",
    "id": 15312,
    "latitude": "40.678412",
    "longitude": "-95.850164",
    "mascot": "Knights",
    "name": "Lourdes Central School",
    "primary_color": "Royal",
    "secondary_color": "White",
    "state": "NE",
    "timezone": "America/Chicago",
    "updated_at": "2012-07-08T00:27:15Z",
    "zip": "68410"
  },
  {
    "address": "408 Dayton St",
    "city": "Cedar Rapids",
    "county": "Boone County",
    "created_at": "2012-01-04T20:15:56Z",
    "id": 15313,
    "latitude": "41.561143",
    "longitude": "-98.148002",
    "mascot": "Tigers",
    "name": "Cedar Rapids Public School",
    "primary_color": "Gold",
    "secondary_color": "Maroon",
    "state": "NE",
    "timezone": "America/Chicago",
    "updated_at": "2012-07-08T00:27:15Z",
    "zip": "68627"
  },
  {
    "address": "E Hwy 20",
    "city": "Bassett",
    "county": "Rock County",
    "created_at": "2012-01-04T20:15:56Z",
    "id": 15314,
    "latitude": "42.579500",
    "longitude": "-99.535899",
    "mascot": "Tigers",
    "name": "Rock County High School",
    "primary_color": "Gold",
    "secondary_color": "Purple",
    "state": "NE",
    "timezone": "America/Chicago",
    "updated_at": "2012-07-08T00:27:15Z",
    "zip": "68714"
  },
  {
    "address": "500 N Main St",
    "city": "Litchfield",
    "county": "Sherman County",
    "created_at": "2012-01-04T20:15:56Z",
    "id": 15315,
    "latitude": "41.159527",
    "longitude": "-99.155823",
    "mascot": "Trojans",
    "name": "Litchfield Public School",
    "primary_color": "Orange",
    "secondary_color": "Royal",
    "state": "NE",
    "timezone": "America/Chicago",
    "updated_at": "2012-07-08T00:27:16Z",
    "zip": "68852"
  },
  {
    "address": "411 E Hamilton",
    "city": "Morrill",
    "county": "Scotts Bluff County",
    "created_at": "2012-01-04T20:15:56Z",
    "id": 15316,
    "latitude": "41.965402",
    "longitude": "-103.921956",
    "mascot": "Lions",
    "name": "Morrill Junior Senior High School",
    "primary_color": "Gold",
    "secondary_color": "Royal",
    "state": "NE",
    "timezone": "America/Denver",
    "updated_at": "2012-07-08T00:27:16Z",
    "zip": "69358"
  },
  {
    "address": "200 N Center St",
    "city": "Clay Center",
    "county": "Clay County",
    "created_at": "2012-01-04T20:15:56Z",
    "id": 15317,
    "latitude": "40.522536",
    "longitude": "-98.051544",
    "mascot": "Wildcats",
    "name": "Clay Center Public School",
    "primary_color": "Orange",
    "secondary_color": "Black",
    "state": "NE",
    "timezone": "America/Chicago",
    "updated_at": "2012-07-08T00:27:17Z",
    "zip": "68933"
  },
  {
    "address": "124 S Ash St",
    "city": "Spalding",
    "county": "Greeley County",
    "created_at": "2012-01-04T20:15:56Z",
    "id": 15318,
    "latitude": "41.688240",
    "longitude": "-98.360549",
    "mascot": "Knights",
    "name": "Spalding Public Schools",
    "primary_color": "Gray",
    "secondary_color": "Black",
    "state": "NE",
    "timezone": "America/Chicago",
    "updated_at": "2012-07-08T00:27:17Z",
    "zip": "68665"
  },
  {
    "address": "1820 Fulton St",
    "city": "Falls City",
    "county": "Richardson County",
    "created_at": "2012-01-04T20:15:56Z",
    "id": 15319,
    "latitude": "40.062982",
    "longitude": "-95.595744",
    "mascot": "Fighting Irish Leprechauns",
    "name": "Sacred Heart School",
    "primary_color": "Kelly Green",
    "secondary_color": "White",
    "state": "NE",
    "timezone": "America/Chicago",
    "updated_at": "2012-07-08T00:27:17Z",
    "zip": "68355"
  },
  {
    "address": "504 Main St",
    "city": "Dalton",
    "county": "Cheyenne County",
    "created_at": "2012-01-04T20:15:56Z",
    "id": 15320,
    "latitude": "41.407121",
    "longitude": "-102.971346",
    "mascot": "Warriors",
    "name": "Leyton High School",
    "primary_color": "Gold",
    "secondary_color": "Maroon",
    "state": "NE",
    "timezone": "America/Denver",
    "updated_at": "2012-07-08T00:27:17Z",
    "zip": "69131"
  },
  {
    "address": "521 N Kansas Ave",
    "city": "Hastings",
    "county": "Adams County",
    "created_at": "2012-01-04T20:15:56Z",
    "id": 15321,
    "latitude": "40.588137",
    "longitude": "-98.386154",
    "mascot": "Hawks",
    "name": "Saint Cecilia Middle High School",
    "primary_color": "Royal",
    "secondary_color": "White",
    "state": "NE",
    "timezone": "America/Chicago",
    "updated_at": "2012-07-08T00:27:18Z",
    "zip": "68901"
  },
  {
    "address": "303 Remington St",
    "city": "Elgin",
    "county": "Antelope County",
    "created_at": "2012-01-04T20:15:56Z",
    "id": 15322,
    "latitude": "41.980172",
    "longitude": "-98.082493",
    "mascot": "Crusaders",
    "name": "Pope John XXIII Central High School",
    "primary_color": "Royal",
    "secondary_color": "White",
    "state": "NE",
    "timezone": "America/Chicago",
    "updated_at": "2012-07-08T00:27:18Z",
    "zip": "68636"
  },
  {
    "address": "110 E 35th St",
    "city": "Kearney",
    "county": "Buffalo County",
    "created_at": "2012-01-04T20:15:56Z",
    "id": 15323,
    "latitude": "40.710364",
    "longitude": "-99.079770",
    "mascot": "Stars",
    "name": "Kearney Catholic High School",
    "primary_color": "Kelly Green",
    "secondary_color": "Gold",
    "state": "NE",
    "timezone": "America/Chicago",
    "updated_at": "2012-07-08T00:27:18Z",
    "zip": "68847"
  },
  {
    "address": "3420 MN Rd",
    "city": "David City",
    "county": "Butler County",
    "created_at": "2012-01-04T20:15:56Z",
    "id": 15324,
    "latitude": "41.238412",
    "longitude": "-97.129151",
    "mascot": "Monarchs",
    "name": "Aquinas Middle & High School",
    "primary_color": "Gold",
    "secondary_color": "Black",
    "state": "NE",
    "timezone": "America/Chicago",
    "updated_at": "2012-07-08T00:27:18Z",
    "zip": "68632"
  },
  {
    "address": "401 S Broadway",
    "city": "Hartington",
    "county": "Cedar County",
    "created_at": "2012-01-04T20:15:56Z",
    "id": 15325,
    "latitude": "42.616553",
    "longitude": "-97.264678",
    "mascot": "Trojans",
    "name": "Cedar Catholic High School",
    "primary_color": "Red",
    "secondary_color": "White",
    "state": "NE",
    "timezone": "America/Chicago",
    "updated_at": "2012-07-08T00:27:19Z",
    "zip": "68739"
  },
  {
    "address": "2103 King St",
    "city": "Sidney",
    "county": "Cheyenne County",
    "created_at": "2012-01-04T20:15:56Z",
    "id": 15326,
    "latitude": "41.142487",
    "longitude": "-102.989449",
    "mascot": "Raiders",
    "name": "Sidney Senior High School",
    "primary_color": "Red",
    "secondary_color": "White",
    "state": "NE",
    "timezone": "America/Denver",
    "updated_at": "2012-07-08T00:27:19Z",
    "zip": "69162"
  },
  {
    "address": "419 E Decatur",
    "city": "West Point",
    "county": "Cuming County",
    "created_at": "2012-01-04T20:15:56Z",
    "id": 15327,
    "latitude": "41.842927",
    "longitude": "-96.707736",
    "mascot": "Blue Jays",
    "name": "West Point Central Catholic School",
    "primary_color": "Navy",
    "secondary_color": "White",
    "state": "NE",
    "timezone": "America/Chicago",
    "updated_at": "2012-07-08T00:27:19Z",
    "zip": "68788"
  },
  {
    "address": "545 E 4th",
    "city": "Fremont",
    "county": "Dodge County",
    "created_at": "2012-01-04T20:15:56Z",
    "id": 15328,
    "latitude": "41.432594",
    "longitude": "-96.491817",
    "mascot": "Knights",
    "name": "Archbishop Bergan Catholic School",
    "primary_color": "Kelly Green",
    "secondary_color": "Gold",
    "state": "NE",
    "timezone": "America/Chicago",
    "updated_at": "2012-07-08T00:27:19Z",
    "zip": "68025"
  },
  {
    "address": "6401 Sorensen Pky",
    "city": "Omaha",
    "county": "Douglas County",
    "created_at": "2012-01-04T20:15:56Z",
    "id": 15329,
    "latitude": "41.317552",
    "longitude": "-96.010354",
    "mascot": "Griffins",
    "name": "Roncalli Catholic High School",
    "primary_color": "Gold",
    "secondary_color": "Red",
    "state": "NE",
    "timezone": "America/Chicago",
    "updated_at": "2012-07-08T00:27:20Z",
    "zip": "68152"
  },
  {
    "address": "7400 Western Ave",
    "city": "Omaha",
    "county": "Douglas County",
    "created_at": "2012-01-04T20:15:56Z",
    "id": 15330,
    "latitude": "41.269816",
    "longitude": "-96.026773",
    "mascot": "Blue Jays",
    "name": "Creighton Preparatory School",
    "primary_color": "Royal",
    "secondary_color": "White",
    "state": "NE",
    "timezone": "America/Chicago",
    "updated_at": "2012-07-08T00:27:20Z",
    "zip": "68114"
  },
  {
    "address": "3601 Burt St",
    "city": "Omaha",
    "county": "Douglas County",
    "created_at": "2012-01-04T20:15:56Z",
    "id": 15331,
    "latitude": "41.266845",
    "longitude": "-95.966697",
    "mascot": "Cardinals",
    "name": "Duchesne Academy",
    "primary_color": "Red",
    "secondary_color": "White",
    "state": "NE",
    "timezone": "America/Chicago",
    "updated_at": "2012-07-08T00:27:20Z",
    "zip": "68131"
  },
  {
    "address": "7400 Military Ave",
    "city": "Omaha",
    "county": "Douglas County",
    "created_at": "2012-01-04T20:15:56Z",
    "id": 15332,
    "latitude": "41.299685",
    "longitude": "-96.027666",
    "mascot": "Crusaders",
    "name": "Marian High School",
    "primary_color": "Royal",
    "secondary_color": "White",
    "state": "NE",
    "timezone": "America/Chicago",
    "updated_at": "2012-07-08T00:27:20Z",
    "zip": "68134"
  },
  {
    "address": "1501 S 48th St",
    "city": "Omaha",
    "county": "Douglas County",
    "created_at": "2012-01-04T20:15:56Z",
    "id": 15333,
    "latitude": "41.244867",
    "longitude": "-95.985375",
    "mascot": "Monarchs",
    "name": "Mercy High School",
    "primary_color": "Gold",
    "secondary_color": "Royal",
    "state": "NE",
    "timezone": "America/Chicago",
    "updated_at": "2012-07-08T00:27:21Z",
    "zip": "68106"
  },
  {
    "address": "22520 Mt Michael Rd",
    "city": "Elkhorn",
    "county": "Douglas County",
    "created_at": "2012-01-04T20:15:57Z",
    "id": 15334,
    "latitude": "41.313551",
    "longitude": "-96.269046",
    "mascot": "Knights",
    "name": "Mount Michael Benedictine High School",
    "primary_color": "Black",
    "secondary_color": "Red",
    "state": "NE",
    "timezone": "America/Chicago",
    "updated_at": "2012-07-08T00:27:21Z",
    "zip": "68022"
  },
  {
    "address": "2537 N 62nd St",
    "city": "Omaha",
    "county": "Douglas County",
    "created_at": "2012-01-04T20:15:57Z",
    "id": 15335,
    "latitude": "41.282121",
    "longitude": "-96.008381",
    "mascot": "Mustangs",
    "name": "Madonna School",
    "primary_color": "Royal",
    "secondary_color": "White",
    "state": "NE",
    "timezone": "America/Chicago",
    "updated_at": "2012-07-08T00:27:21Z",
    "zip": "68104"
  },
  {
    "address": "500 S Silber St",
    "city": "North Platte",
    "county": "Lincoln County",
    "created_at": "2012-01-04T20:15:57Z",
    "id": 15336,
    "latitude": "41.129727",
    "longitude": "-100.755727",
    "mascot": "Leprechauns",
    "name": "Saint Patrick Junior Senior High School",
    "primary_color": "Kelly Green",
    "secondary_color": "Gold",
    "state": "NE",
    "timezone": "America/Chicago",
    "updated_at": "2012-07-08T00:27:22Z",
    "zip": "69103"
  },
  {
    "address": "1554 18th Ave",
    "city": "Columbus",
    "county": "Platte County",
    "created_at": "2012-01-04T20:15:57Z",
    "id": 15337,
    "latitude": "41.431644",
    "longitude": "-97.349127",
    "mascot": "Shamrocks",
    "name": "Scotus Central Catholic High School",
    "primary_color": "Kelly Green",
    "secondary_color": "White",
    "state": "NE",
    "timezone": "America/Chicago",
    "updated_at": "2012-07-08T00:27:22Z",
    "zip": "68601"
  },
  {
    "address": "307 S 7th St",
    "city": "Humphrey",
    "county": "Platte County",
    "created_at": "2012-01-04T20:15:57Z",
    "id": 15338,
    "latitude": "41.689606",
    "longitude": "-97.489486",
    "mascot": "Flyers",
    "name": "Saint Francis High School",
    "primary_color": "White",
    "secondary_color": "Royal Blue",
    "state": "NE",
    "timezone": "America/Chicago",
    "updated_at": "2012-07-08T00:27:22Z",
    "zip": "68642"
  },
  {
    "address": "301 Pine St",
    "city": "Lindsay",
    "county": "Platte County",
    "created_at": "2012-01-04T20:15:57Z",
    "id": 15339,
    "latitude": "41.701469",
    "longitude": "-97.693753",
    "mascot": "Bulldogs",
    "name": "Holy Family School",
    "primary_color": "Royal",
    "secondary_color": "White",
    "state": "NE",
    "timezone": "America/Chicago",
    "updated_at": "2012-07-08T00:27:22Z",
    "zip": "68644"
  },
  {
    "address": "7700 S 43rd St",
    "city": "Omaha",
    "county": "Sarpy County",
    "created_at": "2012-01-04T20:15:57Z",
    "id": 15340,
    "latitude": "41.183924",
    "longitude": "-95.979327",
    "mascot": "Cougars",
    "name": "Daniel J Gross Catholic High School",
    "primary_color": "Orange",
    "secondary_color": "Royal",
    "state": "NE",
    "timezone": "America/Chicago",
    "updated_at": "2012-07-08T00:27:23Z",
    "zip": "68147"
  },
  {
    "address": "202 S Linden St",
    "city": "Wahoo",
    "county": "Saunders County",
    "created_at": "2012-01-04T20:15:57Z",
    "id": 15341,
    "latitude": "41.204943",
    "longitude": "-96.618746",
    "mascot": "Neumann Cavaliers",
    "name": "Bishop Neumann Junior Senior High School",
    "primary_color": "Gold",
    "secondary_color": "Red",
    "state": "NE",
    "timezone": "America/Chicago",
    "updated_at": "2012-07-08T00:27:23Z",
    "zip": "68066"
  },
  {
    "address": "2320 N 57th Ste 1",
    "city": "Lincoln",
    "county": "Lancaster County",
    "created_at": "2012-01-04T20:15:57Z",
    "id": 15342,
    "latitude": "40.835535",
    "longitude": "-96.642801",
    "mascot": null,
    "name": "Whitehall School",
    "primary_color": "Gray",
    "secondary_color": "Maroon",
    "state": "NE",
    "timezone": "America/Chicago",
    "updated_at": "2012-07-08T00:27:23Z",
    "zip": "68504"
  },
  {
    "address": "400 N Happy Hollow Blvd",
    "city": "Omaha",
    "county": "Douglas County",
    "created_at": "2012-01-04T20:15:57Z",
    "id": 15343,
    "latitude": "41.262883",
    "longitude": "-95.997674",
    "mascot": "Raiders",
    "name": "Brownell Talbot School",
    "primary_color": "Gold",
    "secondary_color": "Navy",
    "state": "NE",
    "timezone": "America/Chicago",
    "updated_at": "2012-07-08T00:27:23Z",
    "zip": "68132"
  },
  {
    "address": "1847 Inskip Ave",
    "city": "Central City",
    "county": "Merrick County",
    "created_at": "2012-01-04T20:15:57Z",
    "id": 15344,
    "latitude": "41.121170",
    "longitude": "-98.029233",
    "mascot": "Eagles",
    "name": "Nebraska Christian School",
    "primary_color": "Columbia Blue",
    "secondary_color": "White",
    "state": "NE",
    "timezone": "America/Chicago",
    "updated_at": "2012-07-08T00:27:24Z",
    "zip": "68826"
  },
  {
    "address": "5801 S 84th St",
    "city": "Lincoln",
    "county": "Lancaster County",
    "created_at": "2012-01-04T20:15:57Z",
    "id": 15345,
    "latitude": "40.754133",
    "longitude": "-96.606227",
    "mascot": "Crusaders",
    "name": "Lincoln Christian School",
    "primary_color": "Royal",
    "secondary_color": "Red",
    "state": "NE",
    "timezone": "America/Chicago",
    "updated_at": "2012-07-08T00:27:24Z",
    "zip": "68516"
  },
  {
    "address": "5240 Calvert St",
    "city": "Lincoln",
    "county": "Lancaster County",
    "created_at": "2012-01-04T20:15:57Z",
    "id": 15346,
    "latitude": "40.777019",
    "longitude": "-96.648550",
    "mascot": "Eagles",
    "name": "College View Academy",
    "primary_color": "Royal",
    "secondary_color": "White",
    "state": "NE",
    "timezone": "America/Chicago",
    "updated_at": "2012-07-08T00:27:24Z",
    "zip": "68506"
  },
  {
    "address": "5240 Calvert St",
    "city": "Lincoln",
    "county": "Lancaster County",
    "created_at": "2012-01-04T20:15:57Z",
    "id": 15347,
    "latitude": "40.777019",
    "longitude": "-96.648550",
    "mascot": "Eagles",
    "name": "Helen Hyatt SDA School",
    "primary_color": "Gold",
    "secondary_color": "Navy",
    "state": "NE",
    "timezone": "America/Chicago",
    "updated_at": "2012-07-08T00:27:25Z",
    "zip": "68506"
  },
  {
    "address": "401 E Park Ave",
    "city": "Norfolk",
    "county": "Madison County",
    "created_at": "2012-01-04T20:15:57Z",
    "id": 15348,
    "latitude": "42.029196",
    "longitude": "-97.402506",
    "mascot": "Crusaders",
    "name": "Park Avenue Christian School",
    "primary_color": "Royal",
    "secondary_color": "White",
    "state": "NE",
    "timezone": "America/Chicago",
    "updated_at": "2012-07-08T00:27:25Z",
    "zip": "68701"
  },
  {
    "address": "715 Madison Ave",
    "city": "Norfolk",
    "county": "Madison County",
    "created_at": "2012-01-04T20:15:57Z",
    "id": 15349,
    "latitude": "42.031450",
    "longitude": "-97.417096",
    "mascot": null,
    "name": "Keystone Christian Academy",
    "primary_color": null,
    "secondary_color": null,
    "state": "NE",
    "timezone": "America/Chicago",
    "updated_at": "2012-07-08T00:27:25Z",
    "zip": "68701"
  },
  {
    "address": "3009 Golden Blvd",
    "city": "Omaha",
    "county": "Sarpy County",
    "created_at": "2012-01-04T20:15:57Z",
    "id": 15350,
    "latitude": "41.136450",
    "longitude": "-95.957556",
    "mascot": null,
    "name": "Golden Hills SDA School",
    "primary_color": null,
    "secondary_color": null,
    "state": "NE",
    "timezone": "America/Chicago",
    "updated_at": "2012-07-08T00:27:26Z",
    "zip": "68123"
  },
  {
    "address": "9625 S Holstein",
    "city": "Holstein",
    "county": "Adams County",
    "created_at": "2012-01-04T20:15:57Z",
    "id": 15351,
    "latitude": "40.465970",
    "longitude": "-98.648124",
    "mascot": null,
    "name": "Holstein Public School",
    "primary_color": "Purple",
    "secondary_color": "White",
    "state": "NE",
    "timezone": "America/Chicago",
    "updated_at": "2012-07-08T00:27:26Z",
    "zip": "68950"
  },
  {
    "address": "89289 United Rd",
    "city": "Lynch",
    "county": "Boyd County",
    "created_at": "2012-01-04T20:15:57Z",
    "id": 15352,
    "latitude": "42.857148",
    "longitude": "-98.442039",
    "mascot": null,
    "name": "Holt County District 3 School",
    "primary_color": null,
    "secondary_color": null,
    "state": "NE",
    "timezone": "America/Chicago",
    "updated_at": "2012-07-08T00:27:27Z",
    "zip": "68746"
  },
  {
    "address": "101 Football Ave",
    "city": "Springview",
    "county": "Keya Paha County",
    "created_at": "2012-01-04T20:15:57Z",
    "id": 15353,
    "latitude": "42.885510",
    "longitude": "-99.885983",
    "mascot": "Indians",
    "name": "Keya Paha County High School",
    "primary_color": "Red",
    "secondary_color": "White",
    "state": "NE",
    "timezone": "America/Chicago",
    "updated_at": "2012-07-08T00:27:27Z",
    "zip": "68778"
  },
  {
    "address": "PO Box 129",
    "city": "Kenesaw",
    "county": "Adams County",
    "created_at": "2012-01-04T20:15:57Z",
    "id": 15354,
    "latitude": "40.621531",
    "longitude": "-98.663149",
    "mascot": "Blue Devils",
    "name": "Kenesaw School",
    "primary_color": "Royal",
    "secondary_color": "White",
    "state": "NE",
    "timezone": "America/Chicago",
    "updated_at": "2012-07-08T00:27:27Z",
    "zip": "68956"
  },
  {
    "address": "1090 S Adams Central Rd",
    "city": "Hastings",
    "county": "Adams County",
    "created_at": "2012-01-04T20:15:57Z",
    "id": 15355,
    "latitude": "40.569640",
    "longitude": "-98.458934",
    "mascot": "Patriots",
    "name": "Adams Central High School",
    "primary_color": "Red",
    "secondary_color": "Royal",
    "state": "NE",
    "timezone": "America/Chicago",
    "updated_at": "2012-07-08T00:27:27Z",
    "zip": "68901"
  },
  {
    "address": "4th & Rusk",
    "city": "Orchard",
    "county": "Antelope County",
    "created_at": "2012-01-04T20:15:57Z",
    "id": 15356,
    "latitude": "42.337420",
    "longitude": "-98.238099",
    "mascot": "Orioles",
    "name": "Orchard School",
    "primary_color": "Orange",
    "secondary_color": "Black",
    "state": "NE",
    "timezone": "America/Chicago",
    "updated_at": "2012-07-08T00:27:28Z",
    "zip": "68764"
  },
  {
    "address": "100 Marshall St",
    "city": "Arthur",
    "county": "Arthur County",
    "created_at": "2012-01-04T20:15:57Z",
    "id": 15357,
    "latitude": "41.568600",
    "longitude": "-101.684434",
    "mascot": "Wolves",
    "name": "Arthur County High School",
    "primary_color": "Royal",
    "secondary_color": "White",
    "state": "NE",
    "timezone": "America/Denver",
    "updated_at": "2012-07-08T00:27:28Z",
    "zip": "69121"
  },
  {
    "address": "200 School St",
    "city": "Harrisburg",
    "county": "Banner County",
    "created_at": "2012-01-04T20:15:57Z",
    "id": 15358,
    "latitude": "41.559669",
    "longitude": "-103.744402",
    "mascot": "Wildcats",
    "name": "Banner County School",
    "primary_color": "Columbia Blue",
    "secondary_color": "White",
    "state": "NE",
    "timezone": "America/Denver",
    "updated_at": "2012-07-08T00:27:29Z",
    "zip": "69345"
  },
  {
    "address": "601 Clark",
    "city": "Saint Edward",
    "county": "Boone County",
    "created_at": "2012-01-04T20:15:57Z",
    "id": 15359,
    "latitude": "41.570909",
    "longitude": "-97.861872",
    "mascot": "Beavers",
    "name": "Saint Edward School",
    "primary_color": "Maroon",
    "secondary_color": "White",
    "state": "NE",
    "timezone": "America/Chicago",
    "updated_at": "2012-07-08T00:27:29Z",
    "zip": "68660"
  },
  {
    "address": "203 E Widaman",
    "city": "Petersburg",
    "county": "Boone County",
    "created_at": "2012-01-04T20:15:57Z",
    "id": 15360,
    "latitude": "41.851340",
    "longitude": "-98.077599",
    "mascot": "Pirates",
    "name": "Boone Central School",
    "primary_color": "Purple",
    "secondary_color": "White",
    "state": "NE",
    "timezone": "America/Chicago",
    "updated_at": "2012-07-08T00:27:29Z",
    "zip": "68652"
  },
  {
    "address": "1604 Sweetwater Ave",
    "city": "Alliance",
    "county": "Box Butte County",
    "created_at": "2012-01-04T20:15:57Z",
    "id": 15361,
    "latitude": "42.109709",
    "longitude": "-102.868362",
    "mascot": "Bulldogs",
    "name": "Alliance High School",
    "primary_color": "Royal",
    "secondary_color": "White",
    "state": "NE",
    "timezone": "America/Denver",
    "updated_at": "2012-07-08T00:27:29Z",
    "zip": "69301"
  },
  {
    "address": "402 Butte St",
    "city": "Butte",
    "county": "Boyd County",
    "created_at": "2012-01-04T20:15:57Z",
    "id": 15362,
    "latitude": "42.911093",
    "longitude": "-98.844880",
    "mascot": "Wildcats",
    "name": "Butte Public School",
    "primary_color": "Maroon",
    "secondary_color": "White",
    "state": "NE",
    "timezone": "America/Chicago",
    "updated_at": "2012-07-08T00:27:30Z",
    "zip": "68722"
  },
  {
    "address": "520 E 2nd St",
    "city": "Ainsworth",
    "county": "Brown County",
    "created_at": "2012-01-04T20:15:57Z",
    "id": 15363,
    "latitude": "42.546951",
    "longitude": "-99.856312",
    "mascot": "Bulldogs",
    "name": "Ainsworth Community High School",
    "primary_color": "Red",
    "secondary_color": "White",
    "state": "NE",
    "timezone": "America/Chicago",
    "updated_at": "2012-07-08T00:27:31Z",
    "zip": "69210"
  },
  {
    "address": "100 N Sycamore",
    "city": "Amherst",
    "county": "Buffalo County",
    "created_at": "2012-01-04T20:15:57Z",
    "id": 15364,
    "latitude": "40.838348",
    "longitude": "-99.266008",
    "mascot": "Broncos",
    "name": "Amherst School",
    "primary_color": "Gray",
    "secondary_color": "Red",
    "state": "NE",
    "timezone": "America/Chicago",
    "updated_at": "2012-07-08T00:27:31Z",
    "zip": "68812"
  },
  {
    "address": "230 Calkins St",
    "city": "Elm Creek",
    "county": "Buffalo County",
    "created_at": "2012-01-04T20:15:57Z",
    "id": 15365,
    "latitude": "40.719382",
    "longitude": "-99.372499",
    "mascot": "Buffalo",
    "name": "Elm Creek School",
    "primary_color": "Gold",
    "secondary_color": "Navy",
    "state": "NE",
    "timezone": "America/Chicago",
    "updated_at": "2012-07-08T00:27:31Z",
    "zip": "68836"
  },
  {
    "address": "3610 6th Ave",
    "city": "Kearney",
    "county": "Buffalo County",
    "created_at": "2012-01-04T20:15:57Z",
    "id": 15366,
    "latitude": "40.710701",
    "longitude": "-99.089593",
    "mascot": "Bearcats",
    "name": "Kearney Senior High School",
    "primary_color": "Gold",
    "secondary_color": "Royal",
    "state": "NE",
    "timezone": "America/Chicago",
    "updated_at": "2012-07-08T00:27:32Z",
    "zip": "68845"
  },
  {
    "address": "303 Church St",
    "city": "Pleasanton",
    "county": "Buffalo County",
    "created_at": "2012-01-04T20:15:57Z",
    "id": 15367,
    "latitude": "40.969470",
    "longitude": "-99.090759",
    "mascot": "Bulldogs",
    "name": "Pleasanton Public School",
    "primary_color": "Red",
    "secondary_color": "White",
    "state": "NE",
    "timezone": "America/Chicago",
    "updated_at": "2012-07-08T00:27:32Z",
    "zip": "68866"
  },
  {
    "address": "112 N 13th St",
    "city": "Tekamah",
    "county": "Burt County",
    "created_at": "2012-01-04T20:15:57Z",
    "id": 15368,
    "latitude": "41.778413",
    "longitude": "-96.221087",
    "mascot": "Tigers",
    "name": "Tekamah-Herman School",
    "primary_color": "Gold",
    "secondary_color": "Purple",
    "state": "NE",
    "timezone": "America/Chicago",
    "updated_at": "2012-07-08T00:27:32Z",
    "zip": "68061"
  },
  {
    "address": "309 N Davis Ave",
    "city": "Oakland",
    "county": "Burt County",
    "created_at": "2012-01-04T20:15:57Z",
    "id": 15369,
    "latitude": "41.835828",
    "longitude": "-96.464161",
    "mascot": "Knights",
    "name": "Oakland-Craig Junior Senior High School",
    "primary_color": "Orange",
    "secondary_color": "White",
    "state": "NE",
    "timezone": "America/Chicago",
    "updated_at": "2012-07-08T00:27:32Z",
    "zip": "68045"
  },
  {
    "address": "400 E Spruce St",
    "city": "Rising City",
    "county": "Butler County",
    "created_at": "2012-01-04T20:15:57Z",
    "id": 15370,
    "latitude": "41.197408",
    "longitude": "-97.292666",
    "mascot": "Terriers",
    "name": "Rising City School",
    "primary_color": "Royal",
    "secondary_color": "White",
    "state": "NE",
    "timezone": "America/Chicago",
    "updated_at": "2012-07-08T00:27:33Z",
    "zip": "68658"
  },
  {
    "address": "1916 E Hwy 34",
    "city": "Plattsmouth",
    "county": "Cass County",
    "created_at": "2012-01-04T20:15:57Z",
    "id": 15371,
    "latitude": "41.000594",
    "longitude": "-95.904176",
    "mascot": "Blue Devils",
    "name": "Plattsmouth High School",
    "primary_color": "Royal",
    "secondary_color": "White",
    "state": "NE",
    "timezone": "America/Chicago",
    "updated_at": "2012-07-08T00:27:33Z",
    "zip": "68048"
  },
  {
    "address": "203 S Main St",
    "city": "Coleridge",
    "county": "Cedar County",
    "created_at": "2012-01-04T20:15:57Z",
    "id": 15372,
    "latitude": "42.505070",
    "longitude": "-97.203688",
    "mascot": "Bulldogs",
    "name": "Coleridge Community School",
    "primary_color": "White",
    "secondary_color": "Navy",
    "state": "NE",
    "timezone": "America/Chicago",
    "updated_at": "2012-07-08T00:27:33Z",
    "zip": "68727"
  },
  {
    "address": "501 S Broadway",
    "city": "Hartington",
    "county": "Cedar County",
    "created_at": "2012-01-04T20:15:57Z",
    "id": 15373,
    "latitude": "42.615981",
    "longitude": "-97.264682",
    "mascot": "Wildcats",
    "name": "Hartington Public School",
    "primary_color": "Purple",
    "secondary_color": "White",
    "state": "NE",
    "timezone": "America/Chicago",
    "updated_at": "2012-07-08T00:27:33Z",
    "zip": "68739"
  },
  {
    "address": "PO Box 755",
    "city": "Randolph",
    "county": "Cedar County",
    "created_at": "2012-01-04T20:15:57Z",
    "id": 15374,
    "latitude": "42.380770",
    "longitude": "-97.337719",
    "mascot": "Cardinals",
    "name": "Randolph Junior Senior High School",
    "primary_color": "Red",
    "secondary_color": "White",
    "state": "NE",
    "timezone": "America/Chicago",
    "updated_at": "2012-07-08T00:27:34Z",
    "zip": "68771"
  },
  {
    "address": "709 St James Ave",
    "city": "Wynot",
    "county": "Cedar County",
    "created_at": "2012-01-04T20:15:57Z",
    "id": 15375,
    "latitude": "42.742359",
    "longitude": "-97.169380",
    "mascot": "Blue Devils",
    "name": "Wynot Public School",
    "primary_color": "Royal",
    "secondary_color": "White",
    "state": "NE",
    "timezone": "America/Chicago",
    "updated_at": "2012-07-08T00:27:34Z",
    "zip": "68792"
  },
  {
    "address": "520 E 9th St",
    "city": "Imperial",
    "county": "Chase County",
    "created_at": "2012-01-04T20:15:57Z",
    "id": 15376,
    "latitude": "40.519920",
    "longitude": "-101.642830",
    "mascot": "Longhorns",
    "name": "Chase County High School",
    "primary_color": "Orange",
    "secondary_color": "Black",
    "state": "NE",
    "timezone": "America/Denver",
    "updated_at": "2012-07-08T00:27:34Z",
    "zip": "69033"
  },
  {
    "address": "360 W 4th St",
    "city": "Cody",
    "county": "Cherry County",
    "created_at": "2012-01-04T20:15:57Z",
    "id": 15377,
    "latitude": "42.940872",
    "longitude": "-100.957219",
    "mascot": "Cowboys",
    "name": "Cody-Kilgore Junior Senior High School",
    "primary_color": "Black",
    "secondary_color": "Orange",
    "state": "NE",
    "timezone": "America/Denver",
    "updated_at": "2012-07-08T00:27:34Z",
    "zip": "69216"
  },
  {
    "address": "431 N Green St",
    "city": "Valentine",
    "county": "Cherry County",
    "created_at": "2012-01-04T20:15:57Z",
    "id": 15378,
    "latitude": "42.876831",
    "longitude": "-100.539277",
    "mascot": "Badgers",
    "name": "Valentine High School",
    "primary_color": "Red",
    "secondary_color": "White",
    "state": "NE",
    "timezone": "America/Chicago",
    "updated_at": "2012-07-08T00:27:35Z",
    "zip": "69201"
  },
  {
    "address": "30671 Hwy 14",
    "city": "Fairfield",
    "county": "Clay County",
    "created_at": "2012-01-04T20:15:57Z",
    "id": 15379,
    "latitude": "40.437650",
    "longitude": "-98.051419",
    "mascot": "Cougars",
    "name": "Sandy Creek School",
    "primary_color": "Red",
    "secondary_color": "White",
    "state": "NE",
    "timezone": "America/Chicago",
    "updated_at": "2012-07-08T00:27:35Z",
    "zip": "68938"
  },
  {
    "address": "506 E North St",
    "city": "Harvard",
    "county": "Clay County",
    "created_at": "2012-01-04T20:15:57Z",
    "id": 15380,
    "latitude": "40.621417",
    "longitude": "-98.091397",
    "mascot": "Cardinals",
    "name": "Harvard Public School",
    "primary_color": "Red",
    "secondary_color": "White",
    "state": "NE",
    "timezone": "America/Chicago",
    "updated_at": "2012-07-08T00:27:35Z",
    "zip": "68944"
  },
  {
    "address": "1107 N Saunders St",
    "city": "Sutton",
    "county": "Clay County",
    "created_at": "2012-01-04T20:15:57Z",
    "id": 15381,
    "latitude": "40.615609",
    "longitude": "-97.859543",
    "mascot": "Mustangs",
    "name": "Sutton High School",
    "primary_color": "Red",
    "secondary_color": "Black",
    "state": "NE",
    "timezone": "America/Chicago",
    "updated_at": "2012-07-08T00:27:35Z",
    "zip": "68979"
  },
  {
    "address": "511 Miles St",
    "city": "Trumbull",
    "county": "Clay County",
    "created_at": "2012-01-04T20:15:57Z",
    "id": 15382,
    "latitude": "40.678550",
    "longitude": "-98.272439",
    "mascot": "Bear Cats",
    "name": "Trumbull School",
    "primary_color": "Gold",
    "secondary_color": "Black",
    "state": "NE",
    "timezone": "America/Chicago",
    "updated_at": "2012-07-08T00:27:36Z",
    "zip": "68980"
  },
  {
    "address": "649 Cherry St",
    "city": "Clarkson",
    "county": "Colfax County",
    "created_at": "2012-01-04T20:15:57Z",
    "id": 15383,
    "latitude": "41.721671",
    "longitude": "-97.125247",
    "mascot": "Red Devils",
    "name": "Clarkson Public School",
    "primary_color": "Red",
    "secondary_color": "White",
    "state": "NE",
    "timezone": "America/Chicago",
    "updated_at": "2012-07-08T00:27:36Z",
    "zip": "68629"
  },
  {
    "address": "401 Adam St",
    "city": "Schuyler",
    "county": "Colfax County",
    "created_at": "2012-01-04T20:15:57Z",
    "id": 15384,
    "latitude": "41.440673",
    "longitude": "-97.061084",
    "mascot": "Warriors",
    "name": "Schuyler Central High School",
    "primary_color": "Kelly Green",
    "secondary_color": "White",
    "state": "NE",
    "timezone": "America/Chicago",
    "updated_at": "2012-07-08T00:27:36Z",
    "zip": "68661"
  },
  {
    "address": "310 Short St",
    "city": "Leigh",
    "county": "Colfax County",
    "created_at": "2012-01-04T20:15:57Z",
    "id": 15385,
    "latitude": "41.703816",
    "longitude": "-97.234964",
    "mascot": "Panthers",
    "name": "Leigh Community Schools/High",
    "primary_color": "Royal",
    "secondary_color": "White",
    "state": "NE",
    "timezone": "America/Chicago",
    "updated_at": "2012-07-08T00:27:36Z",
    "zip": "68643"
  },
  {
    "address": "417 Center St",
    "city": "Howells",
    "county": "Colfax County",
    "created_at": "2012-01-04T20:15:57Z",
    "id": 15386,
    "latitude": "41.724910",
    "longitude": "-97.004586",
    "mascot": "Bobcats",
    "name": "Howells Public School",
    "primary_color": "Orange",
    "secondary_color": "Black",
    "state": "NE",
    "timezone": "America/Chicago",
    "updated_at": "2012-07-08T00:27:36Z",
    "zip": "68641"
  },
  {
    "address": "1200 E Washington St",
    "city": "West Point",
    "county": "Cuming County",
    "created_at": "2012-01-04T20:15:57Z",
    "id": 15387,
    "latitude": "41.843888",
    "longitude": "-96.698631",
    "mascot": "Cadets",
    "name": "West Point Junior Senior High School",
    "primary_color": "Red",
    "secondary_color": "White",
    "state": "NE",
    "timezone": "America/Chicago",
    "updated_at": "2012-07-08T00:27:37Z",
    "zip": "68788"
  },
  {
    "address": "708 Main St",
    "city": "Bancroft",
    "county": "Cuming County",
    "created_at": "2012-01-04T20:15:57Z",
    "id": 15388,
    "latitude": "42.009521",
    "longitude": "-96.572849",
    "mascot": "Panthers",
    "name": "Bancroft Rosalie Community Schools",
    "primary_color": "Columbia Blue",
    "secondary_color": "Navy",
    "state": "NE",
    "timezone": "America/Chicago",
    "updated_at": "2012-07-08T00:27:37Z",
    "zip": "68004"
  },
  {
    "address": "815 3rd St",
    "city": "Beemer",
    "county": "Cuming County",
    "created_at": "2012-01-04T20:15:57Z",
    "id": 15389,
    "latitude": "41.929824",
    "longitude": "-96.806411",
    "mascot": "Bobcats",
    "name": "Beemer School",
    "primary_color": "Purple",
    "secondary_color": "White",
    "state": "NE",
    "timezone": "America/Chicago",
    "updated_at": "2012-07-08T00:27:37Z",
    "zip": "68716"
  },
  {
    "address": "801 18th St",
    "city": "Wisner",
    "county": "Cuming County",
    "created_at": "2012-01-04T20:15:57Z",
    "id": 15390,
    "latitude": "41.994757",
    "longitude": "-96.922538",
    "mascot": "Gators",
    "name": "Wisner-Pilger Junior Senior High School",
    "primary_color": "Kelly Green",
    "secondary_color": "White",
    "state": "NE",
    "timezone": "America/Chicago",
    "updated_at": "2012-07-08T00:27:41Z",
    "zip": "68791"
  },
  {
    "address": "1124 Cameron St",
    "city": "Ansley",
    "county": "Custer County",
    "created_at": "2012-01-04T20:15:57Z",
    "id": 15391,
    "latitude": "41.283020",
    "longitude": "-99.379039",
    "mascot": "Warriors",
    "name": "Ansley School",
    "primary_color": "Navy",
    "secondary_color": "White",
    "state": "NE",
    "timezone": "America/Chicago",
    "updated_at": "2012-07-08T00:27:41Z",
    "zip": "68814"
  },
  {
    "address": "323 N 7th Ave",
    "city": "Broken Bow",
    "county": "Custer County",
    "created_at": "2012-01-04T20:15:57Z",
    "id": 15392,
    "latitude": "41.407527",
    "longitude": "-99.638204",
    "mascot": "Indians",
    "name": "Broken Bow High School",
    "primary_color": "Red",
    "secondary_color": "White",
    "state": "NE",
    "timezone": "America/Chicago",
    "updated_at": "2012-07-08T00:27:41Z",
    "zip": "68822"
  },
  {
    "address": "101 N Needham",
    "city": "Callaway",
    "county": "Custer County",
    "created_at": "2012-01-04T20:15:57Z",
    "id": 15393,
    "latitude": "41.290927",
    "longitude": "-99.919852",
    "mascot": "Bears",
    "name": "Callaway School",
    "primary_color": "Gold",
    "secondary_color": "Maroon",
    "state": "NE",
    "timezone": "America/Chicago",
    "updated_at": "2012-07-08T00:27:42Z",
    "zip": "68825"
  },
  {
    "address": "3301 G St",
    "city": "South Sioux City",
    "county": "Dakota County",
    "created_at": "2012-01-04T20:15:57Z",
    "id": 15394,
    "latitude": "42.458857",
    "longitude": "-96.404217",
    "mascot": "Cardinals",
    "name": "South Sioux City Senior High School",
    "primary_color": "Red",
    "secondary_color": "White",
    "state": "NE",
    "timezone": "America/Chicago",
    "updated_at": "2012-07-08T00:27:42Z",
    "zip": "68776"
  },
  {
    "address": "901 Cedar ",
    "city": "Chadron",
    "county": "Dawes County",
    "created_at": "2012-01-04T20:15:57Z",
    "id": 15395,
    "latitude": "42.821883",
    "longitude": "-102.993482",
    "mascot": "Cardinals",
    "name": "Chadron High School",
    "primary_color": "Red",
    "secondary_color": "Black",
    "state": "NE",
    "timezone": "America/Denver",
    "updated_at": "2012-07-08T00:27:42Z",
    "zip": "69337"
  },
  {
    "address": "1710 Meridian St",
    "city": "Cozad",
    "county": "Dawson County",
    "created_at": "2012-01-04T20:15:57Z",
    "id": 15396,
    "latitude": "40.867884",
    "longitude": "-99.986169",
    "mascot": "Haymakers",
    "name": "Cozad Senior High School",
    "primary_color": "Red",
    "secondary_color": "Black",
    "state": "NE",
    "timezone": "America/Chicago",
    "updated_at": "2012-07-08T00:27:42Z",
    "zip": "69130"
  },
  {
    "address": "205 E 5th Ave",
    "city": "Sumner",
    "county": "Dawson County",
    "created_at": "2012-01-04T20:15:57Z",
    "id": 15397,
    "latitude": "40.949878",
    "longitude": "-99.506549",
    "mascot": "Mustangs",
    "name": "Sumner-Eddyville-Miller School",
    "primary_color": "Gold",
    "secondary_color": "Purple",
    "state": "NE",
    "timezone": "America/Chicago",
    "updated_at": "2012-07-08T00:27:43Z",
    "zip": "68878"
  },
  {
    "address": "401 7th St",
    "city": "Overton",
    "county": "Dawson County",
    "created_at": "2012-01-04T20:15:57Z",
    "id": 15398,
    "latitude": "40.740612",
    "longitude": "-99.539816",
    "mascot": "Eagles",
    "name": "Overton School",
    "primary_color": "Royal Blue",
    "secondary_color": "Black",
    "state": "NE",
    "timezone": "America/Chicago",
    "updated_at": "2012-07-08T00:27:43Z",
    "zip": "68863"
  },
  {
    "address": "705 W 13th St",
    "city": "Lexington",
    "county": "Dawson County",
    "created_at": "2012-01-04T20:15:57Z",
    "id": 15399,
    "latitude": "40.786697",
    "longitude": "-99.752392",
    "mascot": "Minutemen",
    "name": "Lexington Senior High School",
    "primary_color": "Orange",
    "secondary_color": "Black",
    "state": "NE",
    "timezone": "America/Chicago",
    "updated_at": "2012-07-08T00:27:43Z",
    "zip": "68850"
  },
  {
    "address": "410 Plum St",
    "city": "Big Springs",
    "county": "Deuel County",
    "created_at": "2012-01-04T20:15:57Z",
    "id": 15400,
    "latitude": "41.064140",
    "longitude": "-102.068989",
    "mascot": "Knights",
    "name": "South Platte Public School",
    "primary_color": "Gold",
    "secondary_color": "Royal",
    "state": "NE",
    "timezone": "America/Denver",
    "updated_at": "2012-07-08T00:27:44Z",
    "zip": "69122"
  },
  {
    "address": "3rd & Washington",
    "city": "Chappell",
    "county": "Deuel County",
    "created_at": "2012-01-04T20:15:57Z",
    "id": 15401,
    "latitude": "41.093660",
    "longitude": "-102.462649",
    "mascot": "Buffalo",
    "name": "Chappell Junior Senior High School",
    "primary_color": "Orange",
    "secondary_color": "Black",
    "state": "NE",
    "timezone": "America/Denver",
    "updated_at": "2012-07-08T00:27:44Z",
    "zip": "69129"
  },
  {
    "address": "1504 Dakota St",
    "city": "Emerson",
    "county": "Thurston County",
    "created_at": "2012-01-04T20:15:57Z",
    "id": 15402,
    "latitude": "42.272846",
    "longitude": "-96.725130",
    "mascot": "Pirates",
    "name": "Emerson-Hubbard Junior Senior High",
    "primary_color": "Gold",
    "secondary_color": "Purple",
    "state": "NE",
    "timezone": "America/Chicago",
    "updated_at": "2012-07-08T00:27:44Z",
    "zip": "68733"
  },
  {
    "address": "505 3rd St",
    "city": "Ponca",
    "county": "Dixon County",
    "created_at": "2012-01-04T20:15:57Z",
    "id": 15403,
    "latitude": "42.563452",
    "longitude": "-96.711581",
    "mascot": "Indians",
    "name": "Ponca School",
    "primary_color": "Royal",
    "secondary_color": "White",
    "state": "NE",
    "timezone": "America/Chicago",
    "updated_at": "2012-07-08T00:27:44Z",
    "zip": "68770"
  },
  {
    "address": "14th & Walnut St",
    "city": "North Bend",
    "county": "Dodge County",
    "created_at": "2012-01-04T20:15:57Z",
    "id": 15404,
    "latitude": "41.469330",
    "longitude": "-96.785259",
    "mascot": "Tigers",
    "name": "North Bend Central Junior Senior High",
    "primary_color": "Orange",
    "secondary_color": "Black",
    "state": "NE",
    "timezone": "America/Chicago",
    "updated_at": "2012-07-08T00:27:45Z",
    "zip": "68649"
  },
  {
    "address": "209 Ash St.",
    "city": "Dodge",
    "county": "Dodge County",
    "created_at": "2012-01-04T20:15:57Z",
    "id": 15405,
    "latitude": "41.724881",
    "longitude": "-96.878869",
    "mascot": "Pirates",
    "name": "Dodge School",
    "primary_color": "Royal",
    "secondary_color": "White",
    "state": "NE",
    "timezone": "America/Chicago",
    "updated_at": "2012-07-08T00:27:46Z",
    "zip": "68633"
  },
  {
    "address": "1750 N Lincoln Ave",
    "city": "Fremont",
    "county": "Dodge County",
    "created_at": "2012-01-04T20:15:57Z",
    "id": 15406,
    "latitude": "41.445113",
    "longitude": "-96.477994",
    "mascot": "Tigers",
    "name": "Fremont High School",
    "primary_color": "Gold",
    "secondary_color": "Black",
    "state": "NE",
    "timezone": "America/Chicago",
    "updated_at": "2012-07-08T00:27:46Z",
    "zip": "68025"
  },
  {
    "address": "2163 County Rd G",
    "city": "Hooper",
    "county": "Dodge County",
    "created_at": "2012-01-04T20:15:57Z",
    "id": 15407,
    "latitude": "41.654428",
    "longitude": "-96.509761",
    "mascot": "Raiders",
    "name": "Logan View Junior Senior High School",
    "primary_color": "Gold",
    "secondary_color": "Royal",
    "state": "NE",
    "timezone": "America/Chicago",
    "updated_at": "2012-07-08T00:27:46Z",
    "zip": "68031"
  },
  {
    "address": "711 Veterans Dr",
    "city": "Elkhorn",
    "county": "Douglas County",
    "created_at": "2012-01-04T20:15:57Z",
    "id": 15408,
    "latitude": "41.271481",
    "longitude": "-96.230637",
    "mascot": "Antlers",
    "name": "Elkhorn High School",
    "primary_color": "Red",
    "secondary_color": "White",
    "state": "NE",
    "timezone": "America/Chicago",
    "updated_at": "2012-07-08T00:27:46Z",
    "zip": "68022"
  },
  {
    "address": "14905 Q St",
    "city": "Omaha",
    "county": "Douglas County",
    "created_at": "2012-01-04T20:15:57Z",
    "id": 15409,
    "latitude": "41.205372",
    "longitude": "-96.144361",
    "mascot": "Patriots",
    "name": "Millard South High School",
    "primary_color": "Red",
    "secondary_color": "White",
    "state": "NE",
    "timezone": "America/Chicago",
    "updated_at": "2012-07-08T00:27:47Z",
    "zip": "68137"
  },
  {
    "address": "401 S Pine St",
    "city": "Valley",
    "county": "Douglas County",
    "created_at": "2012-01-04T20:15:57Z",
    "id": 15410,
    "latitude": "41.309689",
    "longitude": "-96.343940",
    "mascot": "Terriers",
    "name": "Valley High School",
    "primary_color": "Gold",
    "secondary_color": "Purple",
    "state": "NE",
    "timezone": "America/Chicago",
    "updated_at": "2012-07-08T00:27:47Z",
    "zip": "68064"
  },
  {
    "address": "5120 Maple St",
    "city": "Omaha",
    "county": "Douglas County",
    "created_at": "2012-01-04T20:15:57Z",
    "id": 15411,
    "latitude": "41.284989",
    "longitude": "-95.993286",
    "mascot": "Bunnies",
    "name": "Benson High School",
    "primary_color": "Kelly Green",
    "secondary_color": "White",
    "state": "NE",
    "timezone": "America/Chicago",
    "updated_at": "2012-07-08T00:27:47Z",
    "zip": "68104"
  },
  {
    "address": "4700 Giles Rd",
    "city": "Omaha",
    "county": "Sarpy County",
    "created_at": "2012-01-04T20:15:57Z",
    "id": 15412,
    "latitude": "41.176275",
    "longitude": "-95.984537",
    "mascot": "Bears",
    "name": "Bryan High School",
    "primary_color": "Gold",
    "secondary_color": "Hunter Green",
    "state": "NE",
    "timezone": "America/Chicago",
    "updated_at": "2012-07-08T00:27:47Z",
    "zip": "68157"
  },
  {
    "address": "124 N 20th St",
    "city": "Omaha",
    "county": "Douglas County",
    "created_at": "2012-01-04T20:15:57Z",
    "id": 15413,
    "latitude": "41.259958",
    "longitude": "-95.942396",
    "mascot": "Eagles",
    "name": "Omaha Central High School",
    "primary_color": "Purple",
    "secondary_color": "White",
    "state": "NE",
    "timezone": "America/Chicago",
    "updated_at": "2012-07-08T00:27:48Z",
    "zip": "68102"
  },
  {
    "address": "3260 Davenport St",
    "city": "Omaha",
    "county": "Douglas County",
    "created_at": "2012-01-04T20:15:57Z",
    "id": 15414,
    "latitude": "41.261720",
    "longitude": "-95.961068",
    "mascot": "Yellow Jackets",
    "name": "Yates School",
    "primary_color": "Ash Grey",
    "secondary_color": "Black",
    "state": "NE",
    "timezone": "America/Chicago",
    "updated_at": "2012-07-08T00:27:48Z",
    "zip": "68131"
  },
  {
    "address": "8204 Crown Point Ave",
    "city": "Omaha",
    "county": "Douglas County",
    "created_at": "2012-01-04T20:15:57Z",
    "id": 15415,
    "latitude": "41.312738",
    "longitude": "-96.040184",
    "mascot": "Huskies",
    "name": "Omaha Northwest High School",
    "primary_color": "Red",
    "secondary_color": "Navy",
    "state": "NE",
    "timezone": "America/Chicago",
    "updated_at": "2012-07-08T00:27:49Z",
    "zip": "68134"
  },
  {
    "address": "8969 Park Dr",
    "city": "Ralston",
    "county": "Douglas County",
    "created_at": "2012-01-04T20:15:57Z",
    "id": 15416,
    "latitude": "41.201494",
    "longitude": "-96.051429",
    "mascot": "Rams",
    "name": "Ralston High School",
    "primary_color": "Columbia Blue",
    "secondary_color": "Red",
    "state": "NE",
    "timezone": "America/Chicago",
    "updated_at": "2012-07-08T00:27:49Z",
    "zip": "68127"
  },
  {
    "address": "8701 Pacific",
    "city": "Omaha",
    "county": "Douglas County",
    "created_at": "2012-01-04T20:15:57Z",
    "id": 15417,
    "latitude": "41.248792",
    "longitude": "-96.048778",
    "mascot": "Warriors",
    "name": "Westside High School",
    "primary_color": "Red",
    "secondary_color": "Black",
    "state": "NE",
    "timezone": "America/Chicago",
    "updated_at": "2012-07-08T00:27:49Z",
    "zip": "68114"
  },
  {
    "address": "400 9th Ave W",
    "city": "Benkelman",
    "county": "Dundy County",
    "created_at": "2012-01-04T20:15:58Z",
    "id": 15418,
    "latitude": "40.052167",
    "longitude": "-101.537155",
    "mascot": "Tigers",
    "name": "Dundy County High School",
    "primary_color": "Maroon",
    "secondary_color": "White",
    "state": "NE",
    "timezone": "America/Denver",
    "updated_at": "2012-07-08T00:27:49Z",
    "zip": "69021"
  },
  {
    "address": "318 S River Ave",
    "city": "Exeter",
    "county": "Fillmore County",
    "created_at": "2012-01-04T20:15:58Z",
    "id": 15419,
    "latitude": "40.643013",
    "longitude": "-97.446031",
    "mascot": "Eagles",
    "name": "Exeter School",
    "primary_color": "Maroon",
    "secondary_color": "White",
    "state": "NE",
    "timezone": "America/Chicago",
    "updated_at": "2012-07-08T00:27:50Z",
    "zip": "68351"
  },
  {
    "address": "1410 L St",
    "city": "Geneva",
    "county": "Fillmore County",
    "created_at": "2012-01-04T20:15:58Z",
    "id": 15420,
    "latitude": "40.532228",
    "longitude": "-97.593685",
    "mascot": "Panthers",
    "name": "Fillmore Central High School",
    "primary_color": "Black",
    "secondary_color": "Purple",
    "state": "NE",
    "timezone": "America/Chicago",
    "updated_at": "2012-07-08T00:27:50Z",
    "zip": "68361"
  },
  {
    "address": "502 N 9th St",
    "city": "Milligan",
    "county": "Fillmore County",
    "created_at": "2012-01-04T20:15:58Z",
    "id": 15421,
    "latitude": "40.503935",
    "longitude": "-97.386959",
    "mascot": "Roosters",
    "name": "Milligan School",
    "primary_color": "Purple",
    "secondary_color": "White",
    "state": "NE",
    "timezone": "America/Chicago",
    "updated_at": "2012-07-08T00:27:50Z",
    "zip": "68406"
  },
  {
    "address": "104 E Murray",
    "city": "Shickley",
    "county": "Fillmore County",
    "created_at": "2012-01-04T20:15:58Z",
    "id": 15422,
    "latitude": "40.418230",
    "longitude": "-97.725294",
    "mascot": "Longhorns",
    "name": "Shickley Public School",
    "primary_color": "Kelly Green",
    "secondary_color": "White",
    "state": "NE",
    "timezone": "America/Chicago",
    "updated_at": "2012-07-08T00:27:51Z",
    "zip": "68436"
  },
  {
    "address": "1001 M St",
    "city": "Franklin",
    "county": "Franklin County",
    "created_at": "2012-01-04T20:15:58Z",
    "id": 15423,
    "latitude": "40.097351",
    "longitude": "-98.960890",
    "mascot": "Flyers",
    "name": "Franklin School",
    "primary_color": "Red",
    "secondary_color": "Black",
    "state": "NE",
    "timezone": "America/Chicago",
    "updated_at": "2012-07-08T00:27:51Z",
    "zip": "68939"
  },
  {
    "address": "W 4th & Crook",
    "city": "Curtis",
    "county": "Frontier County",
    "created_at": "2012-01-04T20:15:58Z",
    "id": 15424,
    "latitude": "40.632130",
    "longitude": "-100.522179",
    "mascot": "Raiders",
    "name": "Medicine Valley Junior Senior High",
    "primary_color": "Red",
    "secondary_color": "Royal",
    "state": "NE",
    "timezone": "America/Chicago",
    "updated_at": "2012-07-08T00:27:51Z",
    "zip": "69025"
  },
  {
    "address": "504 N Ingalls",
    "city": "Eustis",
    "county": "Frontier County",
    "created_at": "2012-01-04T20:15:58Z",
    "id": 15425,
    "latitude": "40.666477",
    "longitude": "-100.026330",
    "mascot": "Knights",
    "name": "Eustis-Farnam Public School",
    "primary_color": "Black",
    "secondary_color": "White",
    "state": "NE",
    "timezone": "America/Chicago",
    "updated_at": "2012-07-08T00:27:51Z",
    "zip": "69028"
  },
  {
    "address": "1 Tiger Dr",
    "city": "Maywood",
    "county": "Frontier County",
    "created_at": "2012-01-04T20:15:58Z",
    "id": 15426,
    "latitude": "40.549273",
    "longitude": "-100.651596",
    "mascot": "Tigers",
    "name": "Maywood School",
    "primary_color": "Orange",
    "secondary_color": "Black",
    "state": "NE",
    "timezone": "America/Chicago",
    "updated_at": "2012-07-08T00:27:52Z",
    "zip": "69038"
  },
  {
    "address": "610 Walnut St",
    "city": "Arapahoe",
    "county": "Furnas County",
    "created_at": "2012-01-04T20:15:58Z",
    "id": 15427,
    "latitude": "40.308404",
    "longitude": "-99.897975",
    "mascot": "Warriors",
    "name": "Arapahoe Public School",
    "primary_color": "Royal",
    "secondary_color": "White",
    "state": "NE",
    "timezone": "America/Chicago",
    "updated_at": "2012-07-08T00:27:52Z",
    "zip": "68922"
  },
  {
    "address": "1003 Nelson",
    "city": "Cambridge",
    "county": "Furnas County",
    "created_at": "2012-01-04T20:15:58Z",
    "id": 15428,
    "latitude": "40.282928",
    "longitude": "-100.173574",
    "mascot": "Trojans",
    "name": "Cambridge School",
    "primary_color": "Orange",
    "secondary_color": "Red",
    "state": "NE",
    "timezone": "America/Chicago",
    "updated_at": "2012-07-08T00:27:52Z",
    "zip": "69022"
  },
  {
    "address": "600 Orange Blvd",
    "city": "Beatrice",
    "county": "Gage County",
    "created_at": "2012-01-04T20:15:58Z",
    "id": 15429,
    "latitude": "40.262557",
    "longitude": "-96.711451",
    "mascot": "Orangemen And Lady O's",
    "name": "Beatrice Senior High School",
    "primary_color": "Orange",
    "secondary_color": "Black",
    "state": "NE",
    "timezone": "America/Chicago",
    "updated_at": "2012-07-08T00:27:52Z",
    "zip": "68310"
  },
  {
    "address": "510 Elk St",
    "city": "Beatrice",
    "county": "Gage County",
    "created_at": "2012-01-04T20:15:58Z",
    "id": 15430,
    "latitude": "40.267938",
    "longitude": "-96.746540",
    "mascot": null,
    "name": "Beatrice Junior High School",
    "primary_color": "Orange",
    "secondary_color": "Black",
    "state": "NE",
    "timezone": "America/Chicago",
    "updated_at": "2012-07-08T00:27:52Z",
    "zip": "68310"
  },
  {
    "address": "506 Perry St",
    "city": "Odell",
    "county": "Gage County",
    "created_at": "2012-01-04T20:15:58Z",
    "id": 15431,
    "latitude": "40.053296",
    "longitude": "-96.803179",
    "mascot": "Griffins",
    "name": "Diller-Odell High School",
    "primary_color": "Orange",
    "secondary_color": "Black",
    "state": "NE",
    "timezone": "America/Chicago",
    "updated_at": "2012-07-08T00:27:53Z",
    "zip": "68415"
  },
  {
    "address": "115 S 11th St",
    "city": "Wymore",
    "county": "Gage County",
    "created_at": "2012-01-04T20:15:58Z",
    "id": 15432,
    "latitude": "40.122114",
    "longitude": "-96.667605",
    "mascot": "Raiders",
    "name": "Southern Public School",
    "primary_color": "Red",
    "secondary_color": "Black",
    "state": "NE",
    "timezone": "America/Chicago",
    "updated_at": "2012-07-08T00:27:53Z",
    "zip": "68466"
  },
  {
    "address": "PO Box 230",
    "city": "Oshkosh",
    "county": "Garden County",
    "created_at": "2012-01-04T20:15:58Z",
    "id": 15433,
    "latitude": "41.613901",
    "longitude": "-102.338174",
    "mascot": "Eagles",
    "name": "Garden County High School",
    "primary_color": "Kelly Green",
    "secondary_color": "Purple",
    "state": "NE",
    "timezone": "America/Denver",
    "updated_at": "2012-07-08T00:27:53Z",
    "zip": "69154"
  },
  {
    "address": "190 I St",
    "city": "Burwell",
    "county": "Garfield County",
    "created_at": "2012-01-04T20:15:58Z",
    "id": 15434,
    "latitude": "41.779560",
    "longitude": "-99.130649",
    "mascot": "Longhorns",
    "name": "Burwell Junior Senior High School",
    "primary_color": "Purple",
    "secondary_color": "White",
    "state": "NE",
    "timezone": "America/Chicago",
    "updated_at": "2012-07-08T00:27:54Z",
    "zip": "68823"
  },
  {
    "address": "PO Box 286",
    "city": "Hyannis",
    "county": "Grant County",
    "created_at": "2012-01-04T20:15:58Z",
    "id": 15435,
    "latitude": "41.922153",
    "longitude": "-101.798309",
    "mascot": "Longhorns",
    "name": "Hyannis High School",
    "primary_color": "Royal",
    "secondary_color": "White",
    "state": "NE",
    "timezone": "America/Denver",
    "updated_at": "2012-07-08T00:27:54Z",
    "zip": "69350"
  },
  {
    "address": "203 N Kildare",
    "city": "Greeley",
    "county": "Greeley County",
    "created_at": "2012-01-04T20:15:58Z",
    "id": 15436,
    "latitude": "41.546900",
    "longitude": "-98.530775",
    "mascot": "Bulldogs",
    "name": "Greeley Public School",
    "primary_color": "Red",
    "secondary_color": "White",
    "state": "NE",
    "timezone": "America/Chicago",
    "updated_at": "2012-07-08T00:27:54Z",
    "zip": "68842"
  },
  {
    "address": "204 Blaine Ave",
    "city": "Scotia",
    "county": "Greeley County",
    "created_at": "2012-01-04T20:15:58Z",
    "id": 15437,
    "latitude": "41.468260",
    "longitude": "-98.702589",
    "mascot": "Wildcats",
    "name": "North Loup-Scotia Junior Senior High",
    "primary_color": "Black",
    "secondary_color": "White",
    "state": "NE",
    "timezone": "America/Chicago",
    "updated_at": "2012-07-08T00:27:54Z",
    "zip": "68875"
  },
  {
    "address": "610 Kingston Ave",
    "city": "Wolbach",
    "county": "Greeley County",
    "created_at": "2012-01-04T20:15:58Z",
    "id": 15438,
    "latitude": "41.459685",
    "longitude": "-98.405757",
    "mascot": "Mustangs",
    "name": "Wolbach Public School",
    "primary_color": "Royal",
    "secondary_color": "White",
    "state": "NE",
    "timezone": "America/Chicago",
    "updated_at": "2012-07-08T00:27:55Z",
    "zip": "68882"
  },
  {
    "address": "302 W Plum",
    "city": "Doniphan",
    "county": "Hall County",
    "created_at": "2012-01-04T20:15:58Z",
    "id": 15439,
    "latitude": "40.772018",
    "longitude": "-98.372508",
    "mascot": "Cardinals",
    "name": "Doniphan School",
    "primary_color": "Red",
    "secondary_color": "White",
    "state": "NE",
    "timezone": "America/Chicago",
    "updated_at": "2012-07-08T00:27:55Z",
    "zip": "68832"
  },
  {
    "address": "2124 N Lafayette",
    "city": "Grand Island",
    "county": "Hall County",
    "created_at": "2012-01-04T20:15:58Z",
    "id": 15440,
    "latitude": "40.927950",
    "longitude": "-98.392697",
    "mascot": "Islanders",
    "name": "Grand Island Senior High School",
    "primary_color": "Gold",
    "secondary_color": "Purple",
    "state": "NE",
    "timezone": "America/Chicago",
    "updated_at": "2012-07-08T00:27:55Z",
    "zip": "68803"
  },
  {
    "address": "13800 W Wood River Rd",
    "city": "Wood River",
    "county": "Hall County",
    "created_at": "2012-01-04T20:15:58Z",
    "id": 15441,
    "latitude": "40.829678",
    "longitude": "-98.602383",
    "mascot": "Eagles",
    "name": "Wood River Junior Senior High School",
    "primary_color": "Purple",
    "secondary_color": "White",
    "state": "NE",
    "timezone": "America/Chicago",
    "updated_at": "2012-07-08T00:27:56Z",
    "zip": "68883"
  },
  {
    "address": "2710 North Rd",
    "city": "Grand Island",
    "county": "Hall County",
    "created_at": "2012-01-04T20:15:58Z",
    "id": 15442,
    "latitude": "40.949465",
    "longitude": "-98.397826",
    "mascot": "Vikings",
    "name": "Northwest High School",
    "primary_color": "Gold",
    "secondary_color": "Black",
    "state": "NE",
    "timezone": "America/Chicago",
    "updated_at": "2012-07-08T00:27:56Z",
    "zip": "68803"
  },
  {
    "address": "300 L St",
    "city": "Aurora",
    "county": "Hamilton County",
    "created_at": "2012-01-04T20:15:58Z",
    "id": 15443,
    "latitude": "40.866719",
    "longitude": "-98.011805",
    "mascot": "Huskies",
    "name": "Aurora Senior High School",
    "primary_color": "Red",
    "secondary_color": "White",
    "state": "NE",
    "timezone": "America/Chicago",
    "updated_at": "2012-07-08T00:27:56Z",
    "zip": "68818"
  },
  {
    "address": "300 L St",
    "city": "Aurora",
    "county": "Hamilton County",
    "created_at": "2012-01-04T20:15:58Z",
    "id": 15444,
    "latitude": "40.866719",
    "longitude": "-98.011805",
    "mascot": "Huskies",
    "name": "Aurora Junior High School",
    "primary_color": "Red",
    "secondary_color": "White",
    "state": "NE",
    "timezone": "America/Chicago",
    "updated_at": "2012-07-08T00:27:56Z",
    "zip": "68818"
  },
  {
    "address": "458 5th St",
    "city": "Hampton",
    "county": "Hamilton County",
    "created_at": "2012-01-04T20:15:58Z",
    "id": 15445,
    "latitude": "40.881775",
    "longitude": "-97.888508",
    "mascot": null,
    "name": "Hampton School",
    "primary_color": "Gold",
    "secondary_color": "Purple",
    "state": "NE",
    "timezone": "America/Chicago",
    "updated_at": "2012-07-08T00:27:57Z",
    "zip": "68843"
  },
  {
    "address": "515 N Jewell St",
    "city": "Alma",
    "county": "Harlan County",
    "created_at": "2012-01-04T20:15:58Z",
    "id": 15446,
    "latitude": "40.102579",
    "longitude": "-99.360868",
    "mascot": "Cardinals",
    "name": "Alma School",
    "primary_color": "Red",
    "secondary_color": "White",
    "state": "NE",
    "timezone": "America/Chicago",
    "updated_at": "2012-07-08T00:27:57Z",
    "zip": "68920"
  },
  {
    "address": "300 W Hwy 89",
    "city": "Orleans",
    "county": "Harlan County",
    "created_at": "2012-01-04T20:15:58Z",
    "id": 15447,
    "latitude": "40.126880",
    "longitude": "-99.455139",
    "mascot": "Eagles",
    "name": "Orleans School",
    "primary_color": "Gray",
    "secondary_color": "Purple",
    "state": "NE",
    "timezone": "America/Chicago",
    "updated_at": "2012-07-08T00:27:57Z",
    "zip": "68966"
  },
  {
    "address": "1000 North Main",
    "city": "Atkinson",
    "county": "Holt County",
    "created_at": "2012-01-04T20:15:58Z",
    "id": 15448,
    "latitude": "42.538646",
    "longitude": "-98.978327",
    "mascot": "Huskies",
    "name": "West Holt Public School",
    "primary_color": "Gold",
    "secondary_color": "Royal",
    "state": "NE",
    "timezone": "America/Chicago",
    "updated_at": "2012-07-08T00:27:58Z",
    "zip": "68713"
  },
  {
    "address": "4th & Blane St",
    "city": "Mullen",
    "county": "Hooker County",
    "created_at": "2012-01-04T20:15:58Z",
    "id": 15449,
    "latitude": "41.998559",
    "longitude": "-101.078829",
    "mascot": "Broncos",
    "name": "Mullen Junior Senior High School",
    "primary_color": "Gold",
    "secondary_color": "Black",
    "state": "NE",
    "timezone": "America/Denver",
    "updated_at": "2012-07-08T00:27:58Z",
    "zip": "69152"
  },
  {
    "address": "201 Hwy 11",
    "city": "Cairo",
    "county": "Hall County",
    "created_at": "2012-01-04T20:15:58Z",
    "id": 15450,
    "latitude": "41.001847",
    "longitude": "-98.607422",
    "mascot": "Centurions",
    "name": "Centura High School",
    "primary_color": "Maroon",
    "secondary_color": "White",
    "state": "NE",
    "timezone": "America/Chicago",
    "updated_at": "2012-07-08T00:27:58Z",
    "zip": "68824"
  },
  {
    "address": "711 Caroline St",
    "city": "Elba",
    "county": "Howard County",
    "created_at": "2012-01-04T20:15:58Z",
    "id": 15451,
    "latitude": "41.284006",
    "longitude": "-98.566799",
    "mascot": "Blue Jays",
    "name": "Elba School",
    "primary_color": "Gold",
    "secondary_color": "Purple",
    "state": "NE",
    "timezone": "America/Chicago",
    "updated_at": "2012-07-08T00:27:59Z",
    "zip": "68835"
  },
  {
    "address": "72520 Hwy 101",
    "city": "De Witt",
    "county": "Saline County",
    "created_at": "2012-01-04T20:15:58Z",
    "id": 15452,
    "latitude": "40.390910",
    "longitude": "-96.927705",
    "mascot": "Trojans",
    "name": "Tri County School",
    "primary_color": "Gold",
    "secondary_color": "Royal",
    "state": "NE",
    "timezone": "America/Chicago",
    "updated_at": "2012-07-08T00:27:59Z",
    "zip": "68341"
  },
  {
    "address": "407 1st St",
    "city": "Cook",
    "county": "Johnson County",
    "created_at": "2012-01-04T20:15:58Z",
    "id": 15453,
    "latitude": "40.512755",
    "longitude": "-96.160775",
    "mascot": "Cardinals",
    "name": "Nemaha Valley High School",
    "primary_color": "Red",
    "secondary_color": "Black",
    "state": "NE",
    "timezone": "America/Chicago",
    "updated_at": "2012-07-08T00:27:59Z",
    "zip": "68329"
  },
  {
    "address": "250 Main St",
    "city": "Sterling",
    "county": "Johnson County",
    "created_at": "2012-01-04T20:15:58Z",
    "id": 15454,
    "latitude": "40.457802",
    "longitude": "-96.376081",
    "mascot": "Jets",
    "name": "Sterling School",
    "primary_color": "Gold",
    "secondary_color": "Maroon",
    "state": "NE",
    "timezone": "America/Chicago",
    "updated_at": "2012-07-08T00:27:59Z",
    "zip": "68443"
  },
  {
    "address": "500 Main St",
    "city": "Axtell",
    "county": "Kearney County",
    "created_at": "2012-01-04T20:15:58Z",
    "id": 15455,
    "latitude": "40.480486",
    "longitude": "-99.126663",
    "mascot": "Wildcats",
    "name": "Axtell School",
    "primary_color": "Purple",
    "secondary_color": "White",
    "state": "NE",
    "timezone": "America/Chicago",
    "updated_at": "2012-07-08T00:28:00Z",
    "zip": "68924"
  },
  {
    "address": "325 N Yeats",
    "city": "Minden",
    "county": "Kearney County",
    "created_at": "2012-01-04T20:15:58Z",
    "id": 15456,
    "latitude": "40.497876",
    "longitude": "-98.955187",
    "mascot": "Whippets",
    "name": "Minden High School",
    "primary_color": "Purple",
    "secondary_color": "White",
    "state": "NE",
    "timezone": "America/Chicago",
    "updated_at": "2012-07-08T00:28:00Z",
    "zip": "68959"
  },
  {
    "address": "404 E Supp St",
    "city": "Wilcox",
    "county": "Kearney County",
    "created_at": "2012-01-04T20:15:58Z",
    "id": 15457,
    "latitude": "40.364890",
    "longitude": "-99.163089",
    "mascot": "Eagles",
    "name": "Wilcox-Hildreth Public School",
    "primary_color": "Orange",
    "secondary_color": "Black",
    "state": "NE",
    "timezone": "America/Chicago",
    "updated_at": "2012-07-08T00:28:00Z",
    "zip": "68982"
  },
  {
    "address": "602 E G St",
    "city": "Ogallala",
    "county": "Keith County",
    "created_at": "2012-01-04T20:15:58Z",
    "id": 15458,
    "latitude": "41.130387",
    "longitude": "-101.710888",
    "mascot": "Indians",
    "name": "Ogallala High School",
    "primary_color": "Orange",
    "secondary_color": "Black",
    "state": "NE",
    "timezone": "America/Denver",
    "updated_at": "2012-07-08T00:28:01Z",
    "zip": "69153"
  },
  {
    "address": "308 N Elm St",
    "city": "Paxton",
    "county": "Keith County",
    "created_at": "2012-01-04T20:15:58Z",
    "id": 15459,
    "latitude": "41.124879",
    "longitude": "-101.360664",
    "mascot": "Tigers",
    "name": "Paxton Consolidated School",
    "primary_color": "Gold",
    "secondary_color": "Royal",
    "state": "NE",
    "timezone": "America/Denver",
    "updated_at": "2012-07-08T00:28:01Z",
    "zip": "69155"
  },
  {
    "address": "901 S Nadine St",
    "city": "Kimball",
    "county": "Kimball County",
    "created_at": "2012-01-04T20:15:58Z",
    "id": 15460,
    "latitude": "41.228489",
    "longitude": "-103.656201",
    "mascot": "Longhorns",
    "name": "Kimball Junior Senior High School",
    "primary_color": "Red",
    "secondary_color": "White",
    "state": "NE",
    "timezone": "America/Denver",
    "updated_at": "2012-07-08T00:28:01Z",
    "zip": "69145"
  },
  {
    "address": "311 E Benton",
    "city": "Bloomfield",
    "county": "Knox County",
    "created_at": "2012-01-04T20:15:58Z",
    "id": 15461,
    "latitude": "42.595360",
    "longitude": "-97.641899",
    "mascot": "Bees",
    "name": "Bloomfield Junior Senior High School",
    "primary_color": "Royal",
    "secondary_color": "White",
    "state": "NE",
    "timezone": "America/Chicago",
    "updated_at": "2012-07-08T00:28:02Z",
    "zip": "68718"
  },
  {
    "address": "247 N Hwy 12",
    "city": "Niobrara",
    "county": "Knox County",
    "created_at": "2012-01-04T20:15:58Z",
    "id": 15462,
    "latitude": "42.810938",
    "longitude": "-98.191901",
    "mascot": "Lions",
    "name": "Niobrara School",
    "primary_color": "Royal",
    "secondary_color": "White",
    "state": "NE",
    "timezone": "America/Chicago",
    "updated_at": "2012-07-08T00:28:02Z",
    "zip": "68760"
  },
  {
    "address": "204 Second St",
    "city": "Verdigre",
    "county": "Knox County",
    "created_at": "2012-01-04T20:15:58Z",
    "id": 15463,
    "latitude": "42.603545",
    "longitude": "-98.036506",
    "mascot": "Hawks",
    "name": "Verdigre Public School",
    "primary_color": "Gold",
    "secondary_color": "Royal",
    "state": "NE",
    "timezone": "America/Chicago",
    "updated_at": "2012-07-08T00:28:02Z",
    "zip": "68783"
  },
  {
    "address": "300 S Bismarck",
    "city": "Wausa",
    "county": "Knox County",
    "created_at": "2012-01-04T20:15:58Z",
    "id": 15464,
    "latitude": "42.496832",
    "longitude": "-97.541967",
    "mascot": "Vikings",
    "name": "Wausa Public School",
    "primary_color": "Gold",
    "secondary_color": "Purple",
    "state": "NE",
    "timezone": "America/Chicago",
    "updated_at": "2012-07-08T00:28:03Z",
    "zip": "68786"
  },
  {
    "address": "206 Frazier Ave E",
    "city": "Niobrara",
    "county": "Knox County",
    "created_at": "2012-01-04T20:15:58Z",
    "id": 15465,
    "latitude": "42.839428",
    "longitude": "-97.850508",
    "mascot": "Santee Warriors",
    "name": "Santee Public School",
    "primary_color": "Gold",
    "secondary_color": "Royal",
    "state": "NE",
    "timezone": "America/Chicago",
    "updated_at": "2012-07-08T00:28:03Z",
    "zip": "68760"
  },
  {
    "address": "25211 S 68th St",
    "city": "Firth",
    "county": "Lancaster County",
    "created_at": "2012-01-04T20:15:58Z",
    "id": 15466,
    "latitude": "40.563971",
    "longitude": "-96.629409",
    "mascot": "Titans",
    "name": "Norris High School",
    "primary_color": "Red",
    "secondary_color": "White",
    "state": "NE",
    "timezone": "America/Chicago",
    "updated_at": "2012-07-08T00:28:03Z",
    "zip": "68358"
  },
  {
    "address": "Rt 1 Box 180 A",
    "city": "Raymond",
    "county": "Lancaster County",
    "created_at": "2012-01-04T20:15:58Z",
    "id": 15467,
    "latitude": "40.987967",
    "longitude": "-96.824549",
    "mascot": "Mustangs",
    "name": "Raymond Central High School",
    "primary_color": "Gold",
    "secondary_color": "Navy",
    "state": "NE",
    "timezone": "America/Chicago",
    "updated_at": "2012-07-08T00:28:04Z",
    "zip": "68428"
  },
  {
    "address": "5130 Colfax St",
    "city": "Lincoln",
    "county": "Lancaster County",
    "created_at": "2012-01-04T20:15:58Z",
    "id": 15468,
    "latitude": "40.850249",
    "longitude": "-96.649577",
    "mascot": "Trojans",
    "name": "Dawes Elementary Junior High School",
    "primary_color": "Gold",
    "secondary_color": "Royal",
    "state": "NE",
    "timezone": "America/Chicago",
    "updated_at": "2012-07-08T00:28:04Z",
    "zip": "68504"
  },
  {
    "address": "2745 S 22nd St",
    "city": "Lincoln",
    "county": "Lancaster County",
    "created_at": "2012-01-04T20:15:58Z",
    "id": 15469,
    "latitude": "40.785246",
    "longitude": "-96.689657",
    "mascot": "Aardvarks",
    "name": "Irving Middle School",
    "primary_color": "Red",
    "secondary_color": "White",
    "state": "NE",
    "timezone": "America/Chicago",
    "updated_at": "2012-07-08T00:28:04Z",
    "zip": "68502"
  },
  {
    "address": "1100 S 48th St",
    "city": "Lincoln",
    "county": "Lancaster County",
    "created_at": "2012-01-04T20:15:58Z",
    "id": 15470,
    "latitude": "40.802832",
    "longitude": "-96.653621",
    "mascot": "Lions",
    "name": "Millard Lefler Middle School",
    "primary_color": "Gold",
    "secondary_color": "Royal",
    "state": "NE",
    "timezone": "America/Chicago",
    "updated_at": "2012-07-08T00:28:04Z",
    "zip": "68510"
  },
  {
    "address": "1000 S 70th St",
    "city": "Lincoln",
    "county": "Lancaster County",
    "created_at": "2012-01-04T20:15:58Z",
    "id": 15471,
    "latitude": "40.803681",
    "longitude": "-96.625113",
    "mascot": "Spartans",
    "name": "Lincoln East High School",
    "primary_color": "Royal",
    "secondary_color": "White",
    "state": "NE",
    "timezone": "America/Chicago",
    "updated_at": "2012-07-08T00:28:05Z",
    "zip": "68510"
  },
  {
    "address": "2229 J St",
    "city": "Lincoln",
    "county": "Lancaster County",
    "created_at": "2012-01-04T20:15:58Z",
    "id": 15472,
    "latitude": "40.808141",
    "longitude": "-96.688975",
    "mascot": "Links",
    "name": "Lincoln High School",
    "primary_color": "Red",
    "secondary_color": "Black",
    "state": "NE",
    "timezone": "America/Chicago",
    "updated_at": "2012-07-08T00:28:05Z",
    "zip": "68510"
  },
  {
    "address": "2635 N 63rd St",
    "city": "Lincoln",
    "county": "Lancaster County",
    "created_at": "2012-01-04T20:15:58Z",
    "id": 15473,
    "latitude": "40.838770",
    "longitude": "-96.634547",
    "mascot": "Rockets",
    "name": "Lincoln Northeast Senior High School",
    "primary_color": "Black",
    "secondary_color": "White",
    "state": "NE",
    "timezone": "America/Chicago",
    "updated_at": "2012-07-08T00:28:05Z",
    "zip": "68507"
  },
  {
    "address": "2930 S 37th St",
    "city": "Lincoln",
    "county": "Lancaster County",
    "created_at": "2012-01-04T20:15:58Z",
    "id": 15474,
    "latitude": "40.783167",
    "longitude": "-96.668051",
    "mascot": "Knights",
    "name": "Lincoln Southeast Senior High School",
    "primary_color": "Gold",
    "secondary_color": "Black",
    "state": "NE",
    "timezone": "America/Chicago",
    "updated_at": "2012-07-08T00:28:06Z",
    "zip": "68506"
  },
  {
    "address": "2500 N 67th St",
    "city": "Lincoln",
    "county": "Lancaster County",
    "created_at": "2012-01-04T20:15:58Z",
    "id": 15475,
    "latitude": "40.837375",
    "longitude": "-96.629012",
    "mascot": "Missles",
    "name": "Robin Mickle Junior High School",
    "primary_color": "Gray",
    "secondary_color": "Royal",
    "state": "NE",
    "timezone": "America/Chicago",
    "updated_at": "2012-07-08T00:28:06Z",
    "zip": "68507"
  },
  {
    "address": "1801 S 40th St",
    "city": "Lincoln",
    "county": "Lancaster County",
    "created_at": "2012-01-04T20:15:58Z",
    "id": 15476,
    "latitude": "40.794216",
    "longitude": "-96.663312",
    "mascot": null,
    "name": "Bryan Educational Center",
    "primary_color": null,
    "secondary_color": null,
    "state": "NE",
    "timezone": "America/Chicago",
    "updated_at": "2012-07-08T00:28:06Z",
    "zip": "68506"
  },
  {
    "address": "10000 NW 112th St",
    "city": "Malcolm",
    "county": "Lancaster County",
    "created_at": "2012-01-04T20:15:58Z",
    "id": 15477,
    "latitude": "40.913252",
    "longitude": "-96.872431",
    "mascot": "Clippers",
    "name": "Malcolm Public Schools",
    "primary_color": "Royal",
    "secondary_color": "White",
    "state": "NE",
    "timezone": "America/Chicago",
    "updated_at": "2012-07-08T00:28:06Z",
    "zip": "68402"
  },
  {
    "address": "13401 Amberly Rd",
    "city": "Waverly",
    "county": "Lancaster County",
    "created_at": "2012-01-04T20:15:58Z",
    "id": 15478,
    "latitude": "40.907172",
    "longitude": "-96.539442",
    "mascot": "Vikings",
    "name": "Waverly High School",
    "primary_color": "Maroon",
    "secondary_color": "White",
    "state": "NE",
    "timezone": "America/Chicago",
    "updated_at": "2012-07-08T00:28:07Z",
    "zip": "68462"
  },
  {
    "address": "112 E Popleton",
    "city": "Brady",
    "county": "Lincoln County",
    "created_at": "2012-01-04T20:15:58Z",
    "id": 15479,
    "latitude": "41.025130",
    "longitude": "-100.365997",
    "mascot": "Eagles",
    "name": "Brady Public School",
    "primary_color": "Red",
    "secondary_color": "White",
    "state": "NE",
    "timezone": "America/Chicago",
    "updated_at": "2012-07-08T00:28:07Z",
    "zip": "69123"
  },
  {
    "address": "608 Williams St",
    "city": "Taylor",
    "county": "Loup County",
    "created_at": "2012-01-04T20:15:58Z",
    "id": 15480,
    "latitude": "41.768270",
    "longitude": "-99.385774",
    "mascot": "Wildcats",
    "name": "Loup County Public School",
    "primary_color": "Red",
    "secondary_color": "White",
    "state": "NE",
    "timezone": "America/Chicago",
    "updated_at": "2012-07-08T00:28:07Z",
    "zip": "68879"
  },
  {
    "address": "100 Main St",
    "city": "Tryon",
    "county": "McPherson County",
    "created_at": "2012-01-04T20:15:58Z",
    "id": 15481,
    "latitude": "41.567030",
    "longitude": "-101.001585",
    "mascot": "Longhorns",
    "name": "McPherson County High School",
    "primary_color": "Red",
    "secondary_color": "Black",
    "state": "NE",
    "timezone": "America/Chicago",
    "updated_at": "2012-07-08T00:28:07Z",
    "zip": "69167"
  },
  {
    "address": "700 S Kent",
    "city": "Madison",
    "county": "Madison County",
    "created_at": "2012-01-04T20:15:58Z",
    "id": 15482,
    "latitude": "41.824761",
    "longitude": "-97.457416",
    "mascot": "Dragons",
    "name": "Madison Junior Senior High School",
    "primary_color": "Gray",
    "secondary_color": "Red",
    "state": "NE",
    "timezone": "America/Chicago",
    "updated_at": "2012-07-08T00:28:08Z",
    "zip": "68748"
  },
  {
    "address": "510 Pagewalk Ave",
    "city": "Norfolk",
    "county": "Madison County",
    "created_at": "2012-01-04T20:15:58Z",
    "id": 15483,
    "latitude": "42.026220",
    "longitude": "-97.401164",
    "mascot": "Panthers",
    "name": "Norfolk Junior High School",
    "primary_color": "Maroon",
    "secondary_color": "White",
    "state": "NE",
    "timezone": "America/Chicago",
    "updated_at": "2012-07-08T00:28:08Z",
    "zip": "68701"
  },
  {
    "address": "305 S 4th St",
    "city": "Battle Creek",
    "county": "Madison County",
    "created_at": "2012-01-04T20:15:58Z",
    "id": 15484,
    "latitude": "41.997412",
    "longitude": "-97.601091",
    "mascot": "Braves",
    "name": "Battle Creek Junior Senior High School",
    "primary_color": "Gold",
    "secondary_color": "Purple",
    "state": "NE",
    "timezone": "America/Chicago",
    "updated_at": "2012-07-08T00:28:08Z",
    "zip": "68715"
  },
  {
    "address": "1510 28th St",
    "city": "Central City",
    "county": "Merrick County",
    "created_at": "2012-01-04T20:15:58Z",
    "id": 15485,
    "latitude": "41.104685",
    "longitude": "-97.999741",
    "mascot": "Bison",
    "name": "Central City High School",
    "primary_color": "Gold",
    "secondary_color": "Kelly Green",
    "state": "NE",
    "timezone": "America/Chicago",
    "updated_at": "2012-07-08T00:28:09Z",
    "zip": "68826"
  },
  {
    "address": "260 South Pine",
    "city": "Polk",
    "county": "Polk County",
    "created_at": "2012-01-04T20:15:58Z",
    "id": 15486,
    "latitude": "41.074144",
    "longitude": "-97.782011",
    "mascot": "Storm",
    "name": "High Plains Community School",
    "primary_color": "Royal",
    "secondary_color": "White",
    "state": "NE",
    "timezone": "America/Chicago",
    "updated_at": "2012-07-08T00:28:09Z",
    "zip": "68654"
  },
  {
    "address": "202 Commercial St",
    "city": "Palmer",
    "county": "Merrick County",
    "created_at": "2012-01-04T20:15:58Z",
    "id": 15487,
    "latitude": "41.222126",
    "longitude": "-98.268654",
    "mascot": "Tigers",
    "name": "Palmer School",
    "primary_color": "Orange",
    "secondary_color": "Black",
    "state": "NE",
    "timezone": "America/Chicago",
    "updated_at": "2012-07-08T00:28:14Z",
    "zip": "68864"
  },
  {
    "address": "E 8th St",
    "city": "Bayard",
    "county": "Morrill County",
    "created_at": "2012-01-04T20:15:58Z",
    "id": 15488,
    "latitude": "41.758540",
    "longitude": "-103.316054",
    "mascot": "Tigers",
    "name": "Bayard Junior Senior High School",
    "primary_color": "Orange",
    "secondary_color": "Black",
    "state": "NE",
    "timezone": "America/Denver",
    "updated_at": "2012-07-08T00:28:14Z",
    "zip": "69334"
  },
  {
    "address": "800 Q St",
    "city": "Bridgeport",
    "county": "Morrill County",
    "created_at": "2012-01-04T20:15:58Z",
    "id": 15489,
    "latitude": "41.667056",
    "longitude": "-103.094112",
    "mascot": "Bulldogs",
    "name": "Bridgeport Junior Senior High School",
    "primary_color": "Gold",
    "secondary_color": "Purple",
    "state": "NE",
    "timezone": "America/Denver",
    "updated_at": "2012-07-08T00:28:14Z",
    "zip": "69336"
  },
  {
    "address": "816 Willard Ave",
    "city": "Genoa",
    "county": "Nance County",
    "created_at": "2012-01-04T20:15:58Z",
    "id": 15490,
    "latitude": "41.448557",
    "longitude": "-97.735102",
    "mascot": "Orioles",
    "name": "Twin River School",
    "primary_color": "Orange",
    "secondary_color": "Black",
    "state": "NE",
    "timezone": "America/Chicago",
    "updated_at": "2012-07-08T00:28:15Z",
    "zip": "68640"
  },
  {
    "address": "1829 Central Ave",
    "city": "Auburn",
    "county": "Nemaha County",
    "created_at": "2012-01-04T20:15:58Z",
    "id": 15491,
    "latitude": "40.392812",
    "longitude": "-95.849855",
    "mascot": "Bulldogs",
    "name": "Auburn High School",
    "primary_color": "Red",
    "secondary_color": "White",
    "state": "NE",
    "timezone": "America/Chicago",
    "updated_at": "2012-07-08T00:28:15Z",
    "zip": "68305"
  },
  {
    "address": "310 Main St",
    "city": "Johnson",
    "county": "Nemaha County",
    "created_at": "2012-01-04T20:15:58Z",
    "id": 15492,
    "latitude": "40.411860",
    "longitude": "-95.997915",
    "mascot": "Eagles",
    "name": "Johnson Brock School",
    "primary_color": "Red",
    "secondary_color": "White",
    "state": "NE",
    "timezone": "America/Chicago",
    "updated_at": "2012-07-08T00:28:15Z",
    "zip": "68378"
  },
  {
    "address": "850 S Nevada",
    "city": "Nelson",
    "county": "Nuckolls County",
    "created_at": "2012-01-04T20:15:58Z",
    "id": 15493,
    "latitude": "40.203725",
    "longitude": "-98.074092",
    "mascot": "Tigers",
    "name": "Nelson Junior Senior High School",
    "primary_color": "Orange",
    "secondary_color": "Black",
    "state": "NE",
    "timezone": "America/Chicago",
    "updated_at": "2012-07-08T00:28:16Z",
    "zip": "68961"
  },
  {
    "address": "606 W 8th St",
    "city": "Superior",
    "county": "Nuckolls County",
    "created_at": "2012-01-04T20:15:58Z",
    "id": 15494,
    "latitude": "40.024028",
    "longitude": "-98.078565",
    "mascot": "Wildcats",
    "name": "Superior Junior Senior High School",
    "primary_color": "Red",
    "secondary_color": "White",
    "state": "NE",
    "timezone": "America/Chicago",
    "updated_at": "2012-07-08T00:28:16Z",
    "zip": "68978"
  },
  {
    "address": "141 Steinhart Park Rd",
    "city": "Nebraska City",
    "county": "Otoe County",
    "created_at": "2012-01-04T20:15:59Z",
    "id": 15495,
    "latitude": "40.675479",
    "longitude": "-95.878248",
    "mascot": "Pioneers",
    "name": "Nebraska City Senior High School",
    "primary_color": "Gold",
    "secondary_color": "Purple",
    "state": "NE",
    "timezone": "America/Chicago",
    "updated_at": "2012-07-08T00:28:16Z",
    "zip": "68410"
  },
  {
    "address": "425 F St",
    "city": "Palmyra",
    "county": "Otoe County",
    "created_at": "2012-01-04T20:15:59Z",
    "id": 15496,
    "latitude": "40.711746",
    "longitude": "-96.421727",
    "mascot": "Panthers",
    "name": "Palmyra High School",
    "primary_color": "Red",
    "secondary_color": "White",
    "state": "NE",
    "timezone": "America/Chicago",
    "updated_at": "2012-07-08T00:28:16Z",
    "zip": "68418"
  },
  {
    "address": "1500 Education Dr",
    "city": "Syracuse",
    "county": "Otoe County",
    "created_at": "2012-01-04T20:15:59Z",
    "id": 15497,
    "latitude": "40.664504",
    "longitude": "-96.181502",
    "mascot": "Rockets",
    "name": "Syracuse High School",
    "primary_color": "Kelly Green",
    "secondary_color": "White",
    "state": "NE",
    "timezone": "America/Chicago",
    "updated_at": "2012-07-08T00:28:17Z",
    "zip": "68446"
  },
  {
    "address": "306 Tiger Ave",
    "city": "Lewiston",
    "county": "Pawnee County",
    "created_at": "2012-01-04T20:15:59Z",
    "id": 15498,
    "latitude": "40.243042",
    "longitude": "-96.412506",
    "mascot": "Tigers",
    "name": "Lewiston Consolidated School",
    "primary_color": "Maroon",
    "secondary_color": "White",
    "state": "NE",
    "timezone": "America/Chicago",
    "updated_at": "2012-07-08T00:28:17Z",
    "zip": "68380"
  },
  {
    "address": "501 South Ford Avenue",
    "city": "Madrid",
    "county": "Perkins County",
    "created_at": "2012-01-04T20:15:59Z",
    "id": 15499,
    "latitude": "40.846887",
    "longitude": "-101.539610",
    "mascot": "Spartan",
    "name": "Perkins County School",
    "primary_color": "Black",
    "secondary_color": "White",
    "state": "NE",
    "timezone": "America/Denver",
    "updated_at": "2012-07-08T00:28:17Z",
    "zip": "69150"
  },
  {
    "address": "740 Sherman St",
    "city": "Grant",
    "county": "Perkins County",
    "created_at": "2012-01-04T20:15:59Z",
    "id": 15500,
    "latitude": "40.845161",
    "longitude": "-101.729490",
    "mascot": "Plainsmen",
    "name": "Perkins County High School",
    "primary_color": "Red",
    "secondary_color": "White",
    "state": "NE",
    "timezone": "America/Denver",
    "updated_at": "2012-07-08T00:28:17Z",
    "zip": "69140"
  },
  {
    "address": "600 12th Ave",
    "city": "Holdrege",
    "county": "Phelps County",
    "created_at": "2012-01-04T20:15:59Z",
    "id": 15501,
    "latitude": "40.446642",
    "longitude": "-99.372737",
    "mascot": "Dusters",
    "name": "Holdrege High School",
    "primary_color": "Gold",
    "secondary_color": "Purple",
    "state": "NE",
    "timezone": "America/Chicago",
    "updated_at": "2012-07-08T00:28:18Z",
    "zip": "68949"
  },
  {
    "address": "101 Bryan St",
    "city": "Loomis",
    "county": "Phelps County",
    "created_at": "2012-01-04T20:15:59Z",
    "id": 15502,
    "latitude": "40.475931",
    "longitude": "-99.512382",
    "mascot": "Wolves",
    "name": "Loomis School",
    "primary_color": "Kelly Green",
    "secondary_color": "White",
    "state": "NE",
    "timezone": "America/Chicago",
    "updated_at": "2012-07-08T00:28:18Z",
    "zip": "68958"
  },
  {
    "address": "201 N Sunset St",
    "city": "Pierce",
    "county": "Pierce County",
    "created_at": "2012-01-04T20:15:59Z",
    "id": 15503,
    "latitude": "42.200142",
    "longitude": "-97.538467",
    "mascot": "Bluejays",
    "name": "Pierce Junior Senior High School",
    "primary_color": "Royal",
    "secondary_color": "White",
    "state": "NE",
    "timezone": "America/Chicago",
    "updated_at": "2012-07-08T00:28:18Z",
    "zip": "68767"
  },
  {
    "address": "301 West Pilcher Avenue",
    "city": "Plainview",
    "county": "Pierce County",
    "created_at": "2012-01-04T20:15:59Z",
    "id": 15504,
    "latitude": "42.351955",
    "longitude": "-97.796449",
    "mascot": "Pirates",
    "name": "Plainview High School",
    "primary_color": "Red",
    "secondary_color": "White",
    "state": "NE",
    "timezone": "America/Chicago",
    "updated_at": "2012-07-08T00:28:18Z",
    "zip": "68769"
  },
  {
    "address": "2200 26th St",
    "city": "Columbus",
    "county": "Platte County",
    "created_at": "2012-01-04T20:15:59Z",
    "id": 15505,
    "latitude": "41.441086",
    "longitude": "-97.354687",
    "mascot": "Ships",
    "name": "Columbus High School",
    "primary_color": "Maroon",
    "secondary_color": "White",
    "state": "NE",
    "timezone": "America/Chicago",
    "updated_at": "2012-07-08T00:28:19Z",
    "zip": "68601"
  },
  {
    "address": "3744 83rd St",
    "city": "Columbus",
    "county": "Platte County",
    "created_at": "2012-01-04T20:15:59Z",
    "id": 15506,
    "latitude": "41.496778",
    "longitude": "-97.374180",
    "mascot": "Vikings",
    "name": "Lakeview High School",
    "primary_color": "Royal",
    "secondary_color": "White",
    "state": "NE",
    "timezone": "America/Chicago",
    "updated_at": "2012-07-08T00:28:19Z",
    "zip": "68601"
  },
  {
    "address": "565 South Kimmel",
    "city": "Osceola",
    "county": "Polk County",
    "created_at": "2012-01-04T20:15:59Z",
    "id": 15507,
    "latitude": "41.172445",
    "longitude": "-97.545439",
    "mascot": "Bulldogs",
    "name": "Osceola Junior Senior High School",
    "primary_color": "Orange",
    "secondary_color": "White",
    "state": "NE",
    "timezone": "America/Chicago",
    "updated_at": "2012-07-08T00:28:19Z",
    "zip": "68651"
  },
  {
    "address": "650 N Walnut",
    "city": "Shelby",
    "county": "Polk County",
    "created_at": "2012-01-04T20:15:59Z",
    "id": 15508,
    "latitude": "41.198809",
    "longitude": "-97.425852",
    "mascot": "Huskies",
    "name": "Shelby Public School",
    "primary_color": "Gold",
    "secondary_color": "Black",
    "state": "NE",
    "timezone": "America/Chicago",
    "updated_at": "2012-07-08T00:28:19Z",
    "zip": "68662"
  },
  {
    "address": "401 E 4th",
    "city": "Stromsburg",
    "county": "Polk County",
    "created_at": "2012-01-04T20:15:59Z",
    "id": 15509,
    "latitude": "41.114138",
    "longitude": "-97.593993",
    "mascot": null,
    "name": "Stromsburg Junior Senior High School",
    "primary_color": "Red",
    "secondary_color": "White",
    "state": "NE",
    "timezone": "America/Chicago",
    "updated_at": "2012-07-08T00:28:20Z",
    "zip": "68666"
  },
  {
    "address": "PO Box 157",
    "city": "Lebanon",
    "county": "Red Willow County",
    "created_at": "2012-01-04T20:15:59Z",
    "id": 15510,
    "latitude": "40.059150",
    "longitude": "-100.289329",
    "mascot": "Rebels",
    "name": "Lebanon Junior Senior High School",
    "primary_color": "Black",
    "secondary_color": "White",
    "state": "NE",
    "timezone": "America/Chicago",
    "updated_at": "2012-07-08T00:28:20Z",
    "zip": "69036"
  },
  {
    "address": "600 W 7th St",
    "city": "McCook",
    "county": "Red Willow County",
    "created_at": "2012-01-04T20:15:59Z",
    "id": 15511,
    "latitude": "40.202775",
    "longitude": "-100.635094",
    "mascot": null,
    "name": "McCook High School",
    "primary_color": "Red",
    "secondary_color": "White",
    "state": "NE",
    "timezone": "America/Chicago",
    "updated_at": "2012-07-08T00:28:20Z",
    "zip": "69001"
  },
  {
    "address": "Rt 1 Box 80A",
    "city": "Indianola",
    "county": "Red Willow County",
    "created_at": "2012-01-04T20:15:59Z",
    "id": 15512,
    "latitude": "40.235250",
    "longitude": "-100.413461",
    "mascot": "Mustangs",
    "name": "Republican Valley High School",
    "primary_color": "Purple",
    "secondary_color": "Gold",
    "state": "NE",
    "timezone": "America/Chicago",
    "updated_at": "2012-07-08T00:28:20Z",
    "zip": "69034"
  },
  {
    "address": "511 Nemaha St",
    "city": "Dawson",
    "county": "Richardson County",
    "created_at": "2012-01-04T20:15:59Z",
    "id": 15513,
    "latitude": "40.131301",
    "longitude": "-95.831821",
    "mascot": "Jets",
    "name": "Dawson Verdon Consolidated School",
    "primary_color": "Red",
    "secondary_color": "White",
    "state": "NE",
    "timezone": "America/Chicago",
    "updated_at": "2012-07-08T00:28:21Z",
    "zip": "68337"
  },
  {
    "address": "1400 Fulton St",
    "city": "Falls City",
    "county": "Richardson County",
    "created_at": "2012-01-04T20:15:59Z",
    "id": 15514,
    "latitude": "40.058520",
    "longitude": "-95.595742",
    "mascot": "Tigers",
    "name": "Falls City High School",
    "primary_color": "Orange",
    "secondary_color": "Black",
    "state": "NE",
    "timezone": "America/Chicago",
    "updated_at": "2012-07-08T00:28:21Z",
    "zip": "68355"
  },
  {
    "address": "Rt 1 Box 1C",
    "city": "Stella",
    "county": "Richardson County",
    "created_at": "2012-01-04T20:15:59Z",
    "id": 15515,
    "latitude": "40.229298",
    "longitude": "-95.772771",
    "mascot": "Mustangs",
    "name": "Southeast Consolidated School",
    "primary_color": "Columbia Blue",
    "secondary_color": "Red",
    "state": "NE",
    "timezone": "America/Chicago",
    "updated_at": "2012-07-08T00:28:21Z",
    "zip": "68442"
  },
  {
    "address": "202 E Florence St",
    "city": "Bassett",
    "county": "Rock County",
    "created_at": "2012-01-04T20:15:59Z",
    "id": 15516,
    "latitude": "42.584361",
    "longitude": "-99.536359",
    "mascot": "Tigers",
    "name": "Bassett Grade School",
    "primary_color": "Gold",
    "secondary_color": "Purple",
    "state": "NE",
    "timezone": "America/Chicago",
    "updated_at": "2012-07-08T00:28:21Z",
    "zip": "68714"
  },
  {
    "address": "506 W 9th St",
    "city": "Dorchester",
    "county": "Saline County",
    "created_at": "2012-01-04T20:15:59Z",
    "id": 15517,
    "latitude": "40.648963",
    "longitude": "-97.119220",
    "mascot": "Longhorns",
    "name": "Dorchester Public School",
    "primary_color": "Orange",
    "secondary_color": "Black",
    "state": "NE",
    "timezone": "America/Chicago",
    "updated_at": "2012-07-08T00:28:22Z",
    "zip": "68343"
  },
  {
    "address": "PO Box 67",
    "city": "Friend",
    "county": "Saline County",
    "created_at": "2012-01-04T20:15:59Z",
    "id": 15518,
    "latitude": "40.625696",
    "longitude": "-97.264089",
    "mascot": "Bulldogs",
    "name": "Friend Public School",
    "primary_color": "Red",
    "secondary_color": "White",
    "state": "NE",
    "timezone": "America/Chicago",
    "updated_at": "2012-07-08T00:28:22Z",
    "zip": "68359"
  },
  {
    "address": "1501 Thurston Rd",
    "city": "Bellevue",
    "county": "Sarpy County",
    "created_at": "2012-01-04T20:15:59Z",
    "id": 15519,
    "latitude": "41.161928",
    "longitude": "-95.934191",
    "mascot": "Thunderbirds",
    "name": "Bellevue West Senior High School",
    "primary_color": "Gold",
    "secondary_color": "Purple",
    "state": "NE",
    "timezone": "America/Chicago",
    "updated_at": "2012-07-08T00:28:22Z",
    "zip": "68123"
  },
  {
    "address": "802 South St",
    "city": "Gretna",
    "county": "Sarpy County",
    "created_at": "2012-01-04T20:15:59Z",
    "id": 15520,
    "latitude": "41.136006",
    "longitude": "-96.249828",
    "mascot": "Dragons",
    "name": "Gretna High School",
    "primary_color": "Gold",
    "secondary_color": "Kelly Green",
    "state": "NE",
    "timezone": "America/Chicago",
    "updated_at": "2012-07-08T00:28:22Z",
    "zip": "68028"
  },
  {
    "address": "402 E Centennial Rd",
    "city": "Papillion",
    "county": "Sarpy County",
    "created_at": "2012-01-04T20:15:59Z",
    "id": 15521,
    "latitude": "41.168884",
    "longitude": "-96.040171",
    "mascot": "Monarchs",
    "name": "Papillion-La Vista Senior High School",
    "primary_color": "Gold",
    "secondary_color": "Maroon",
    "state": "NE",
    "timezone": "America/Chicago",
    "updated_at": "2012-07-08T00:28:23Z",
    "zip": "68046"
  },
  {
    "address": "423 S Washington",
    "city": "Papillion",
    "county": "Sarpy County",
    "created_at": "2012-01-04T20:15:59Z",
    "id": 15522,
    "latitude": "41.153230",
    "longitude": "-96.042941",
    "mascot": null,
    "name": "Papillion Junior High School",
    "primary_color": "Gold",
    "secondary_color": "Maroon",
    "state": "NE",
    "timezone": "America/Chicago",
    "updated_at": "2012-07-08T00:28:23Z",
    "zip": "68046"
  },
  {
    "address": "7900 Edgewood Blvd",
    "city": "La Vista",
    "county": "Sarpy County",
    "created_at": "2012-01-04T20:15:59Z",
    "id": 15523,
    "latitude": "41.177679",
    "longitude": "-96.037096",
    "mascot": "Monarchs",
    "name": "La Vista Junior High School",
    "primary_color": "Gold",
    "secondary_color": "Maroon",
    "state": "NE",
    "timezone": "America/Chicago",
    "updated_at": "2012-07-08T00:28:23Z",
    "zip": "68128"
  },
  {
    "address": "14801 S 108th St",
    "city": "Springfield",
    "county": "Sarpy County",
    "created_at": "2012-01-04T20:15:59Z",
    "id": 15524,
    "latitude": "41.092687",
    "longitude": "-96.081012",
    "mascot": "Trojans",
    "name": "Platteview High School",
    "primary_color": "Red",
    "secondary_color": "White",
    "state": "NE",
    "timezone": "America/Chicago",
    "updated_at": "2012-07-08T00:28:24Z",
    "zip": "68059"
  },
  {
    "address": "1842 Furnas St",
    "city": "Ashland",
    "county": "Saunders County",
    "created_at": "2012-01-04T20:15:59Z",
    "id": 15525,
    "latitude": "41.045108",
    "longitude": "-96.373642",
    "mascot": "Blue Jays",
    "name": "Ashland-Greenwood Middle School High",
    "primary_color": "Royal",
    "secondary_color": "White",
    "state": "NE",
    "timezone": "America/Chicago",
    "updated_at": "2012-07-08T00:28:24Z",
    "zip": "68003"
  },
  {
    "address": "1200 2nd St",
    "city": "Yutan",
    "county": "Saunders County",
    "created_at": "2012-01-04T20:15:59Z",
    "id": 15526,
    "latitude": "41.235837",
    "longitude": "-96.397069",
    "mascot": null,
    "name": "Yutan Junior Senior High School",
    "primary_color": "Red",
    "secondary_color": "White",
    "state": "NE",
    "timezone": "America/Chicago",
    "updated_at": "2012-07-08T00:28:24Z",
    "zip": "68073"
  },
  {
    "address": "115 N Elm",
    "city": "Mead",
    "county": "Saunders County",
    "created_at": "2012-01-04T20:15:59Z",
    "id": 15527,
    "latitude": "41.231399",
    "longitude": "-96.490367",
    "mascot": "Raiders",
    "name": "Mead Junior Senior High School",
    "primary_color": "Red",
    "secondary_color": "Black",
    "state": "NE",
    "timezone": "America/Chicago",
    "updated_at": "2012-07-08T00:28:24Z",
    "zip": "68041"
  },
  {
    "address": "2201 N Locust St",
    "city": "Wahoo",
    "county": "Saunders County",
    "created_at": "2012-01-04T20:15:59Z",
    "id": 15528,
    "latitude": "41.221563",
    "longitude": "-96.625506",
    "mascot": "Warriors",
    "name": "Wahoo High School",
    "primary_color": "Gold",
    "secondary_color": "Royal",
    "state": "NE",
    "timezone": "America/Chicago",
    "updated_at": "2012-07-08T00:28:25Z",
    "zip": "68066"
  },
  {
    "address": "201 Moravia Ave",
    "city": "Prague",
    "county": "Saunders County",
    "created_at": "2012-01-04T20:15:59Z",
    "id": 15529,
    "latitude": "41.309035",
    "longitude": "-96.806444",
    "mascot": "Panthers",
    "name": "Prague School",
    "primary_color": "Royal",
    "secondary_color": "White",
    "state": "NE",
    "timezone": "America/Chicago",
    "updated_at": "2012-07-08T00:28:25Z",
    "zip": "68050"
  },
  {
    "address": "1500 U St",
    "city": "Gering",
    "county": "Scotts Bluff County",
    "created_at": "2012-01-04T20:15:59Z",
    "id": 15530,
    "latitude": "41.830268",
    "longitude": "-103.666902",
    "mascot": null,
    "name": "Gering Senior High School",
    "primary_color": "Gold",
    "secondary_color": "Royal",
    "state": "NE",
    "timezone": "America/Denver",
    "updated_at": "2012-07-08T00:28:25Z",
    "zip": "69341"
  },
  {
    "address": "800 Q St",
    "city": "Gering",
    "county": "Scotts Bluff County",
    "created_at": "2012-01-04T20:15:59Z",
    "id": 15531,
    "latitude": "41.825808",
    "longitude": "-103.657671",
    "mascot": null,
    "name": "Gering Junior High School",
    "primary_color": "Gold",
    "secondary_color": "Royal",
    "state": "NE",
    "timezone": "America/Denver",
    "updated_at": "2012-07-08T00:28:25Z",
    "zip": "69341"
  },
  {
    "address": "1107 E 7th St",
    "city": "Minatare",
    "county": "Scotts Bluff County",
    "created_at": "2012-01-04T20:15:59Z",
    "id": 15532,
    "latitude": "41.812425",
    "longitude": "-103.501683",
    "mascot": "Indians",
    "name": "Minatare High School",
    "primary_color": "Red",
    "secondary_color": "White",
    "state": "NE",
    "timezone": "America/Denver",
    "updated_at": "2012-07-08T00:28:25Z",
    "zip": "69356"
  },
  {
    "address": "1819 19th Ave",
    "city": "Mitchell",
    "county": "Scotts Bluff County",
    "created_at": "2012-01-04T20:15:59Z",
    "id": 15533,
    "latitude": "41.945809",
    "longitude": "-103.813574",
    "mascot": null,
    "name": "Mitchell Junior Senior High School",
    "primary_color": "Black",
    "secondary_color": "Orange",
    "state": "NE",
    "timezone": "America/Denver",
    "updated_at": "2012-07-08T00:28:26Z",
    "zip": "69357"
  },
  {
    "address": "313 E 27th St",
    "city": "Scottsbluff",
    "county": "Scotts Bluff County",
    "created_at": "2012-01-04T20:15:59Z",
    "id": 15534,
    "latitude": "41.873910",
    "longitude": "-103.658430",
    "mascot": "Bearcats",
    "name": "Scottsbluff Senior High School",
    "primary_color": "Red",
    "secondary_color": "White",
    "state": "NE",
    "timezone": "America/Denver",
    "updated_at": "2012-07-08T00:28:26Z",
    "zip": "69361"
  },
  {
    "address": "301 G St",
    "city": "Milford",
    "county": "Seward County",
    "created_at": "2012-01-04T20:15:59Z",
    "id": 15535,
    "latitude": "40.772130",
    "longitude": "-97.059035",
    "mascot": null,
    "name": "Milford Junior Senior High School",
    "primary_color": "Purple",
    "secondary_color": "White",
    "state": "NE",
    "timezone": "America/Chicago",
    "updated_at": "2012-07-08T00:28:26Z",
    "zip": "68405"
  },
  {
    "address": "532 Northern Heights Dr",
    "city": "Seward",
    "county": "Seward County",
    "created_at": "2012-01-04T20:15:59Z",
    "id": 15536,
    "latitude": "40.921152",
    "longitude": "-97.098219",
    "mascot": null,
    "name": "Seward Senior High School",
    "primary_color": "Gold",
    "secondary_color": "Royal",
    "state": "NE",
    "timezone": "America/Chicago",
    "updated_at": "2012-07-08T00:28:27Z",
    "zip": "68434"
  },
  {
    "address": "1301 Centennial Ave",
    "city": "Utica",
    "county": "Seward County",
    "created_at": "2012-01-04T20:15:59Z",
    "id": 15537,
    "latitude": "40.891923",
    "longitude": "-97.349631",
    "mascot": "Broncos",
    "name": "Centennial Public School",
    "primary_color": "Royal",
    "secondary_color": "White",
    "state": "NE",
    "timezone": "America/Chicago",
    "updated_at": "2012-07-08T00:28:27Z",
    "zip": "68456"
  },
  {
    "address": "810 N Oak St",
    "city": "Gordon",
    "county": "Sheridan County",
    "created_at": "2012-01-04T20:15:59Z",
    "id": 15538,
    "latitude": "42.812237",
    "longitude": "-102.204582",
    "mascot": null,
    "name": "Gordon High School",
    "primary_color": "Gold",
    "secondary_color": "Navy",
    "state": "NE",
    "timezone": "America/Denver",
    "updated_at": "2012-07-08T00:28:27Z",
    "zip": "69343"
  },
  {
    "address": "310 E 4th St",
    "city": "Rushville",
    "county": "Sheridan County",
    "created_at": "2012-01-04T20:15:59Z",
    "id": 15539,
    "latitude": "42.715088",
    "longitude": "-102.460515",
    "mascot": "Mustangs",
    "name": "Gordon-Rushville Middle School",
    "primary_color": "Royal Blue",
    "secondary_color": "Orange",
    "state": "NE",
    "timezone": "America/Denver",
    "updated_at": "2012-07-08T00:28:28Z",
    "zip": "69360"
  },
  {
    "address": "PO Box 38",
    "city": "Harrison",
    "county": "Sioux County",
    "created_at": "2012-01-04T20:15:59Z",
    "id": 15540,
    "latitude": "42.476740",
    "longitude": "-103.793959",
    "mascot": null,
    "name": "Sioux County High School",
    "primary_color": "Purple",
    "secondary_color": "Gold",
    "state": "NE",
    "timezone": "America/Denver",
    "updated_at": "2012-07-08T00:28:28Z",
    "zip": "69346"
  },
  {
    "address": "1007 Kingwood St",
    "city": "Stanton",
    "county": "Stanton County",
    "created_at": "2012-01-04T20:15:59Z",
    "id": 15541,
    "latitude": "41.952162",
    "longitude": "-97.223938",
    "mascot": "Mustangs And Fillies",
    "name": "Stanton High School",
    "primary_color": "Orange",
    "secondary_color": "Black",
    "state": "NE",
    "timezone": "America/Chicago",
    "updated_at": "2012-07-08T00:28:28Z",
    "zip": "68779"
  },
  {
    "address": "340 Carroll St",
    "city": "Bruning",
    "county": "Thayer County",
    "created_at": "2012-01-04T20:15:59Z",
    "id": 15542,
    "latitude": "40.337210",
    "longitude": "-97.562708",
    "mascot": "Storm",
    "name": "Bruning-Davenport Public School",
    "primary_color": "Gray",
    "secondary_color": "Royal",
    "state": "NE",
    "timezone": "America/Chicago",
    "updated_at": "2012-07-08T00:28:28Z",
    "zip": "68322"
  },
  {
    "address": "3rd & Plum",
    "city": "Deshler",
    "county": "Thayer County",
    "created_at": "2012-01-04T20:15:59Z",
    "id": 15543,
    "latitude": "40.134170",
    "longitude": "-97.724219",
    "mascot": "Dragons",
    "name": "Deshler Public School",
    "primary_color": "Gold",
    "secondary_color": "Purple",
    "state": "NE",
    "timezone": "America/Chicago",
    "updated_at": "2012-07-08T00:28:29Z",
    "zip": "68340"
  },
  {
    "address": "10th & Eads",
    "city": "Hebron",
    "county": "Thayer County",
    "created_at": "2012-01-04T20:15:59Z",
    "id": 15544,
    "latitude": "40.170180",
    "longitude": "-97.581839",
    "mascot": "Bears",
    "name": "Thayer Central High School",
    "primary_color": "Red",
    "secondary_color": "Black",
    "state": "NE",
    "timezone": "America/Chicago",
    "updated_at": "2012-07-08T00:28:29Z",
    "zip": "68370"
  },
  {
    "address": "PO Box 248",
    "city": "Thedford",
    "county": "Thomas County",
    "created_at": "2012-01-04T20:15:59Z",
    "id": 15545,
    "latitude": "41.992680",
    "longitude": "-100.574313",
    "mascot": null,
    "name": "Thedford Junior Senior High School",
    "primary_color": "Red",
    "secondary_color": "White",
    "state": "NE",
    "timezone": "America/Chicago",
    "updated_at": "2012-07-08T00:28:29Z",
    "zip": "69166"
  },
  {
    "address": "320 W Owens St",
    "city": "Arcadia",
    "county": "Valley County",
    "created_at": "2012-01-04T20:15:59Z",
    "id": 15546,
    "latitude": "41.425325",
    "longitude": "-99.124729",
    "mascot": "Huskies",
    "name": "Arcadia School",
    "primary_color": "Red",
    "secondary_color": "White",
    "state": "NE",
    "timezone": "America/Chicago",
    "updated_at": "2012-07-08T00:28:30Z",
    "zip": "68815"
  },
  {
    "address": "18th & K St",
    "city": "Ord",
    "county": "Valley County",
    "created_at": "2012-01-04T20:15:59Z",
    "id": 15547,
    "latitude": "41.603960",
    "longitude": "-98.931719",
    "mascot": null,
    "name": "Ord Junior Senior High School",
    "primary_color": "Red",
    "secondary_color": "White",
    "state": "NE",
    "timezone": "America/Chicago",
    "updated_at": "2012-07-08T00:28:30Z",
    "zip": "68862"
  },
  {
    "address": "705 N 9th St",
    "city": "Arlington",
    "county": "Washington County",
    "created_at": "2012-01-04T20:15:59Z",
    "id": 15548,
    "latitude": "41.457372",
    "longitude": "-96.359091",
    "mascot": "Eagles",
    "name": "Arlington School",
    "primary_color": "Gold",
    "secondary_color": "Maroon",
    "state": "NE",
    "timezone": "America/Chicago",
    "updated_at": "2012-07-08T00:28:30Z",
    "zip": "68002"
  },
  {
    "address": "PO Box 288",
    "city": "Blair",
    "county": "Washington County",
    "created_at": "2012-01-04T20:15:59Z",
    "id": 15549,
    "latitude": "41.534370",
    "longitude": "-96.149109",
    "mascot": "Bears",
    "name": "Blair Junior Senior High School",
    "primary_color": "Purple",
    "secondary_color": "Gold",
    "state": "NE",
    "timezone": "America/Chicago",
    "updated_at": "2012-07-08T00:28:31Z",
    "zip": "68008"
  },
  {
    "address": "611 W 7th St",
    "city": "Wayne",
    "county": "Wayne County",
    "created_at": "2012-01-04T20:15:59Z",
    "id": 15550,
    "latitude": "42.235426",
    "longitude": "-97.025487",
    "mascot": "Devils",
    "name": "Wayne High School",
    "primary_color": "Royal",
    "secondary_color": "White",
    "state": "NE",
    "timezone": "America/Chicago",
    "updated_at": "2012-07-08T00:28:31Z",
    "zip": "68787"
  },
  {
    "address": "802 Highland St",
    "city": "Wakefield",
    "county": "Wayne County",
    "created_at": "2012-01-04T20:15:59Z",
    "id": 15551,
    "latitude": "42.263807",
    "longitude": "-96.868097",
    "mascot": "Trojans",
    "name": "Wakefield Community School",
    "primary_color": "Maroon",
    "secondary_color": "White",
    "state": "NE",
    "timezone": "America/Chicago",
    "updated_at": "2012-07-08T00:28:31Z",
    "zip": "68784"
  },
  {
    "address": "PO Box 158",
    "city": "Winside",
    "county": "Wayne County",
    "created_at": "2012-01-04T20:15:59Z",
    "id": 15552,
    "latitude": "42.163120",
    "longitude": "-97.183559",
    "mascot": null,
    "name": "Winside Public School",
    "primary_color": "Red",
    "secondary_color": "White",
    "state": "NE",
    "timezone": "America/Chicago",
    "updated_at": "2012-07-08T00:28:31Z",
    "zip": "68790"
  },
  {
    "address": "606 S Sycamore St",
    "city": "Blue Hill",
    "county": "Webster County",
    "created_at": "2012-01-04T20:15:59Z",
    "id": 15553,
    "latitude": "40.327301",
    "longitude": "-98.449595",
    "mascot": null,
    "name": "Blue Hill High School",
    "primary_color": "Royal",
    "secondary_color": "White",
    "state": "NE",
    "timezone": "America/Chicago",
    "updated_at": "2012-07-08T00:28:32Z",
    "zip": "68930"
  },
  {
    "address": "121 W 7th",
    "city": "Red Cloud",
    "county": "Webster County",
    "created_at": "2012-01-04T20:15:59Z",
    "id": 15554,
    "latitude": "40.091945",
    "longitude": "-98.519644",
    "mascot": "Warriors",
    "name": "Washington High School",
    "primary_color": "Gold",
    "secondary_color": "Red",
    "state": "NE",
    "timezone": "America/Chicago",
    "updated_at": "2012-07-08T00:28:32Z",
    "zip": "68970"
  },
  {
    "address": "206 E Jackson St",
    "city": "Bradshaw",
    "county": "York County",
    "created_at": "2012-01-04T20:15:59Z",
    "id": 15555,
    "latitude": "40.884098",
    "longitude": "-97.745621",
    "mascot": "Huskies",
    "name": "Heartland Community School",
    "primary_color": "Red",
    "secondary_color": "Black",
    "state": "NE",
    "timezone": "America/Chicago",
    "updated_at": "2012-07-08T00:28:32Z",
    "zip": "68319"
  },
  {
    "address": "1501 Front St",
    "city": "Henderson",
    "county": "York County",
    "created_at": "2012-01-04T20:15:59Z",
    "id": 15556,
    "latitude": "40.782045",
    "longitude": "-97.809702",
    "mascot": "Huskies",
    "name": "Henderson Attendance Center",
    "primary_color": "Maroon",
    "secondary_color": "White",
    "state": "NE",
    "timezone": "America/Chicago",
    "updated_at": "2012-07-08T00:28:33Z",
    "zip": "68371"
  },
  {
    "address": "209 S 2nd St",
    "city": "McCool Junction",
    "county": "York County",
    "created_at": "2012-01-04T20:15:59Z",
    "id": 15557,
    "latitude": "40.745464",
    "longitude": "-97.596187",
    "mascot": "Mustangs",
    "name": "McCool Junction School",
    "primary_color": "Gold",
    "secondary_color": "Black",
    "state": "NE",
    "timezone": "America/Chicago",
    "updated_at": "2012-07-08T00:28:33Z",
    "zip": "68401"
  },
  {
    "address": "HC 84 Box 94",
    "city": "Gordon",
    "county": "Sheridan County",
    "created_at": "2012-01-04T20:15:59Z",
    "id": 15558,
    "latitude": "42.524985",
    "longitude": "-102.214107",
    "mascot": null,
    "name": "Hart Lake District 134 School",
    "primary_color": "Red",
    "secondary_color": "White",
    "state": "NE",
    "timezone": "America/Denver",
    "updated_at": "2012-07-08T00:28:33Z",
    "zip": "69343"
  },
  {
    "address": "400 W F St",
    "city": "Elmwood",
    "county": "Cass County",
    "created_at": "2012-01-04T20:15:59Z",
    "id": 15559,
    "latitude": "40.843968",
    "longitude": "-96.298496",
    "mascot": "Knights",
    "name": "Murdock School",
    "primary_color": "Black",
    "secondary_color": "Gray",
    "state": "NE",
    "timezone": "America/Chicago",
    "updated_at": "2012-07-08T00:28:34Z",
    "zip": "68349"
  },
  {
    "address": "6th & J St",
    "city": "Neligh",
    "county": "Antelope County",
    "created_at": "2012-01-04T20:15:59Z",
    "id": 15560,
    "latitude": "42.130600",
    "longitude": "-98.025869",
    "mascot": "Warriors",
    "name": "Neligh-Oakdale High School",
    "primary_color": "Maroon",
    "secondary_color": "White",
    "state": "NE",
    "timezone": "America/Chicago",
    "updated_at": "2012-07-08T00:28:34Z",
    "zip": "68756"
  },
  {
    "address": "PO Box 158",
    "city": "Lodgepole",
    "county": "Cheyenne County",
    "created_at": "2012-01-04T20:15:59Z",
    "id": 15561,
    "latitude": "41.181490",
    "longitude": "-102.667238",
    "mascot": "Panthers",
    "name": "Lodgepole High School",
    "primary_color": "Royal",
    "secondary_color": "White",
    "state": "NE",
    "timezone": "America/Denver",
    "updated_at": "2012-07-08T00:28:34Z",
    "zip": "69149"
  },
  {
    "address": "Hwy 2 & Ewing",
    "city": "Merna",
    "county": "Custer County",
    "created_at": "2012-01-04T20:15:59Z",
    "id": 15562,
    "latitude": "41.485020",
    "longitude": "-99.768569",
    "mascot": "Coyotes",
    "name": "Anselmo-Merna Junior Senior High School",
    "primary_color": "Red",
    "secondary_color": "White",
    "state": "NE",
    "timezone": "America/Chicago",
    "updated_at": "2012-07-08T00:28:35Z",
    "zip": "68856"
  },
  {
    "address": "13270 Millard Ave",
    "city": "Omaha",
    "county": "Douglas County",
    "created_at": "2012-01-04T20:15:59Z",
    "id": 15563,
    "latitude": "41.211175",
    "longitude": "-96.121915",
    "mascot": "Cougars",
    "name": "Millard Learning Center",
    "primary_color": "Kelly Green",
    "secondary_color": "White",
    "state": "NE",
    "timezone": "America/Chicago",
    "updated_at": "2012-07-08T00:28:35Z",
    "zip": "68137"
  },
  {
    "address": "2316 S 18th St",
    "city": "Omaha",
    "county": "Douglas County",
    "created_at": "2012-01-04T20:15:59Z",
    "id": 15564,
    "latitude": "41.237920",
    "longitude": "-95.939697",
    "mascot": "Raiders",
    "name": "Wilson Center",
    "primary_color": "Gray",
    "secondary_color": "Black",
    "state": "NE",
    "timezone": "America/Chicago",
    "updated_at": "2012-07-08T00:28:35Z",
    "zip": "68108"
  },
  {
    "address": "2918 N 72nd St",
    "city": "Omaha",
    "county": "Douglas County",
    "created_at": "2012-01-04T20:15:59Z",
    "id": 15565,
    "latitude": "41.285324",
    "longitude": "-96.023907",
    "mascot": "Raiders",
    "name": "Blackburn Senior High Center",
    "primary_color": null,
    "secondary_color": null,
    "state": "NE",
    "timezone": "America/Chicago",
    "updated_at": "2012-07-08T00:28:36Z",
    "zip": "68111"
  },
  {
    "address": "4469 Farnam St",
    "city": "Omaha",
    "county": "Douglas County",
    "created_at": "2012-01-04T20:15:59Z",
    "id": 15566,
    "latitude": "41.257772",
    "longitude": "-95.980949",
    "mascot": null,
    "name": "Edwin Parrish School",
    "primary_color": "Black",
    "secondary_color": "White",
    "state": "NE",
    "timezone": "America/Chicago",
    "updated_at": "2012-07-08T00:28:36Z",
    "zip": "68131"
  },
  {
    "address": "620 S 31st St",
    "city": "Omaha",
    "county": "Douglas County",
    "created_at": "2012-01-04T20:15:59Z",
    "id": 15567,
    "latitude": "41.253826",
    "longitude": "-95.957904",
    "mascot": "Jaguars",
    "name": "Jackson School",
    "primary_color": "Royal",
    "secondary_color": "White",
    "state": "NE",
    "timezone": "America/Chicago",
    "updated_at": "2012-07-08T00:28:36Z",
    "zip": "68105"
  },
  {
    "address": "N Hwy 121",
    "city": "Crofton",
    "county": "Cedar County",
    "created_at": "2012-01-04T20:15:59Z",
    "id": 15568,
    "latitude": "42.847398",
    "longitude": "-97.477415",
    "mascot": "Warriors",
    "name": "Crofton High School",
    "primary_color": "Maroon",
    "secondary_color": "White",
    "state": "NE",
    "timezone": "America/Chicago",
    "updated_at": "2012-07-08T00:28:36Z",
    "zip": "68730"
  },
  {
    "address": "10002 NW 112th St",
    "city": "Malcolm",
    "county": "Lancaster County",
    "created_at": "2012-01-04T20:15:59Z",
    "id": 15569,
    "latitude": "40.913261",
    "longitude": "-96.872431",
    "mascot": "Clippers",
    "name": "Malcolm High School Middle School",
    "primary_color": "Royal",
    "secondary_color": "White",
    "state": "NE",
    "timezone": "America/Chicago",
    "updated_at": "2012-07-08T00:28:37Z",
    "zip": "68402"
  },
  {
    "address": "1511 W 14th St",
    "city": "North Platte",
    "county": "Lincoln County",
    "created_at": "2012-01-04T20:15:59Z",
    "id": 15570,
    "latitude": "41.150030",
    "longitude": "-100.778113",
    "mascot": null,
    "name": "Learning Center",
    "primary_color": null,
    "secondary_color": null,
    "state": "NE",
    "timezone": "America/Chicago",
    "updated_at": "2012-07-08T00:28:37Z",
    "zip": "69101"
  },
  {
    "address": "PO Box 139",
    "city": "Norfolk",
    "county": "Madison County",
    "created_at": "2012-01-04T20:15:59Z",
    "id": 15571,
    "latitude": "42.031410",
    "longitude": "-97.424719",
    "mascot": "Panthers",
    "name": "Norfolk Learning Center",
    "primary_color": "Maroon",
    "secondary_color": "White",
    "state": "NE",
    "timezone": "America/Chicago",
    "updated_at": "2012-07-08T00:28:37Z",
    "zip": "68701"
  },
  {
    "address": "5710 S 176th Ave",
    "city": "Omaha",
    "county": "Douglas County",
    "created_at": "2012-01-04T20:15:59Z",
    "id": 15572,
    "latitude": "41.200741",
    "longitude": "-96.192032",
    "mascot": "Wildcats",
    "name": "Millard West High School",
    "primary_color": "Hunter Green",
    "secondary_color": "Black",
    "state": "NE",
    "timezone": "America/Chicago",
    "updated_at": "2012-07-08T00:28:38Z",
    "zip": "68135"
  },
  {
    "address": "401 Walnut St",
    "city": "Sutherland",
    "county": "Lincoln County",
    "created_at": "2012-01-04T20:15:59Z",
    "id": 15573,
    "latitude": "41.159834",
    "longitude": "-101.126583",
    "mascot": "Sailors",
    "name": "Sutherland Public Schools",
    "primary_color": "Red",
    "secondary_color": "White",
    "state": "NE",
    "timezone": "America/Chicago",
    "updated_at": "2012-07-08T00:28:38Z",
    "zip": "69165"
  },
  {
    "address": "3131 S 156th St",
    "city": "Omaha",
    "county": "Douglas County",
    "created_at": "2012-01-04T20:15:59Z",
    "id": 15574,
    "latitude": "41.227472",
    "longitude": "-96.157762",
    "mascot": "Sky Hawks",
    "name": "V J & Angela Skutt Catholic High School",
    "primary_color": "Kelly Green",
    "secondary_color": "Black",
    "state": "NE",
    "timezone": "America/Chicago",
    "updated_at": "2012-07-08T00:28:38Z",
    "zip": "68130"
  },
  {
    "address": "43739 Hwy 89",
    "city": "Oxford",
    "county": "Furnas County",
    "created_at": "2012-01-04T20:15:59Z",
    "id": 15575,
    "latitude": "40.260083",
    "longitude": "-99.630637",
    "mascot": "Eagles",
    "name": "Southern Valley High School",
    "primary_color": "Purple",
    "secondary_color": "Black",
    "state": "NE",
    "timezone": "America/Chicago",
    "updated_at": "2012-07-08T00:28:38Z",
    "zip": "68967"
  },
  {
    "address": "107 Gandy Ave",
    "city": "Dunning",
    "county": "Blaine County",
    "created_at": "2012-01-04T20:15:59Z",
    "id": 15576,
    "latitude": "41.827255",
    "longitude": "-100.102704",
    "mascot": "Panthers",
    "name": "High School at Dunning",
    "primary_color": "Gold",
    "secondary_color": "Purple",
    "state": "NE",
    "timezone": "America/Chicago",
    "updated_at": "2012-07-08T00:28:39Z",
    "zip": "68833"
  },
  {
    "address": "203 Crawford",
    "city": "Winside",
    "county": "Wayne County",
    "created_at": "2012-01-04T20:15:59Z",
    "id": 15577,
    "latitude": "42.177608",
    "longitude": "-97.179565",
    "mascot": "Wildcats",
    "name": "Winside School",
    "primary_color": "Red",
    "secondary_color": "White",
    "state": "NE",
    "timezone": "America/Chicago",
    "updated_at": "2012-07-08T00:28:39Z",
    "zip": "68790"
  },
  {
    "address": "855 S 8th St",
    "city": "Lincoln",
    "county": "Lancaster County",
    "created_at": "2012-01-04T20:15:59Z",
    "id": 15578,
    "latitude": "40.805276",
    "longitude": "-96.710032",
    "mascot": null,
    "name": "Park Middle School",
    "primary_color": null,
    "secondary_color": null,
    "state": "NE",
    "timezone": "America/Chicago",
    "updated_at": "2012-07-08T00:28:39Z",
    "zip": "68508"
  },
  {
    "address": "3900 W.Husker Hwy",
    "city": "Grand Island",
    "county": "Hall County",
    "created_at": "2012-01-04T20:15:59Z",
    "id": 15579,
    "latitude": "40.887872",
    "longitude": "-98.393870",
    "mascot": "Hornets",
    "name": "Heartland Lutheran",
    "primary_color": "Red",
    "secondary_color": "Black",
    "state": "NE",
    "timezone": "America/Chicago",
    "updated_at": "2012-07-08T00:28:39Z",
    "zip": "68801"
  },
  {
    "address": "5801 N 33rd St",
    "city": "Lincoln",
    "county": "Lancaster County",
    "created_at": "2012-01-04T20:16:00Z",
    "id": 15580,
    "latitude": "40.869972",
    "longitude": "-96.672572",
    "mascot": null,
    "name": "Lincoln Northstar High School",
    "primary_color": null,
    "secondary_color": null,
    "state": "NE",
    "timezone": "America/Chicago",
    "updated_at": "2012-07-08T00:28:40Z",
    "zip": "68504"
  },
  {
    "address": "72520 Hwy 103",
    "city": "De Witt",
    "county": "Jefferson County",
    "created_at": "2012-01-04T20:16:00Z",
    "id": 15581,
    "latitude": "40.340704",
    "longitude": "-96.916062",
    "mascot": null,
    "name": "Tri-Co School District 300",
    "primary_color": null,
    "secondary_color": null,
    "state": "NE",
    "timezone": "America/Chicago",
    "updated_at": "2012-07-08T00:28:40Z",
    "zip": "68341"
  },
  {
    "address": "10799 Hwy 370",
    "city": "Papillion",
    "county": "Sarpy County",
    "created_at": "2012-01-04T20:16:00Z",
    "id": 15582,
    "latitude": "41.147402",
    "longitude": "-96.079601",
    "mascot": "Titans",
    "name": "Papillion-La Vista South High School",
    "primary_color": "Royal",
    "secondary_color": "Gold",
    "state": "NE",
    "timezone": "America/Chicago",
    "updated_at": "2012-07-08T00:28:40Z",
    "zip": "68046"
  },
  {
    "address": "400 S 5th St",
    "city": "Lyons",
    "county": "Burt County",
    "created_at": "2012-01-04T20:16:00Z",
    "id": 15583,
    "latitude": "41.934546",
    "longitude": "-96.473080",
    "mascot": "Cougars",
    "name": "Lyons-Decatur-Northeast High School",
    "primary_color": "Raspberry",
    "secondary_color": "Gold",
    "state": "NE",
    "timezone": "America/Chicago",
    "updated_at": "2012-07-08T00:28:41Z",
    "zip": "68038"
  },
  {
    "address": "810 Central Avenue",
    "city": "Humboldt",
    "county": "Richardson County",
    "created_at": "2012-01-04T20:16:00Z",
    "id": 15584,
    "latitude": "40.167598",
    "longitude": "-95.947071",
    "mascot": "Titan",
    "name": "Humboldt-Table Rock-Steinauer School",
    "primary_color": "Navy",
    "secondary_color": "Grey",
    "state": "NE",
    "timezone": "America/Chicago",
    "updated_at": "2012-07-08T00:28:41Z",
    "zip": "68376"
  },
  {
    "address": "330 S 44th St",
    "city": "Omaha",
    "county": "Douglas County",
    "created_at": "2012-01-04T20:16:00Z",
    "id": 15585,
    "latitude": "41.257023",
    "longitude": "-95.978602",
    "mascot": "Pandas",
    "name": "J P Lord School",
    "primary_color": "Ash Grey",
    "secondary_color": "Purple",
    "state": "NE",
    "timezone": "America/Chicago",
    "updated_at": "2012-07-08T00:28:41Z",
    "zip": "68131"
  },
  {
    "address": "6960 South 110th Street",
    "city": "Omaha",
    "county": "Sarpy County",
    "created_at": "2012-01-04T20:16:00Z",
    "id": 15586,
    "latitude": "41.189247",
    "longitude": "-96.088122",
    "mascot": null,
    "name": "Brook Valley South School",
    "primary_color": null,
    "secondary_color": null,
    "state": "NE",
    "timezone": "America/Chicago",
    "updated_at": "2012-07-08T00:28:42Z",
    "zip": "68128"
  },
  {
    "address": "2124 North Lafayette",
    "city": "Grand Island",
    "county": "Hall County",
    "created_at": "2012-01-04T20:16:00Z",
    "id": 15587,
    "latitude": "40.927950",
    "longitude": "-98.392697",
    "mascot": "Islanders",
    "name": "Sands Senior High School",
    "primary_color": "Purple",
    "secondary_color": "Yellow",
    "state": "NE",
    "timezone": "America/Chicago",
    "updated_at": "2012-07-08T00:28:43Z",
    "zip": "68803"
  },
  {
    "address": "415 8th St",
    "city": "Adams",
    "county": "Gage County",
    "created_at": "2012-01-04T20:16:00Z",
    "id": 15588,
    "latitude": "40.456900",
    "longitude": "-96.511069",
    "mascot": "Falcons",
    "name": "Freeman High School",
    "primary_color": "Gray ",
    "secondary_color": "Columbia Blue",
    "state": "NE",
    "timezone": "America/Chicago",
    "updated_at": "2012-07-08T00:28:43Z",
    "zip": "68301"
  },
  {
    "address": "729 E St",
    "city": "Pawnee City",
    "county": "Pawnee County",
    "created_at": "2012-01-04T20:16:00Z",
    "id": 15589,
    "latitude": "40.109828",
    "longitude": "-96.155644",
    "mascot": null,
    "name": "Pawnee City Secondary School",
    "primary_color": "Red",
    "secondary_color": "Black",
    "state": "NE",
    "timezone": "America/Chicago",
    "updated_at": "2012-07-08T00:28:43Z",
    "zip": "68420"
  },
  {
    "address": "600 Randolph West",
    "city": "Bartlett",
    "county": "Wheeler County",
    "created_at": "2012-01-04T20:16:00Z",
    "id": 15590,
    "latitude": "41.885402",
    "longitude": "-98.557144",
    "mascot": "Broncos",
    "name": "Wheeler Central High School",
    "primary_color": "Orange",
    "secondary_color": "Black",
    "state": "NE",
    "timezone": "America/Chicago",
    "updated_at": "2012-07-08T00:28:43Z",
    "zip": "68622"
  }
]