[
  {
    "address": "1501 Barley Mill Rd",
    "city": "Wilmington",
    "county": "New Castle County",
    "created_at": "2012-01-04T20:13:53Z",
    "id": 4822,
    "latitude": "39.770632",
    "longitude": "-75.616633",
    "mascot": "Hornets",
    "name": "The Tatnall School",
    "primary_color": "Gold",
    "secondary_color": "Black",
    "state": "DE",
    "timezone": "America/New_York",
    "updated_at": "2012-07-07T23:15:28Z",
    "zip": "19807"
  },
  {
    "address": "1390 Red Lion Rd",
    "city": "Bear",
    "county": "New Castle County",
    "created_at": "2012-01-04T20:13:53Z",
    "id": 4823,
    "latitude": "39.598425",
    "longitude": "-75.673196",
    "mascot": "Lions",
    "name": "Red Lion Christian Academy",
    "primary_color": "Gold",
    "secondary_color": "Red",
    "state": "DE",
    "timezone": "America/New_York",
    "updated_at": "2012-07-07T23:15:29Z",
    "zip": "19701"
  },
  {
    "address": "239 Old North Rd",
    "city": "Camden",
    "county": "Kent County",
    "created_at": "2012-01-04T20:13:53Z",
    "id": 4824,
    "latitude": "39.118290",
    "longitude": "-75.542983",
    "mascot": "Riders",
    "name": "Caesar Rodney High School",
    "primary_color": "Gold",
    "secondary_color": "Royal",
    "state": "DE",
    "timezone": "America/New_York",
    "updated_at": "2012-07-07T23:15:30Z",
    "zip": "19934"
  },
  {
    "address": "399 N Market St",
    "city": "Seaford",
    "county": "Sussex County",
    "created_at": "2012-01-04T20:13:53Z",
    "id": 4825,
    "latitude": "38.645968",
    "longitude": "-75.612244",
    "mascot": "Blue Jays",
    "name": "Seaford High School",
    "primary_color": "Gold",
    "secondary_color": "Royal",
    "state": "DE",
    "timezone": "America/New_York",
    "updated_at": "2012-07-07T23:15:31Z",
    "zip": "19973"
  },
  {
    "address": "18962 Johnson Rd",
    "city": "Lincoln",
    "county": "Sussex County",
    "created_at": "2012-01-04T20:13:53Z",
    "id": 4826,
    "latitude": "38.870876",
    "longitude": "-75.411099",
    "mascot": "Cougars",
    "name": "Christian Tabernacle Academy",
    "primary_color": "Hunter Green",
    "secondary_color": "White",
    "state": "DE",
    "timezone": "America/New_York",
    "updated_at": "2012-07-07T23:15:32Z",
    "zip": "19960"
  },
  {
    "address": "12802 Mennonite School Rd",
    "city": "Greenwood",
    "county": "Sussex County",
    "created_at": "2012-01-04T20:13:53Z",
    "id": 4827,
    "latitude": "38.811807",
    "longitude": "-75.564355",
    "mascot": "Flames",
    "name": "Greenwood Mennonite School",
    "primary_color": "Gold",
    "secondary_color": "Kelly Green",
    "state": "DE",
    "timezone": "America/New_York",
    "updated_at": "2012-07-07T23:15:33Z",
    "zip": "19950"
  },
  {
    "address": "307 Laws St",
    "city": "Bridgeville",
    "county": "Sussex County",
    "created_at": "2012-01-04T20:13:53Z",
    "id": 4828,
    "latitude": "38.739841",
    "longitude": "-75.601417",
    "mascot": "Raiders",
    "name": "Woodbridge Junior Senior High School",
    "primary_color": "Royal",
    "secondary_color": "White",
    "state": "DE",
    "timezone": "America/New_York",
    "updated_at": "2012-07-07T23:15:34Z",
    "zip": "19933"
  },
  {
    "address": "801 Seymour Rd",
    "city": "Bear",
    "county": "New Castle County",
    "created_at": "2012-01-04T20:13:53Z",
    "id": 4829,
    "latitude": "39.643215",
    "longitude": "-75.645011",
    "mascot": "Knights",
    "name": "Fairwinds Christian School",
    "primary_color": "Gold",
    "secondary_color": "Kelly Green",
    "state": "DE",
    "timezone": "America/New_York",
    "updated_at": "2012-07-07T23:15:35Z",
    "zip": "19701"
  },
  {
    "address": "2813 W 17th St",
    "city": "Wilmington",
    "county": "New Castle County",
    "created_at": "2012-01-04T20:13:53Z",
    "id": 4830,
    "latitude": "39.764438",
    "longitude": "-75.576909",
    "mascot": "Tigers",
    "name": "Tower Hill School",
    "primary_color": "Hunter Green",
    "secondary_color": "White",
    "state": "DE",
    "timezone": "America/New_York",
    "updated_at": "2012-07-07T23:15:36Z",
    "zip": "19806"
  },
  {
    "address": "101 School Rd",
    "city": "Wilmington",
    "county": "New Castle County",
    "created_at": "2012-01-04T20:13:53Z",
    "id": 4831,
    "latitude": "39.767603",
    "longitude": "-75.550442",
    "mascot": null,
    "name": "Wilmington Friends School",
    "primary_color": "Navy",
    "secondary_color": "White",
    "state": "DE",
    "timezone": "America/New_York",
    "updated_at": "2012-07-07T23:15:37Z",
    "zip": "19803"
  },
  {
    "address": "2801 Del Laws Rd",
    "city": "Bear",
    "county": "New Castle County",
    "created_at": "2012-01-04T20:13:53Z",
    "id": 4832,
    "latitude": "39.598378",
    "longitude": "-75.717833",
    "mascot": "Buccaneers",
    "name": "Caravel Academy",
    "primary_color": "Maroon",
    "secondary_color": "White",
    "state": "DE",
    "timezone": "America/New_York",
    "updated_at": "2012-07-07T23:15:38Z",
    "zip": "19701"
  },
  {
    "address": "5407 Killens Pond Rd",
    "city": "Felton",
    "county": "Kent County",
    "created_at": "2012-01-04T20:13:53Z",
    "id": 4833,
    "latitude": "38.989253",
    "longitude": "-75.552234",
    "mascot": "Spartans",
    "name": "Lake Forest High School",
    "primary_color": "Columbia Blue",
    "secondary_color": "Navy",
    "state": "DE",
    "timezone": "America/New_York",
    "updated_at": "2012-07-07T23:15:40Z",
    "zip": "19943"
  },
  {
    "address": "1019 N Walnut St",
    "city": "Milford",
    "county": "Kent County",
    "created_at": "2012-01-04T20:13:53Z",
    "id": 4834,
    "latitude": "38.929243",
    "longitude": "-75.429322",
    "mascot": "Buccaneers",
    "name": "Milford High School",
    "primary_color": "Gold",
    "secondary_color": "Maroon",
    "state": "DE",
    "timezone": "America/New_York",
    "updated_at": "2012-07-07T23:15:41Z",
    "zip": "19963"
  },
  {
    "address": "750 E Delaware Ave",
    "city": "Newark",
    "county": "New Castle County",
    "created_at": "2012-01-04T20:13:53Z",
    "id": 4835,
    "latitude": "39.681459",
    "longitude": "-75.737543",
    "mascot": "Yellow Jackets",
    "name": "Newark High School",
    "primary_color": "Gold",
    "secondary_color": "Black",
    "state": "DE",
    "timezone": "America/New_York",
    "updated_at": "2012-07-07T23:15:42Z",
    "zip": "19711"
  },
  {
    "address": "713 E Basin Rd",
    "city": "New Castle",
    "county": "New Castle County",
    "created_at": "2012-01-04T20:13:53Z",
    "id": 4836,
    "latitude": "39.670405",
    "longitude": "-75.583373",
    "mascot": "Colonials",
    "name": "William Penn High School",
    "primary_color": "Red",
    "secondary_color": "Black",
    "state": "DE",
    "timezone": "America/New_York",
    "updated_at": "2012-07-07T23:15:43Z",
    "zip": "19720"
  },
  {
    "address": "2510 Marsh Rd",
    "city": "Wilmington",
    "county": "New Castle County",
    "created_at": "2012-01-04T20:13:53Z",
    "id": 4837,
    "latitude": "39.823122",
    "longitude": "-75.486834",
    "mascot": "Patriots",
    "name": "Concord Christian Academy",
    "primary_color": "Gold",
    "secondary_color": "Royal",
    "state": "DE",
    "timezone": "America/New_York",
    "updated_at": "2012-07-07T23:15:44Z",
    "zip": "19810"
  },
  {
    "address": "1106 Pennsylvania Ave",
    "city": "Wilmington",
    "county": "New Castle County",
    "created_at": "2012-01-04T20:13:53Z",
    "id": 4838,
    "latitude": "39.752583",
    "longitude": "-75.556710",
    "mascot": "Raiders",
    "name": "Ursuline Academy",
    "primary_color": "Red",
    "secondary_color": "White",
    "state": "DE",
    "timezone": "America/New_York",
    "updated_at": "2012-07-07T23:15:45Z",
    "zip": "19806"
  },
  {
    "address": "3600 Philadelphia Pike",
    "city": "Claymont",
    "county": "New Castle County",
    "created_at": "2012-01-04T20:13:53Z",
    "id": 4839,
    "latitude": "39.803369",
    "longitude": "-75.456374",
    "mascot": "Auks",
    "name": "Archmere Academy",
    "primary_color": "Kelly Green",
    "secondary_color": "White",
    "state": "DE",
    "timezone": "America/New_York",
    "updated_at": "2012-07-07T23:15:47Z",
    "zip": "19703"
  },
  {
    "address": "905 N Broom St",
    "city": "Wilmington",
    "county": "New Castle County",
    "created_at": "2012-01-04T20:13:53Z",
    "id": 4840,
    "latitude": "39.750718",
    "longitude": "-75.562786",
    "mascot": null,
    "name": "Padua Academy",
    "primary_color": null,
    "secondary_color": null,
    "state": "DE",
    "timezone": "America/New_York",
    "updated_at": "2012-07-07T23:15:48Z",
    "zip": "19806"
  },
  {
    "address": "1801 N Broom St",
    "city": "Wilmington",
    "county": "New Castle County",
    "created_at": "2012-01-04T20:13:53Z",
    "id": 4841,
    "latitude": "39.759914",
    "longitude": "-75.550202",
    "mascot": null,
    "name": "Salesianum School",
    "primary_color": "Gold",
    "secondary_color": "White",
    "state": "DE",
    "timezone": "America/New_York",
    "updated_at": "2012-07-07T23:15:49Z",
    "zip": "19802"
  },
  {
    "address": "2501 Pike Creek Rd",
    "city": "Wilmington",
    "county": "New Castle County",
    "created_at": "2012-01-04T20:13:53Z",
    "id": 4842,
    "latitude": "39.712854",
    "longitude": "-75.684273",
    "mascot": "Spartans",
    "name": "Saint Marks High School",
    "primary_color": "Hunter Green",
    "secondary_color": "Gold",
    "state": "DE",
    "timezone": "America/New_York",
    "updated_at": "2012-07-07T23:15:50Z",
    "zip": "19808"
  },
  {
    "address": "1500 Cedar St",
    "city": "Wilmington",
    "county": "New Castle County",
    "created_at": "2012-01-04T20:13:53Z",
    "id": 4843,
    "latitude": "39.738168",
    "longitude": "-75.572855",
    "mascot": "Vikings",
    "name": "Saint Elizabeth High School",
    "primary_color": "Maroon",
    "secondary_color": "Gold",
    "state": "DE",
    "timezone": "America/New_York",
    "updated_at": "2012-07-07T23:15:51Z",
    "zip": "19805"
  },
  {
    "address": "4462 W Denneys Rd",
    "city": "Dover",
    "county": "Kent County",
    "created_at": "2012-01-04T20:13:53Z",
    "id": 4844,
    "latitude": "39.190080",
    "longitude": "-75.572633",
    "mascot": "Cougars",
    "name": "Kent Christian Academy",
    "primary_color": "Gold",
    "secondary_color": "Navy",
    "state": "DE",
    "timezone": "America/New_York",
    "updated_at": "2012-07-07T23:15:53Z",
    "zip": "19904"
  },
  {
    "address": "220 W Denny's Rd",
    "city": "Dover",
    "county": "Kent County",
    "created_at": "2012-01-04T20:13:53Z",
    "id": 4845,
    "latitude": "39.172881",
    "longitude": "-75.647401",
    "mascot": null,
    "name": "Central Christian School",
    "primary_color": "Gold",
    "secondary_color": "Maroon",
    "state": "DE",
    "timezone": "America/New_York",
    "updated_at": "2012-07-07T23:15:54Z",
    "zip": "19904"
  },
  {
    "address": "401 Kesselring Ave",
    "city": "Dover",
    "county": "Kent County",
    "created_at": "2012-01-04T20:13:53Z",
    "id": 4846,
    "latitude": "39.136150",
    "longitude": "-75.539888",
    "mascot": "Owls",
    "name": "Capitol Baptist School",
    "primary_color": "Gold",
    "secondary_color": "Royal",
    "state": "DE",
    "timezone": "America/New_York",
    "updated_at": "2012-07-07T23:15:55Z",
    "zip": "19904"
  },
  {
    "address": "6900 Lancaster Pike",
    "city": "Hockessin",
    "county": "New Castle County",
    "created_at": "2012-01-04T20:13:53Z",
    "id": 4847,
    "latitude": "39.776326",
    "longitude": "-75.675986",
    "mascot": "Warriors",
    "name": "Sanford School",
    "primary_color": "Gold",
    "secondary_color": "Navy",
    "state": "DE",
    "timezone": "America/New_York",
    "updated_at": "2012-07-07T23:15:56Z",
    "zip": "19707"
  },
  {
    "address": "901 E Basin Rd",
    "city": "New Castle",
    "county": "New Castle County",
    "created_at": "2012-01-04T20:13:53Z",
    "id": 4848,
    "latitude": "39.666593",
    "longitude": "-75.580689",
    "mascot": "Eagles",
    "name": "New Castle Baptist Academy",
    "primary_color": "Gold",
    "secondary_color": "Maroon",
    "state": "DE",
    "timezone": "America/New_York",
    "updated_at": "2012-07-07T23:15:57Z",
    "zip": "19720"
  },
  {
    "address": "6201 Kennett Pike",
    "city": "Wilmington",
    "county": "New Castle County",
    "created_at": "2012-01-04T20:13:53Z",
    "id": 4849,
    "latitude": "39.829508",
    "longitude": "-75.624677",
    "mascot": null,
    "name": "Centreville School",
    "primary_color": "Royal",
    "secondary_color": "White",
    "state": "DE",
    "timezone": "America/New_York",
    "updated_at": "2012-07-07T23:15:59Z",
    "zip": "19807"
  },
  {
    "address": "350 Noxontown Rd",
    "city": "Middletown",
    "county": "New Castle County",
    "created_at": "2012-01-04T20:13:53Z",
    "id": 4850,
    "latitude": "39.475492",
    "longitude": "-75.699407",
    "mascot": "Cardinals",
    "name": "Saint Andrew's School",
    "primary_color": "Red",
    "secondary_color": "Black",
    "state": "DE",
    "timezone": "America/New_York",
    "updated_at": "2012-07-07T23:16:00Z",
    "zip": "19709"
  },
  {
    "address": "180 School Bell Rd",
    "city": "Bear",
    "county": "New Castle County",
    "created_at": "2012-01-04T20:13:53Z",
    "id": 4851,
    "latitude": "39.652177",
    "longitude": "-75.646095",
    "mascot": null,
    "name": "Highland Mennonite School",
    "primary_color": null,
    "secondary_color": null,
    "state": "DE",
    "timezone": "America/New_York",
    "updated_at": "2012-07-07T23:16:01Z",
    "zip": "19701"
  },
  {
    "address": "904 Old Wilmington Rd",
    "city": "Hockessin",
    "county": "New Castle County",
    "created_at": "2012-01-04T20:13:53Z",
    "id": 4852,
    "latitude": "39.778857",
    "longitude": "-75.665155",
    "mascot": "Warriors",
    "name": "Wilmington Christian School",
    "primary_color": "Red",
    "secondary_color": "White",
    "state": "DE",
    "timezone": "America/New_York",
    "updated_at": "2012-07-07T23:16:02Z",
    "zip": "19707"
  },
  {
    "address": "110 Holly St",
    "city": "Seaford",
    "county": "Sussex County",
    "created_at": "2012-01-04T20:13:53Z",
    "id": 4853,
    "latitude": "38.645640",
    "longitude": "-75.618290",
    "mascot": "Eagles",
    "name": "Seaford Christian Academy",
    "primary_color": "Gold",
    "secondary_color": "Royal",
    "state": "DE",
    "timezone": "America/New_York",
    "updated_at": "2012-07-07T23:16:03Z",
    "zip": "19973"
  },
  {
    "address": "6062 Old Shawnee Rd",
    "city": "Milford",
    "county": "Sussex County",
    "created_at": "2012-01-04T20:13:53Z",
    "id": 4854,
    "latitude": "38.904413",
    "longitude": "-75.446983",
    "mascot": "Crusaders",
    "name": "Milford Christian School",
    "primary_color": "Maroon",
    "secondary_color": "Gray",
    "state": "DE",
    "timezone": "America/New_York",
    "updated_at": "2012-07-07T23:16:05Z",
    "zip": "19963"
  },
  {
    "address": "PO Box 100",
    "city": "Georgetown",
    "county": "Sussex County",
    "created_at": "2012-01-04T20:13:53Z",
    "id": 4855,
    "latitude": "38.680005",
    "longitude": "-75.394249",
    "mascot": "Crusaders",
    "name": "King's Kids Academy",
    "primary_color": "Royal",
    "secondary_color": "White",
    "state": "DE",
    "timezone": "America/New_York",
    "updated_at": "2012-07-07T23:16:06Z",
    "zip": "19947"
  },
  {
    "address": "1 Pat Lynn Dr",
    "city": "Dover",
    "county": "Kent County",
    "created_at": "2012-01-04T20:13:53Z",
    "id": 4856,
    "latitude": "39.171299",
    "longitude": "-75.538648",
    "mascot": "Senators",
    "name": "Dover High School",
    "primary_color": "Royal",
    "secondary_color": "White",
    "state": "DE",
    "timezone": "America/New_York",
    "updated_at": "2012-07-07T23:16:07Z",
    "zip": "19904"
  },
  {
    "address": "65-1 Carver Rd",
    "city": "Dover",
    "county": "Kent County",
    "created_at": "2012-01-04T20:13:53Z",
    "id": 4857,
    "latitude": "39.160306",
    "longitude": "-75.541582",
    "mascot": null,
    "name": "Kent County Community School",
    "primary_color": "Royal",
    "secondary_color": "White",
    "state": "DE",
    "timezone": "America/New_York",
    "updated_at": "2012-07-07T23:16:08Z",
    "zip": "19904"
  },
  {
    "address": "500 Duck Creek Pky",
    "city": "Smyrna",
    "county": "Kent County",
    "created_at": "2012-01-04T20:13:53Z",
    "id": 4858,
    "latitude": "39.300981",
    "longitude": "-75.628337",
    "mascot": "Eagles",
    "name": "Smyrna High School",
    "primary_color": "Red",
    "secondary_color": "White",
    "state": "DE",
    "timezone": "America/New_York",
    "updated_at": "2012-07-07T23:16:16Z",
    "zip": "19977"
  },
  {
    "address": "823 Walnut Shade Rd",
    "city": "Woodside",
    "county": "Kent County",
    "created_at": "2012-01-04T20:13:53Z",
    "id": 4859,
    "latitude": "39.073540",
    "longitude": "-75.553119",
    "mascot": "Panthers",
    "name": "Polytech High School",
    "primary_color": "Red",
    "secondary_color": "Black",
    "state": "DE",
    "timezone": "America/New_York",
    "updated_at": "2012-07-07T23:16:17Z",
    "zip": "19980"
  },
  {
    "address": "120 Silver Lake Rd",
    "city": "Middletown",
    "county": "New Castle County",
    "created_at": "2012-01-04T20:13:53Z",
    "id": 4860,
    "latitude": "39.442695",
    "longitude": "-75.694245",
    "mascot": "Cavaliers",
    "name": "Middletown High School",
    "primary_color": "Royal",
    "secondary_color": "White",
    "state": "DE",
    "timezone": "America/New_York",
    "updated_at": "2012-07-07T23:16:19Z",
    "zip": "19709"
  },
  {
    "address": "1400 Foulk Rd",
    "city": "Wilmington",
    "county": "New Castle County",
    "created_at": "2012-01-04T20:13:53Z",
    "id": 4861,
    "latitude": "39.799532",
    "longitude": "-75.523227",
    "mascot": "Bulldogs",
    "name": "Brandywine High School",
    "primary_color": "Royal",
    "secondary_color": "White",
    "state": "DE",
    "timezone": "America/New_York",
    "updated_at": "2012-07-07T23:16:20Z",
    "zip": "19803"
  },
  {
    "address": "2501 Ebright Rd",
    "city": "Wilmington",
    "county": "New Castle County",
    "created_at": "2012-01-04T20:13:53Z",
    "id": 4862,
    "latitude": "39.828854",
    "longitude": "-75.524170",
    "mascot": "Raiders",
    "name": "Concord High School",
    "primary_color": "Maroon",
    "secondary_color": "White",
    "state": "DE",
    "timezone": "America/New_York",
    "updated_at": "2012-07-07T23:16:21Z",
    "zip": "19810"
  },
  {
    "address": "5201 Washington St Ext",
    "city": "Wilmington",
    "county": "New Castle County",
    "created_at": "2012-01-04T20:13:53Z",
    "id": 4863,
    "latitude": "39.771763",
    "longitude": "-75.505326",
    "mascot": "Green Knights",
    "name": "Mount Pleasant High School",
    "primary_color": "Hunter Green",
    "secondary_color": "White",
    "state": "DE",
    "timezone": "America/New_York",
    "updated_at": "2012-07-07T23:16:22Z",
    "zip": "19809"
  },
  {
    "address": "50 Hillside Rd",
    "city": "Greenville",
    "county": "New Castle County",
    "created_at": "2012-01-04T20:13:53Z",
    "id": 4864,
    "latitude": "39.778707",
    "longitude": "-75.601131",
    "mascot": "Tigers",
    "name": "Alexis I Dupont High School",
    "primary_color": "Royal",
    "secondary_color": "Gold",
    "state": "DE",
    "timezone": "America/New_York",
    "updated_at": "2012-07-07T23:16:24Z",
    "zip": "19807"
  },
  {
    "address": "1801 Milltown Rd",
    "city": "Wilmington",
    "county": "New Castle County",
    "created_at": "2012-01-04T20:13:53Z",
    "id": 4865,
    "latitude": "39.726721",
    "longitude": "-75.670835",
    "mascot": "Rams",
    "name": "John Dickinson High School",
    "primary_color": "Black",
    "secondary_color": "White",
    "state": "DE",
    "timezone": "America/New_York",
    "updated_at": "2012-07-07T23:16:25Z",
    "zip": "19808"
  },
  {
    "address": "301 McKennan's Church Rd",
    "city": "Wilmington",
    "county": "New Castle County",
    "created_at": "2012-01-04T20:13:53Z",
    "id": 4866,
    "latitude": "39.757980",
    "longitude": "-75.661328",
    "mascot": "Highlanders",
    "name": "Thomas McKean High School",
    "primary_color": "Navy",
    "secondary_color": "Hunter Green",
    "state": "DE",
    "timezone": "America/New_York",
    "updated_at": "2012-07-07T23:16:26Z",
    "zip": "19808"
  },
  {
    "address": "1621 Telegraph Rd",
    "city": "Wilmington",
    "county": "New Castle County",
    "created_at": "2012-01-04T20:13:53Z",
    "id": 4867,
    "latitude": "39.711563",
    "longitude": "-75.652340",
    "mascot": "Cougars",
    "name": "The Community School",
    "primary_color": "Gold",
    "secondary_color": "Royal",
    "state": "DE",
    "timezone": "America/New_York",
    "updated_at": "2012-07-07T23:16:27Z",
    "zip": "19804"
  },
  {
    "address": "190 Salem Church Rd",
    "city": "Newark",
    "county": "New Castle County",
    "created_at": "2012-01-04T20:13:53Z",
    "id": 4868,
    "latitude": "39.663813",
    "longitude": "-75.696340",
    "mascot": "Vikings",
    "name": "Christiana High School",
    "primary_color": "Royal",
    "secondary_color": "White",
    "state": "DE",
    "timezone": "America/New_York",
    "updated_at": "2012-07-07T23:16:29Z",
    "zip": "19713"
  },
  {
    "address": "1901 S College Ave",
    "city": "Newark",
    "county": "New Castle County",
    "created_at": "2012-01-04T20:13:53Z",
    "id": 4869,
    "latitude": "39.628508",
    "longitude": "-75.743780",
    "mascot": "Dragons",
    "name": "Glasgow High School",
    "primary_color": "Gold",
    "secondary_color": "Red",
    "state": "DE",
    "timezone": "America/New_York",
    "updated_at": "2012-07-07T23:16:30Z",
    "zip": "19702"
  },
  {
    "address": "1800 Prospect Rd",
    "city": "Wilmington",
    "county": "New Castle County",
    "created_at": "2012-01-04T20:13:53Z",
    "id": 4870,
    "latitude": "39.738523",
    "longitude": "-75.581178",
    "mascot": null,
    "name": "Joseph H Douglass Alternative Center",
    "primary_color": null,
    "secondary_color": null,
    "state": "DE",
    "timezone": "America/New_York",
    "updated_at": "2012-07-07T23:16:31Z",
    "zip": "19805"
  },
  {
    "address": "1133 S Central Ave",
    "city": "Laurel",
    "county": "Sussex County",
    "created_at": "2012-01-04T20:13:53Z",
    "id": 4871,
    "latitude": "38.547214",
    "longitude": "-75.569430",
    "mascot": "Bulldogs",
    "name": "Laurel High School",
    "primary_color": "Red",
    "secondary_color": "White",
    "state": "DE",
    "timezone": "America/New_York",
    "updated_at": "2012-07-07T23:16:32Z",
    "zip": "19956"
  },
  {
    "address": "1250 King's Hwy",
    "city": "Lewes",
    "county": "Sussex County",
    "created_at": "2012-01-04T20:13:53Z",
    "id": 4872,
    "latitude": "38.754165",
    "longitude": "-75.149057",
    "mascot": "Vikings",
    "name": "Cape Henlopen High School",
    "primary_color": "Columbia Blue",
    "secondary_color": "Gold",
    "state": "DE",
    "timezone": "America/New_York",
    "updated_at": "2012-07-07T23:16:34Z",
    "zip": "19958"
  },
  {
    "address": "26026 Patriots Way",
    "city": "Georgetown",
    "county": "Sussex County",
    "created_at": "2012-01-04T20:13:53Z",
    "id": 4873,
    "latitude": "38.628019",
    "longitude": "-75.322978",
    "mascot": "Golden Knights",
    "name": "Sussex Central High School",
    "primary_color": "Royal",
    "secondary_color": "White",
    "state": "DE",
    "timezone": "America/New_York",
    "updated_at": "2012-07-07T23:16:35Z",
    "zip": "19947"
  },
  {
    "address": "29772 Armory Rd",
    "city": "Dagsboro",
    "county": "Sussex County",
    "created_at": "2012-01-04T20:13:53Z",
    "id": 4874,
    "latitude": "38.543162",
    "longitude": "-75.225290",
    "mascot": "Indians",
    "name": "Indian River High School",
    "primary_color": "Kelly Green",
    "secondary_color": "Gold",
    "state": "DE",
    "timezone": "America/New_York",
    "updated_at": "2012-07-07T23:16:36Z",
    "zip": "19939"
  },
  {
    "address": "200 N 8th St",
    "city": "Delmar",
    "county": "Sussex County",
    "created_at": "2012-01-04T20:13:53Z",
    "id": 4875,
    "latitude": "38.457939",
    "longitude": "-75.568271",
    "mascot": "Wildcats",
    "name": "Delmar Middle & Senior High School",
    "primary_color": "Royal",
    "secondary_color": "Orange",
    "state": "DE",
    "timezone": "America/New_York",
    "updated_at": "2012-07-07T23:16:38Z",
    "zip": "19940"
  },
  {
    "address": "100 N Dupont Rd",
    "city": "Wilmington",
    "county": "New Castle County",
    "created_at": "2012-01-04T20:13:53Z",
    "id": 4876,
    "latitude": "39.752503",
    "longitude": "-75.588467",
    "mascot": null,
    "name": "Cab Calloway School Of The Arts",
    "primary_color": "Purple",
    "secondary_color": "White",
    "state": "DE",
    "timezone": "America/New_York",
    "updated_at": "2012-07-07T23:16:39Z",
    "zip": "19807"
  },
  {
    "address": "PO Box 927",
    "city": "Bridgeville",
    "county": "Sussex County",
    "created_at": "2012-01-04T20:13:53Z",
    "id": 4877,
    "latitude": "38.764570",
    "longitude": "-75.644159",
    "mascot": null,
    "name": "Sussex Alternative Education School",
    "primary_color": null,
    "secondary_color": null,
    "state": "DE",
    "timezone": "America/New_York",
    "updated_at": "2012-07-07T23:16:40Z",
    "zip": "19933"
  },
  {
    "address": "1417 Newport Rd",
    "city": "Wilmington",
    "county": "New Castle County",
    "created_at": "2012-01-04T20:13:53Z",
    "id": 4878,
    "latitude": "39.724802",
    "longitude": "-75.628472",
    "mascot": "Cougars",
    "name": "Delcastle Technical High School",
    "primary_color": "Navy",
    "secondary_color": "White",
    "state": "DE",
    "timezone": "America/New_York",
    "updated_at": "2012-07-07T23:16:41Z",
    "zip": "19804"
  },
  {
    "address": "Rt 2 Box 252",
    "city": "Georgetown",
    "county": "Sussex County",
    "created_at": "2012-01-04T20:13:53Z",
    "id": 4879,
    "latitude": "38.680768",
    "longitude": "-75.379823",
    "mascot": "Eagles",
    "name": "Howard T Ennis School",
    "primary_color": "Gold",
    "secondary_color": "Maroon",
    "state": "DE",
    "timezone": "America/New_York",
    "updated_at": "2012-07-07T23:16:43Z",
    "zip": "19947"
  },
  {
    "address": "100 N Dupont Rd",
    "city": "Wilmington",
    "county": "New Castle County",
    "created_at": "2012-01-04T20:13:53Z",
    "id": 4880,
    "latitude": "39.752503",
    "longitude": "-75.588467",
    "mascot": null,
    "name": "Charter School Of Wilmington",
    "primary_color": "Navy",
    "secondary_color": "White",
    "state": "DE",
    "timezone": "America/New_York",
    "updated_at": "2012-07-07T23:16:44Z",
    "zip": "19807"
  },
  {
    "address": "812 Elkton Rd",
    "city": "Neward",
    "county": "New Castle County",
    "created_at": "2012-01-04T20:13:54Z",
    "id": 4881,
    "latitude": "39.720467",
    "longitude": "-75.731823",
    "mascot": null,
    "name": "The New School",
    "primary_color": null,
    "secondary_color": null,
    "state": "DE",
    "timezone": "America/New_York",
    "updated_at": "2012-07-07T23:16:45Z",
    "zip": "19715"
  },
  {
    "address": "1621 Telegraph Rd",
    "city": "Wilmington",
    "county": "New Castle County",
    "created_at": "2012-01-04T20:13:54Z",
    "id": 4882,
    "latitude": "39.711563",
    "longitude": "-75.652340",
    "mascot": "Eagles",
    "name": "Telegraph Road Learning Center",
    "primary_color": "Gold",
    "secondary_color": "Purple",
    "state": "DE",
    "timezone": "America/New_York",
    "updated_at": "2012-07-07T23:16:46Z",
    "zip": "19804"
  },
  {
    "address": "133 Thomas More Dr",
    "city": "Magnolia",
    "county": "Kent County",
    "created_at": "2012-01-04T20:13:54Z",
    "id": 4883,
    "latitude": "39.084631",
    "longitude": "-75.478512",
    "mascot": null,
    "name": "Saint Thomas More Academy",
    "primary_color": null,
    "secondary_color": null,
    "state": "DE",
    "timezone": "America/New_York",
    "updated_at": "2012-07-07T23:16:48Z",
    "zip": "19962"
  },
  {
    "address": "55-A S Meadowood Dr",
    "city": "Newark",
    "county": "New Castle County",
    "created_at": "2012-01-04T20:13:54Z",
    "id": 4884,
    "latitude": "39.708043",
    "longitude": "-75.685679",
    "mascot": null,
    "name": "Meadowood School",
    "primary_color": null,
    "secondary_color": null,
    "state": "DE",
    "timezone": "America/New_York",
    "updated_at": "2012-07-07T23:16:49Z",
    "zip": "19711"
  },
  {
    "address": "17099 County Seat Hwy",
    "city": "Georgetown",
    "county": "Sussex County",
    "created_at": "2012-01-04T20:13:54Z",
    "id": 4885,
    "latitude": "38.640701",
    "longitude": "-75.446968",
    "mascot": "Ravens",
    "name": "Sussex Technical High School",
    "primary_color": "Gray",
    "secondary_color": "Black",
    "state": "DE",
    "timezone": "America/New_York",
    "updated_at": "2012-07-07T23:16:50Z",
    "zip": "19947"
  },
  {
    "address": "193 S Dupont Hwy",
    "city": "Camden",
    "county": "Kent County",
    "created_at": "2012-01-04T20:13:54Z",
    "id": 4886,
    "latitude": "39.105823",
    "longitude": "-75.540682",
    "mascot": "Coyotes",
    "name": "Positive Outcomes Charter School",
    "primary_color": "Maroon",
    "secondary_color": "Gray",
    "state": "DE",
    "timezone": "America/New_York",
    "updated_at": "2012-07-07T23:16:51Z",
    "zip": "19934"
  },
  {
    "address": "278 Sorgum Mill Road",
    "city": "Camden-Wyoming",
    "county": "Kent County",
    "created_at": "2012-01-04T20:13:54Z",
    "id": 4887,
    "latitude": "39.100043",
    "longitude": "-75.571317",
    "mascot": null,
    "name": "John S Charlton School",
    "primary_color": "Blue",
    "secondary_color": "Yellow",
    "state": "DE",
    "timezone": "America/New_York",
    "updated_at": "2012-07-07T23:16:52Z",
    "zip": "19934"
  }
]