[
  {
    "address": "65 Dickenson Ave.",
    "city": "Enosburg Falls",
    "county": "Franklin County",
    "created_at": "2012-01-04T20:18:07Z",
    "id": 25404,
    "latitude": "44.904773",
    "longitude": "-72.804486",
    "mascot": "Hornets",
    "name": "Enosburg Falls Middle High School",
    "primary_color": "Kelly Green",
    "secondary_color": "White",
    "state": "VT",
    "timezone": "America/New_York",
    "updated_at": "2012-07-08T01:49:18Z",
    "zip": "05450"
  },
  {
    "address": "148 Peacham Rd",
    "city": "Danville",
    "county": "Caledonia County",
    "created_at": "2012-01-04T20:18:07Z",
    "id": 25405,
    "latitude": "44.409522",
    "longitude": "-72.139752",
    "mascot": "Indians",
    "name": "Danville School",
    "primary_color": "Kelly Green",
    "secondary_color": "White",
    "state": "VT",
    "timezone": "America/New_York",
    "updated_at": "2012-07-08T01:49:18Z",
    "zip": "05828"
  },
  {
    "address": "25 Common Rd",
    "city": "Cabot",
    "county": "Washington County",
    "created_at": "2012-01-04T20:18:07Z",
    "id": 25406,
    "latitude": "44.403430",
    "longitude": "-72.309696",
    "mascot": "Huskies",
    "name": "Cabot School",
    "primary_color": "Kelly Green",
    "secondary_color": "White",
    "state": "VT",
    "timezone": "America/New_York",
    "updated_at": "2012-07-08T01:49:18Z",
    "zip": "05647"
  },
  {
    "address": "369 CVU Rd",
    "city": "Hinesburg",
    "county": "Chittenden County",
    "created_at": "2012-01-04T20:18:07Z",
    "id": 25407,
    "latitude": "44.343247",
    "longitude": "-73.109710",
    "mascot": "Crusaders",
    "name": "Champlain Valley Union High School",
    "primary_color": "Red",
    "secondary_color": "White",
    "state": "VT",
    "timezone": "America/New_York",
    "updated_at": "2012-07-08T01:49:19Z",
    "zip": "05461"
  },
  {
    "address": "143 Church Hill Rd",
    "city": "Websterville",
    "county": "Washington County",
    "created_at": "2012-01-04T20:18:07Z",
    "id": 25408,
    "latitude": "44.160291",
    "longitude": "-72.470351",
    "mascot": "Warriors",
    "name": "Websterville Baptist Christian School",
    "primary_color": "Gold",
    "secondary_color": "Royal",
    "state": "VT",
    "timezone": "America/New_York",
    "updated_at": "2012-07-08T01:49:19Z",
    "zip": "05678"
  },
  {
    "address": "713 Main St",
    "city": "West Rutland",
    "county": "Rutland County",
    "created_at": "2012-01-04T20:18:07Z",
    "id": 25409,
    "latitude": "43.596032",
    "longitude": "-73.051030",
    "mascot": "Golden Hordes",
    "name": "West Rutland School",
    "primary_color": "Gold",
    "secondary_color": "Hunter Green",
    "state": "VT",
    "timezone": "America/New_York",
    "updated_at": "2012-07-08T01:49:19Z",
    "zip": "05777"
  },
  {
    "address": "99 School St",
    "city": "Canaan",
    "county": "Essex County",
    "created_at": "2012-01-04T20:18:07Z",
    "id": 25410,
    "latitude": "44.995070",
    "longitude": "-71.537483",
    "mascot": "Eagles",
    "name": "Canaan Memorial School",
    "primary_color": "Gold",
    "secondary_color": "Purple",
    "state": "VT",
    "timezone": "America/New_York",
    "updated_at": "2012-07-08T01:49:19Z",
    "zip": "05903"
  },
  {
    "address": "99 Proctor Ave",
    "city": "South Burlington",
    "county": "Chittenden County",
    "created_at": "2012-01-04T20:18:07Z",
    "id": 25411,
    "latitude": "44.453943",
    "longitude": "-73.200614",
    "mascot": "Little Indians",
    "name": "Rice Memorial High School",
    "primary_color": "Kelly Green",
    "secondary_color": "White",
    "state": "VT",
    "timezone": "America/New_York",
    "updated_at": "2012-07-08T01:49:20Z",
    "zip": "05403"
  },
  {
    "address": "273 Pleasant St",
    "city": "Bethel",
    "county": "Windsor County",
    "created_at": "2012-01-04T20:18:07Z",
    "id": 25412,
    "latitude": "43.832793",
    "longitude": "-72.641390",
    "mascot": "Hornets",
    "name": "Bethel Whitcomb School",
    "primary_color": "Kelly Green",
    "secondary_color": "White",
    "state": "VT",
    "timezone": "America/New_York",
    "updated_at": "2012-07-08T01:49:20Z",
    "zip": "05032"
  },
  {
    "address": "301 Park St",
    "city": "Bennington",
    "county": "Bennington County",
    "created_at": "2012-01-04T20:18:07Z",
    "id": 25413,
    "latitude": "42.885565",
    "longitude": "-73.192872",
    "mascot": "Patriots",
    "name": "Mount Anthony Union High School",
    "primary_color": "Royal",
    "secondary_color": "White",
    "state": "VT",
    "timezone": "America/New_York",
    "updated_at": "2012-07-08T01:49:20Z",
    "zip": "05201"
  },
  {
    "address": "17 Rebecca Lander Dr",
    "city": "Milton",
    "county": "Chittenden County",
    "created_at": "2012-01-04T20:18:07Z",
    "id": 25414,
    "latitude": "44.628473",
    "longitude": "-73.116897",
    "mascot": "Yellow Jackets",
    "name": "Milton Junior Senior High School",
    "primary_color": "Royal",
    "secondary_color": "Gold",
    "state": "VT",
    "timezone": "America/New_York",
    "updated_at": "2012-07-08T01:49:20Z",
    "zip": "05468"
  },
  {
    "address": "52 Institute Rd",
    "city": "Burlington",
    "county": "Chittenden County",
    "created_at": "2012-01-04T20:18:07Z",
    "id": 25415,
    "latitude": "44.496299",
    "longitude": "-73.239105",
    "mascot": "Seahorses",
    "name": "Burlington High School",
    "primary_color": "Navy",
    "secondary_color": "White",
    "state": "VT",
    "timezone": "America/New_York",
    "updated_at": "2012-07-08T01:49:21Z",
    "zip": "05401"
  },
  {
    "address": "36 Oxbow Dr",
    "city": "Bradford",
    "county": "Orange County",
    "created_at": "2012-01-04T20:18:07Z",
    "id": 25416,
    "latitude": "44.006592",
    "longitude": "-72.113905",
    "mascot": "Olympians",
    "name": "Oxbow High School",
    "primary_color": "Purple",
    "secondary_color": "White",
    "state": "VT",
    "timezone": "America/New_York",
    "updated_at": "2012-07-08T01:49:21Z",
    "zip": "05033"
  },
  {
    "address": "2997 Franklin St",
    "city": "Brandon",
    "county": "Rutland County",
    "created_at": "2012-01-04T20:18:07Z",
    "id": 25417,
    "latitude": "43.766663",
    "longitude": "-73.050385",
    "mascot": "Otters",
    "name": "Otter Valley Union High School",
    "primary_color": "Royal",
    "secondary_color": "White",
    "state": "VT",
    "timezone": "America/New_York",
    "updated_at": "2012-07-08T01:49:21Z",
    "zip": "05733"
  },
  {
    "address": "458 Vermont Rt 100",
    "city": "South Duxbury",
    "county": "Washington County",
    "created_at": "2012-01-04T20:18:07Z",
    "id": 25418,
    "latitude": "44.283385",
    "longitude": "-72.733300",
    "mascot": "Highlanders",
    "name": "Harwood Union High School",
    "primary_color": "Gold",
    "secondary_color": "Black",
    "state": "VT",
    "timezone": "America/New_York",
    "updated_at": "2012-07-08T01:49:22Z",
    "zip": "05660"
  },
  {
    "address": "Rt 5 S",
    "city": "Bellows Falls",
    "county": "Windham County",
    "created_at": "2012-01-04T20:18:07Z",
    "id": 25419,
    "latitude": "43.125412",
    "longitude": "-72.449777",
    "mascot": "Terriers",
    "name": "Bellows Falls Union High School",
    "primary_color": "Purple",
    "secondary_color": "White",
    "state": "VT",
    "timezone": "America/New_York",
    "updated_at": "2012-07-08T01:49:22Z",
    "zip": "05101"
  },
  {
    "address": "496-1 Woodstock Rd",
    "city": "Woodstock",
    "county": "Windsor County",
    "created_at": "2012-01-04T20:18:07Z",
    "id": 25420,
    "latitude": "43.610206",
    "longitude": "-72.550097",
    "mascot": "Wasps",
    "name": "Woodstock Union High School",
    "primary_color": "Hunter Green",
    "secondary_color": "White",
    "state": "VT",
    "timezone": "America/New_York",
    "updated_at": "2012-07-08T01:49:22Z",
    "zip": "05091"
  },
  {
    "address": "73 B Church St",
    "city": "Vergennes",
    "county": "Addison County",
    "created_at": "2012-01-04T20:18:07Z",
    "id": 25421,
    "latitude": "44.163919",
    "longitude": "-73.238699",
    "mascot": "Eagles",
    "name": "Champlain Valley Christian School",
    "primary_color": "Kelly Green",
    "secondary_color": "Gold",
    "state": "VT",
    "timezone": "America/New_York",
    "updated_at": "2012-07-08T01:49:22Z",
    "zip": "05491"
  },
  {
    "address": "56 Little Chicago Rd",
    "city": "Ferrisburg",
    "county": "Addison County",
    "created_at": "2012-01-04T20:18:07Z",
    "id": 25422,
    "latitude": "44.205507",
    "longitude": "-73.247569",
    "mascot": "Cougars",
    "name": "Ferrisburgh Central School",
    "primary_color": "Red",
    "secondary_color": "White",
    "state": "VT",
    "timezone": "America/New_York",
    "updated_at": "2012-07-08T01:49:23Z",
    "zip": "05456"
  },
  {
    "address": "127 Convent Ave",
    "city": "Rutland",
    "county": "Rutland County",
    "created_at": "2012-01-04T20:18:07Z",
    "id": 25423,
    "latitude": "43.602831",
    "longitude": "-72.985370",
    "mascot": "Waves",
    "name": "Mount Saint Joseph Academy",
    "primary_color": "Hunter Green",
    "secondary_color": "White",
    "state": "VT",
    "timezone": "America/New_York",
    "updated_at": "2012-07-08T01:49:23Z",
    "zip": "05701"
  },
  {
    "address": "60 Alpine Ln",
    "city": "East Burke",
    "county": "Caledonia County",
    "created_at": "2012-01-04T20:18:07Z",
    "id": 25424,
    "latitude": "44.592311",
    "longitude": "-71.905406",
    "mascot": "Bears",
    "name": "Burke Mountain Academy",
    "primary_color": "Columbia Blue",
    "secondary_color": "White",
    "state": "VT",
    "timezone": "America/New_York",
    "updated_at": "2012-07-08T01:49:23Z",
    "zip": "05832"
  },
  {
    "address": "280 Trinity Drive",
    "city": "Williston",
    "county": "Chittenden County",
    "created_at": "2012-01-04T20:18:07Z",
    "id": 25425,
    "latitude": "44.467139",
    "longitude": "-73.107497",
    "mascot": null,
    "name": "Trinity Baptist School",
    "primary_color": "Red",
    "secondary_color": "Black",
    "state": "VT",
    "timezone": "America/New_York",
    "updated_at": "2012-07-08T01:49:23Z",
    "zip": "05495"
  },
  {
    "address": "19 Fairview St",
    "city": "Bennington",
    "county": "Bennington County",
    "created_at": "2012-01-04T20:18:07Z",
    "id": 25426,
    "latitude": "42.888597",
    "longitude": "-73.218403",
    "mascot": null,
    "name": "Bennington School",
    "primary_color": null,
    "secondary_color": null,
    "state": "VT",
    "timezone": "America/New_York",
    "updated_at": "2012-07-08T01:49:24Z",
    "zip": "05201"
  },
  {
    "address": "95 School St",
    "city": "Johnson",
    "county": "Lamoille County",
    "created_at": "2012-01-04T20:18:07Z",
    "id": 25427,
    "latitude": "44.636589",
    "longitude": "-72.676195",
    "mascot": "Pteradactyls",
    "name": "Laraway Youth And Family Services",
    "primary_color": "Hunter Green",
    "secondary_color": "Maroon",
    "state": "VT",
    "timezone": "America/New_York",
    "updated_at": "2012-07-08T01:49:24Z",
    "zip": "05656"
  },
  {
    "address": "304 Academy Rd",
    "city": "Thetford",
    "county": "Orange County",
    "created_at": "2012-01-04T20:18:08Z",
    "id": 25428,
    "latitude": "43.814527",
    "longitude": "-72.229709",
    "mascot": "Panthers",
    "name": "Thetford Academy",
    "primary_color": "Royal",
    "secondary_color": "White",
    "state": "VT",
    "timezone": "America/New_York",
    "updated_at": "2012-07-08T01:49:24Z",
    "zip": "05074"
  },
  {
    "address": "271 Moulton Rd",
    "city": "Waitsfield",
    "county": "Washington County",
    "created_at": "2012-01-04T20:18:08Z",
    "id": 25429,
    "latitude": "44.185868",
    "longitude": "-72.851054",
    "mascot": null,
    "name": "Green Mountain Valley School",
    "primary_color": "Kelly Green",
    "secondary_color": "White",
    "state": "VT",
    "timezone": "America/New_York",
    "updated_at": "2012-07-08T01:49:24Z",
    "zip": "05673"
  },
  {
    "address": "57 Seminary Ave",
    "city": "Manchester",
    "county": "Bennington County",
    "created_at": "2012-01-04T20:18:08Z",
    "id": 25430,
    "latitude": "43.163060",
    "longitude": "-73.077197",
    "mascot": "Bulldogs",
    "name": "Burr & Burton Academy",
    "primary_color": "Gold",
    "secondary_color": "Hunter Green",
    "state": "VT",
    "timezone": "America/New_York",
    "updated_at": "2012-07-08T01:49:25Z",
    "zip": "05254"
  },
  {
    "address": "1045 Kirby Hollow Rd",
    "city": "Dorset",
    "county": "Bennington County",
    "created_at": "2012-01-04T20:18:08Z",
    "id": 25431,
    "latitude": "43.271188",
    "longitude": "-73.095925",
    "mascot": null,
    "name": "The Long Trail School",
    "primary_color": "Maroon",
    "secondary_color": "White",
    "state": "VT",
    "timezone": "America/New_York",
    "updated_at": "2012-07-08T01:49:25Z",
    "zip": "05251"
  },
  {
    "address": "1000 Main St",
    "city": "Saint Johnsbury",
    "county": "Caledonia County",
    "created_at": "2012-01-04T20:18:08Z",
    "id": 25432,
    "latitude": "44.416347",
    "longitude": "-72.019694",
    "mascot": "Hilltoppers",
    "name": "Saint Johnsbury Academy",
    "primary_color": "Kelly Green",
    "secondary_color": "White",
    "state": "VT",
    "timezone": "America/New_York",
    "updated_at": "2012-07-08T01:49:25Z",
    "zip": "05819"
  },
  {
    "address": "1 Rockpoint Rd",
    "city": "Burlington",
    "county": "Chittenden County",
    "created_at": "2012-01-04T20:18:08Z",
    "id": 25433,
    "latitude": "44.475920",
    "longitude": "-73.213234",
    "mascot": null,
    "name": "Rock Point School",
    "primary_color": "Royal",
    "secondary_color": "White",
    "state": "VT",
    "timezone": "America/New_York",
    "updated_at": "2012-07-08T01:49:25Z",
    "zip": "05401"
  },
  {
    "address": "71 S Main St",
    "city": "Saint Albans",
    "county": "Franklin County",
    "created_at": "2012-01-04T20:18:08Z",
    "id": 25434,
    "latitude": "44.808365",
    "longitude": "-73.083948",
    "mascot": "Bobwhites/Comets",
    "name": "Bellows Free Academy High School",
    "primary_color": "Gold",
    "secondary_color": "Kelly Green",
    "state": "VT",
    "timezone": "America/New_York",
    "updated_at": "2012-07-08T01:49:26Z",
    "zip": "05478"
  },
  {
    "address": "17 Cross St",
    "city": "Newbury",
    "county": "Orange County",
    "created_at": "2012-01-04T20:18:08Z",
    "id": 25435,
    "latitude": "44.080295",
    "longitude": "-72.058972",
    "mascot": "Eagles",
    "name": "Newbury Christian School",
    "primary_color": "Royal",
    "secondary_color": "White",
    "state": "VT",
    "timezone": "America/New_York",
    "updated_at": "2012-07-08T01:49:26Z",
    "zip": "05051"
  },
  {
    "address": "Rt 4 Pico Mountain Building D",
    "city": "Killington",
    "county": "Rutland County",
    "created_at": "2012-01-04T20:18:08Z",
    "id": 25436,
    "latitude": "43.657716",
    "longitude": "-72.772993",
    "mascot": null,
    "name": "Killington Mountain School",
    "primary_color": "Hunter Green",
    "secondary_color": "White",
    "state": "VT",
    "timezone": "America/New_York",
    "updated_at": "2012-07-08T01:49:26Z",
    "zip": "05751"
  },
  {
    "address": "PO Box 248",
    "city": "Plainfield",
    "county": "Washington County",
    "created_at": "2012-01-04T20:18:08Z",
    "id": 25437,
    "latitude": "44.277529",
    "longitude": "-72.431564",
    "mascot": null,
    "name": "The Maple Hill School",
    "primary_color": null,
    "secondary_color": null,
    "state": "VT",
    "timezone": "America/New_York",
    "updated_at": "2012-07-08T01:49:26Z",
    "zip": "05667"
  },
  {
    "address": "World Cup Cir",
    "city": "Stratton Mountain",
    "county": "Windham County",
    "created_at": "2012-01-04T20:18:08Z",
    "id": 25438,
    "latitude": "43.191776",
    "longitude": "-72.813850",
    "mascot": null,
    "name": "Stratton Mountain School",
    "primary_color": "Red",
    "secondary_color": "White",
    "state": "VT",
    "timezone": "America/New_York",
    "updated_at": "2012-07-08T01:49:27Z",
    "zip": "05155"
  },
  {
    "address": "418 Houghton Brook Rd",
    "city": "Putney",
    "county": "Windham County",
    "created_at": "2012-01-04T20:18:08Z",
    "id": 25439,
    "latitude": "42.986878",
    "longitude": "-72.556844",
    "mascot": "Elm Trees",
    "name": "The Putney School",
    "primary_color": "Hunter Green",
    "secondary_color": "White",
    "state": "VT",
    "timezone": "America/New_York",
    "updated_at": "2012-07-08T01:49:27Z",
    "zip": "05346"
  },
  {
    "address": "20 Pleasant St",
    "city": "Saxtons River",
    "county": "Windham County",
    "created_at": "2012-01-04T20:18:08Z",
    "id": 25440,
    "latitude": "43.141789",
    "longitude": "-72.506277",
    "mascot": "Wildcats",
    "name": "Vermont Academy",
    "primary_color": "Black",
    "secondary_color": "Orange",
    "state": "VT",
    "timezone": "America/New_York",
    "updated_at": "2012-07-08T01:49:27Z",
    "zip": "05154"
  },
  {
    "address": "72 Guilford St",
    "city": "Brattleboro",
    "county": "Windham County",
    "created_at": "2012-01-04T20:18:08Z",
    "id": 25441,
    "latitude": "42.847938",
    "longitude": "-72.584526",
    "mascot": null,
    "name": "Christian Heritage School",
    "primary_color": "Red",
    "secondary_color": "Navy",
    "state": "VT",
    "timezone": "America/New_York",
    "updated_at": "2012-07-08T01:49:28Z",
    "zip": "05303"
  },
  {
    "address": "7 Airport Dr",
    "city": "Bristol",
    "county": "Addison County",
    "created_at": "2012-01-04T20:18:08Z",
    "id": 25442,
    "latitude": "44.132990",
    "longitude": "-73.090209",
    "mascot": "Eagles",
    "name": "Mount Abraham Union High School",
    "primary_color": "Maroon",
    "secondary_color": "White",
    "state": "VT",
    "timezone": "America/New_York",
    "updated_at": "2012-07-08T01:49:28Z",
    "zip": "05443"
  },
  {
    "address": "50 Monkton Rd",
    "city": "Vergennes",
    "county": "Addison County",
    "created_at": "2012-01-04T20:18:08Z",
    "id": 25443,
    "latitude": "44.171346",
    "longitude": "-73.243951",
    "mascot": null,
    "name": "Vergennes Union High School",
    "primary_color": "Royal",
    "secondary_color": "White",
    "state": "VT",
    "timezone": "America/New_York",
    "updated_at": "2012-07-08T01:49:28Z",
    "zip": "05491"
  },
  {
    "address": "525 East Arlington Rd",
    "city": "Arlington",
    "county": "Bennington County",
    "created_at": "2012-01-04T20:18:08Z",
    "id": 25444,
    "latitude": "43.065558",
    "longitude": "-73.152380",
    "mascot": "Eagles",
    "name": "Arlington Memorial High School",
    "primary_color": "Maroon",
    "secondary_color": "White",
    "state": "VT",
    "timezone": "America/New_York",
    "updated_at": "2012-07-08T01:49:28Z",
    "zip": "05250"
  },
  {
    "address": "126 Hazen Union Drive",
    "city": "Hardwick",
    "county": "Caledonia County",
    "created_at": "2012-01-04T20:18:08Z",
    "id": 25445,
    "latitude": "44.508533",
    "longitude": "-72.364334",
    "mascot": "Wildcats",
    "name": "Hazen Union Junior Senior High School 26",
    "primary_color": "Red",
    "secondary_color": "Royal",
    "state": "VT",
    "timezone": "America/New_York",
    "updated_at": "2012-07-08T01:49:28Z",
    "zip": "05843"
  },
  {
    "address": "2 Educational Dr",
    "city": "Essex Junction",
    "county": "Chittenden County",
    "created_at": "2012-01-04T20:18:08Z",
    "id": 25446,
    "latitude": "44.497491",
    "longitude": "-73.110778",
    "mascot": "Hornets",
    "name": "Essex High School",
    "primary_color": "Gold",
    "secondary_color": "Royal",
    "state": "VT",
    "timezone": "America/New_York",
    "updated_at": "2012-07-08T01:49:29Z",
    "zip": "05452"
  },
  {
    "address": "131 Laker Ln",
    "city": "Colchester",
    "county": "Chittenden County",
    "created_at": "2012-01-04T20:18:08Z",
    "id": 25447,
    "latitude": "44.540125",
    "longitude": "-73.213936",
    "mascot": "Lakers",
    "name": "Colchester High School",
    "primary_color": "Royal",
    "secondary_color": "Kelly Green",
    "state": "VT",
    "timezone": "America/New_York",
    "updated_at": "2012-07-08T01:49:29Z",
    "zip": "05446"
  },
  {
    "address": "550 Dorset St",
    "city": "South Burlington",
    "county": "Chittenden County",
    "created_at": "2012-01-04T20:18:08Z",
    "id": 25448,
    "latitude": "44.454362",
    "longitude": "-73.178931",
    "mascot": "Rebels",
    "name": "South Burlington High School",
    "primary_color": "Royal",
    "secondary_color": "Gray",
    "state": "VT",
    "timezone": "America/New_York",
    "updated_at": "2012-07-08T01:49:30Z",
    "zip": "05403"
  },
  {
    "address": "211 Browns Trace Rd",
    "city": "Jericho",
    "county": "Chittenden County",
    "created_at": "2012-01-04T20:18:08Z",
    "id": 25449,
    "latitude": "44.486290",
    "longitude": "-72.963754",
    "mascot": "Cougars",
    "name": "Mount Mansfield Union High School",
    "primary_color": "Royal",
    "secondary_color": "White",
    "state": "VT",
    "timezone": "America/New_York",
    "updated_at": "2012-07-08T01:49:31Z",
    "zip": "05465"
  },
  {
    "address": "80 Normand St",
    "city": "Winooski",
    "county": "Chittenden County",
    "created_at": "2012-01-04T20:18:08Z",
    "id": 25450,
    "latitude": "44.501257",
    "longitude": "-73.182452",
    "mascot": "Spartans",
    "name": "Winooski Middle High School",
    "primary_color": "Hunter Green",
    "secondary_color": "White",
    "state": "VT",
    "timezone": "America/New_York",
    "updated_at": "2012-07-08T01:49:31Z",
    "zip": "05404"
  },
  {
    "address": "173 School St",
    "city": "Concord",
    "county": "Essex County",
    "created_at": "2012-01-04T20:18:08Z",
    "id": 25451,
    "latitude": "44.426594",
    "longitude": "-71.890876",
    "mascot": "Wildcats",
    "name": "Concord High & Graded School",
    "primary_color": "Royal",
    "secondary_color": "White",
    "state": "VT",
    "timezone": "America/New_York",
    "updated_at": "2012-07-08T01:49:31Z",
    "zip": "05824"
  },
  {
    "address": "75 Hunt St",
    "city": "Fairfax",
    "county": "Franklin County",
    "created_at": "2012-01-04T20:18:08Z",
    "id": 25452,
    "latitude": "44.663006",
    "longitude": "-73.013234",
    "mascot": "Bullets",
    "name": "Bellows Free Academy",
    "primary_color": "Maroon",
    "secondary_color": "White",
    "state": "VT",
    "timezone": "America/New_York",
    "updated_at": "2012-07-08T01:49:31Z",
    "zip": "05454"
  },
  {
    "address": "1 Corliss Heights",
    "city": "Richford",
    "county": "Franklin County",
    "created_at": "2012-01-04T20:18:08Z",
    "id": 25453,
    "latitude": "44.996103",
    "longitude": "-72.670160",
    "mascot": "Falcons & Rockets",
    "name": "Richford Junior Senior High School",
    "primary_color": "Gold",
    "secondary_color": "Maroon",
    "state": "VT",
    "timezone": "America/New_York",
    "updated_at": "2012-07-08T01:49:32Z",
    "zip": "05476"
  },
  {
    "address": "100 Thunderbird Dr",
    "city": "Swanton",
    "county": "Franklin County",
    "created_at": "2012-01-04T20:18:08Z",
    "id": 25454,
    "latitude": "44.926645",
    "longitude": "-73.100659",
    "mascot": "Thunderbirds",
    "name": "Missisquoi Valley Union High School",
    "primary_color": "Navy",
    "secondary_color": "White",
    "state": "VT",
    "timezone": "America/New_York",
    "updated_at": "2012-07-08T01:49:32Z",
    "zip": "05488"
  },
  {
    "address": "202 Copley Ave",
    "city": "Morrisville",
    "county": "Lamoille County",
    "created_at": "2012-01-04T20:18:08Z",
    "id": 25455,
    "latitude": "44.562229",
    "longitude": "-72.592538",
    "mascot": "Wolves",
    "name": "People's Academy",
    "primary_color": "Gold",
    "secondary_color": "Hunter Green",
    "state": "VT",
    "timezone": "America/New_York",
    "updated_at": "2012-07-08T01:49:32Z",
    "zip": "05661"
  },
  {
    "address": "413 Barrows Rd",
    "city": "Stowe",
    "county": "Lamoille County",
    "created_at": "2012-01-04T20:18:08Z",
    "id": 25456,
    "latitude": "44.469618",
    "longitude": "-72.727239",
    "mascot": null,
    "name": "Stowe Junior Senior High School",
    "primary_color": "Hunter Green",
    "secondary_color": "White",
    "state": "VT",
    "timezone": "America/New_York",
    "updated_at": "2012-07-08T01:49:32Z",
    "zip": "05672"
  },
  {
    "address": "6 School St",
    "city": "Chelsea",
    "county": "Orange County",
    "created_at": "2012-01-04T20:18:08Z",
    "id": 25457,
    "latitude": "43.987566",
    "longitude": "-72.447739",
    "mascot": "Red Devils",
    "name": "Chelsea Public School",
    "primary_color": "Red",
    "secondary_color": "Black",
    "state": "VT",
    "timezone": "America/New_York",
    "updated_at": "2012-07-08T01:49:32Z",
    "zip": "05038"
  },
  {
    "address": "15 Forest St",
    "city": "Randolph",
    "county": "Orange County",
    "created_at": "2012-01-04T20:18:08Z",
    "id": 25458,
    "latitude": "43.930418",
    "longitude": "-72.661484",
    "mascot": "Galloping Ghosts",
    "name": "Randolph Union High School",
    "primary_color": "Navy",
    "secondary_color": "White",
    "state": "VT",
    "timezone": "America/New_York",
    "updated_at": "2012-07-08T01:49:33Z",
    "zip": "05060"
  },
  {
    "address": "2420 Rt 302",
    "city": "Wells River",
    "county": "Orange County",
    "created_at": "2012-01-04T20:18:08Z",
    "id": 25459,
    "latitude": "44.155213",
    "longitude": "-72.087547",
    "mascot": "BMU Bucks",
    "name": "Blue Mountain Union School",
    "primary_color": "Gold",
    "secondary_color": "Royal",
    "state": "VT",
    "timezone": "America/New_York",
    "updated_at": "2012-07-08T01:49:33Z",
    "zip": "05081"
  },
  {
    "address": "1 Main St",
    "city": "Craftsbury Common",
    "county": "Orleans County",
    "created_at": "2012-01-04T20:18:08Z",
    "id": 25460,
    "latitude": "44.678308",
    "longitude": "-72.402880",
    "mascot": "Chargers",
    "name": "Craftsbury Academy",
    "primary_color": "Royal",
    "secondary_color": "White",
    "state": "VT",
    "timezone": "America/New_York",
    "updated_at": "2012-07-08T01:49:33Z",
    "zip": "05827"
  },
  {
    "address": "713 Lake Region Rd",
    "city": "Orleans",
    "county": "Orleans County",
    "created_at": "2012-01-04T20:18:08Z",
    "id": 25461,
    "latitude": "44.789205",
    "longitude": "-72.223649",
    "mascot": "Rangers",
    "name": "Lake Region Union High School",
    "primary_color": "Royal",
    "secondary_color": "White",
    "state": "VT",
    "timezone": "America/New_York",
    "updated_at": "2012-07-08T01:49:34Z",
    "zip": "05860"
  },
  {
    "address": "209 Veterans Ave",
    "city": "Newport",
    "county": "Orleans County",
    "created_at": "2012-01-04T20:18:08Z",
    "id": 25462,
    "latitude": "44.946489",
    "longitude": "-72.205225",
    "mascot": "Falcons",
    "name": "North Country District 22 High School",
    "primary_color": "Royal",
    "secondary_color": "Maroon",
    "state": "VT",
    "timezone": "America/New_York",
    "updated_at": "2012-07-08T01:49:34Z",
    "zip": "05855"
  },
  {
    "address": "154 E Main St",
    "city": "Poultney",
    "county": "Rutland County",
    "created_at": "2012-01-04T20:18:08Z",
    "id": 25463,
    "latitude": "43.517012",
    "longitude": "-73.229603",
    "mascot": "Blue Devils",
    "name": "Poultney High School",
    "primary_color": "Gold",
    "secondary_color": "Royal",
    "state": "VT",
    "timezone": "America/New_York",
    "updated_at": "2012-07-08T01:49:34Z",
    "zip": "05764"
  },
  {
    "address": "22 Stratton Rd",
    "city": "Rutland",
    "county": "Rutland County",
    "created_at": "2012-01-04T20:18:08Z",
    "id": 25464,
    "latitude": "43.616209",
    "longitude": "-72.956789",
    "mascot": "Raiders",
    "name": "Rutland High School",
    "primary_color": "Red",
    "secondary_color": "White",
    "state": "VT",
    "timezone": "America/New_York",
    "updated_at": "2012-07-08T01:49:34Z",
    "zip": "05701"
  },
  {
    "address": "33 Mechanic St",
    "city": "Fair Haven",
    "county": "Rutland County",
    "created_at": "2012-01-04T20:18:08Z",
    "id": 25465,
    "latitude": "43.601293",
    "longitude": "-73.270426",
    "mascot": "Slaters",
    "name": "Fair Haven Union High School",
    "primary_color": "Royal",
    "secondary_color": "White",
    "state": "VT",
    "timezone": "America/New_York",
    "updated_at": "2012-07-08T01:49:35Z",
    "zip": "05743"
  },
  {
    "address": "4 Park St",
    "city": "Proctor",
    "county": "Rutland County",
    "created_at": "2012-01-04T20:18:08Z",
    "id": 25466,
    "latitude": "43.655725",
    "longitude": "-73.029835",
    "mascot": "Phantoms",
    "name": "Proctor Junior Senior High School",
    "primary_color": "Maroon",
    "secondary_color": "White",
    "state": "VT",
    "timezone": "America/New_York",
    "updated_at": "2012-07-08T01:49:35Z",
    "zip": "05765"
  },
  {
    "address": "2321 Middle Rd",
    "city": "North Clarendon",
    "county": "Rutland County",
    "created_at": "2012-01-04T20:18:08Z",
    "id": 25467,
    "latitude": "43.549558",
    "longitude": "-72.970181",
    "mascot": "Minutemen",
    "name": "Mill River Union High School",
    "primary_color": "Red",
    "secondary_color": "Royal",
    "state": "VT",
    "timezone": "America/New_York",
    "updated_at": "2012-07-08T01:49:35Z",
    "zip": "05759"
  },
  {
    "address": "5 High School Dr",
    "city": "Montpelier",
    "county": "Washington County",
    "created_at": "2012-01-04T20:18:08Z",
    "id": 25468,
    "latitude": "44.260610",
    "longitude": "-72.585656",
    "mascot": "Solons",
    "name": "Montpelier High School",
    "primary_color": "Hunter Green",
    "secondary_color": "White",
    "state": "VT",
    "timezone": "America/New_York",
    "updated_at": "2012-07-08T01:49:35Z",
    "zip": "05602"
  },
  {
    "address": "37 Cross St, Unit 2+3",
    "city": "Northfield",
    "county": "Washington County",
    "created_at": "2012-01-04T20:18:08Z",
    "id": 25469,
    "latitude": "44.167160",
    "longitude": "-72.652449",
    "mascot": "Marauders",
    "name": "Northfield Middle High School",
    "primary_color": "Maroon",
    "secondary_color": "White",
    "state": "VT",
    "timezone": "America/New_York",
    "updated_at": "2012-07-08T01:49:36Z",
    "zip": "05663"
  },
  {
    "address": "106 Nasmith Rd",
    "city": "Plainfield",
    "county": "Washington County",
    "created_at": "2012-01-04T20:18:08Z",
    "id": 25470,
    "latitude": "44.299275",
    "longitude": "-72.396033",
    "mascot": "Trojans",
    "name": "Twinfield Union School",
    "primary_color": "Red",
    "secondary_color": "White",
    "state": "VT",
    "timezone": "America/New_York",
    "updated_at": "2012-07-08T01:49:36Z",
    "zip": "05667"
  },
  {
    "address": "930 Gallison Hill Rd",
    "city": "Montpelier",
    "county": "Washington County",
    "created_at": "2012-01-04T20:18:08Z",
    "id": 25471,
    "latitude": "44.245867",
    "longitude": "-72.526707",
    "mascot": "Raiders",
    "name": "Union 32 Junior Senior High School",
    "primary_color": "Royal",
    "secondary_color": "White",
    "state": "VT",
    "timezone": "America/New_York",
    "updated_at": "2012-07-08T01:49:36Z",
    "zip": "05602"
  },
  {
    "address": "155 Ayers St",
    "city": "Barre",
    "county": "Washington County",
    "created_at": "2012-01-04T20:18:08Z",
    "id": 25472,
    "latitude": "44.189987",
    "longitude": "-72.492990",
    "mascot": "Waves",
    "name": "Spaulding High School",
    "primary_color": "Royal",
    "secondary_color": "Red",
    "state": "VT",
    "timezone": "America/New_York",
    "updated_at": "2012-07-08T01:49:37Z",
    "zip": "05641"
  },
  {
    "address": "1 School St",
    "city": "Wilmington",
    "county": "Windham County",
    "created_at": "2012-01-04T20:18:08Z",
    "id": 25473,
    "latitude": "42.866840",
    "longitude": "-72.869570",
    "mascot": "Tigers",
    "name": "Wilmington Junior Senior High School",
    "primary_color": "Royal",
    "secondary_color": "White",
    "state": "VT",
    "timezone": "America/New_York",
    "updated_at": "2012-07-08T01:49:37Z",
    "zip": "05363"
  },
  {
    "address": "131 Fairground Rd",
    "city": "Brattleboro",
    "county": "Windham County",
    "created_at": "2012-01-04T20:18:08Z",
    "id": 25474,
    "latitude": "42.837575",
    "longitude": "-72.561733",
    "mascot": "Colonels",
    "name": "Brattleboro Union High School",
    "primary_color": "Purple",
    "secondary_color": "White",
    "state": "VT",
    "timezone": "America/New_York",
    "updated_at": "2012-07-08T01:49:37Z",
    "zip": "05301"
  },
  {
    "address": "2042 Vermont Blvd",
    "city": "Townshend",
    "county": "Windham County",
    "created_at": "2012-01-04T20:18:08Z",
    "id": 25475,
    "latitude": "43.044849",
    "longitude": "-72.666348",
    "mascot": "Rebels",
    "name": "Leland & Gray Union Middle & High School",
    "primary_color": "Kelly Green",
    "secondary_color": "White",
    "state": "VT",
    "timezone": "America/New_York",
    "updated_at": "2012-07-08T01:49:38Z",
    "zip": "05353"
  },
  {
    "address": "37 Highland Ave",
    "city": "White River Junction",
    "county": "Windsor County",
    "created_at": "2012-01-04T20:18:08Z",
    "id": 25476,
    "latitude": "43.656327",
    "longitude": "-72.316949",
    "mascot": "Hurricanes",
    "name": "Hartford High School",
    "primary_color": "Royal",
    "secondary_color": "Red",
    "state": "VT",
    "timezone": "America/New_York",
    "updated_at": "2012-07-08T01:49:38Z",
    "zip": "05001"
  },
  {
    "address": "222 S Main St",
    "city": "Rochester",
    "county": "Windsor County",
    "created_at": "2012-01-04T20:18:08Z",
    "id": 25477,
    "latitude": "43.870763",
    "longitude": "-72.807979",
    "mascot": "Rockets",
    "name": "Rochester School",
    "primary_color": "Gold",
    "secondary_color": "Royal",
    "state": "VT",
    "timezone": "America/New_York",
    "updated_at": "2012-07-08T01:49:38Z",
    "zip": "05767"
  },
  {
    "address": "223 S Windsor St",
    "city": "South Royalton",
    "county": "Windsor County",
    "created_at": "2012-01-04T20:18:08Z",
    "id": 25478,
    "latitude": "43.818290",
    "longitude": "-72.517704",
    "mascot": "Knights On Horses",
    "name": "South Royalton Elementary & High School",
    "primary_color": "Gold",
    "secondary_color": "Royal",
    "state": "VT",
    "timezone": "America/New_York",
    "updated_at": "2012-07-08T01:49:39Z",
    "zip": "05068"
  },
  {
    "address": "19 Ascutney St",
    "city": "Windsor",
    "county": "Windsor County",
    "created_at": "2012-01-04T20:18:08Z",
    "id": 25479,
    "latitude": "43.480217",
    "longitude": "-72.395514",
    "mascot": "Yellow Jackets",
    "name": "Windsor Junior Senior High School",
    "primary_color": "Gold",
    "secondary_color": "Hunter Green",
    "state": "VT",
    "timezone": "America/New_York",
    "updated_at": "2012-07-08T01:49:39Z",
    "zip": "05089"
  },
  {
    "address": "716 Vt Rt 103 S",
    "city": "Chester",
    "county": "Windsor County",
    "created_at": "2012-01-04T20:18:08Z",
    "id": 25480,
    "latitude": "43.255350",
    "longitude": "-72.578831",
    "mascot": "Chieftains",
    "name": "Green Mountain Union High School",
    "primary_color": "Gold",
    "secondary_color": "Kelly Green",
    "state": "VT",
    "timezone": "America/New_York",
    "updated_at": "2012-07-08T01:49:39Z",
    "zip": "05143"
  },
  {
    "address": "43 Main St",
    "city": "Ludlow",
    "county": "Windsor County",
    "created_at": "2012-01-04T20:18:08Z",
    "id": 25481,
    "latitude": "43.396484",
    "longitude": "-72.688262",
    "mascot": null,
    "name": "Black River High School",
    "primary_color": "Maroon",
    "secondary_color": "White",
    "state": "VT",
    "timezone": "America/New_York",
    "updated_at": "2012-07-08T01:49:40Z",
    "zip": "05149"
  },
  {
    "address": "120 Hebert Rd",
    "city": "Williamstown",
    "county": "Orange County",
    "created_at": "2012-01-04T20:18:08Z",
    "id": 25482,
    "latitude": "44.127151",
    "longitude": "-72.547357",
    "mascot": "Blue Devils",
    "name": "Williamstown Middle High School",
    "primary_color": "Royal",
    "secondary_color": "White",
    "state": "VT",
    "timezone": "America/New_York",
    "updated_at": "2012-07-08T01:49:40Z",
    "zip": "05679"
  },
  {
    "address": "303 South St",
    "city": "Springfield",
    "county": "Windsor County",
    "created_at": "2012-01-04T20:18:08Z",
    "id": 25483,
    "latitude": "43.281254",
    "longitude": "-72.475737",
    "mascot": null,
    "name": "Springfield High School",
    "primary_color": "Hunter Green",
    "secondary_color": "White",
    "state": "VT",
    "timezone": "America/New_York",
    "updated_at": "2012-07-08T01:49:40Z",
    "zip": "05156"
  },
  {
    "address": "321 Park St",
    "city": "Bennington",
    "county": "Bennington County",
    "created_at": "2012-01-04T20:18:08Z",
    "id": 25484,
    "latitude": "42.886575",
    "longitude": "-73.192814",
    "mascot": null,
    "name": "Southwest Vermont Career Development",
    "primary_color": "Royal",
    "secondary_color": "Red",
    "state": "VT",
    "timezone": "America/New_York",
    "updated_at": "2012-07-08T01:49:41Z",
    "zip": "05201"
  },
  {
    "address": "14 S Williams St",
    "city": "Burlington",
    "county": "Chittenden County",
    "created_at": "2012-01-04T20:18:08Z",
    "id": 25485,
    "latitude": "44.480120",
    "longitude": "-73.203348",
    "mascot": null,
    "name": "Ontop Alternative School",
    "primary_color": "Navy",
    "secondary_color": "White",
    "state": "VT",
    "timezone": "America/New_York",
    "updated_at": "2012-07-08T01:49:41Z",
    "zip": "05401"
  },
  {
    "address": "307 South St",
    "city": "Springfield",
    "county": "Windsor County",
    "created_at": "2012-01-04T20:18:08Z",
    "id": 25486,
    "latitude": "43.281144",
    "longitude": "-72.475730",
    "mascot": null,
    "name": "Tech Center At Springfield School",
    "primary_color": "Navy",
    "secondary_color": "White",
    "state": "VT",
    "timezone": "America/New_York",
    "updated_at": "2012-07-08T01:49:41Z",
    "zip": "05156"
  },
  {
    "address": "199 Summers St",
    "city": "Springfield",
    "county": "Windsor County",
    "created_at": "2012-01-04T20:18:08Z",
    "id": 25487,
    "latitude": "43.297207",
    "longitude": "-72.471210",
    "mascot": null,
    "name": "Gateway School",
    "primary_color": "Hunter Green",
    "secondary_color": "White",
    "state": "VT",
    "timezone": "America/New_York",
    "updated_at": "2012-07-08T01:49:41Z",
    "zip": "05156"
  },
  {
    "address": "1 Gidford Rd",
    "city": "White River Juction",
    "county": "Windsor County",
    "created_at": "2012-01-04T20:18:08Z",
    "id": 25488,
    "latitude": "43.651795",
    "longitude": "-72.318539",
    "mascot": null,
    "name": "Hartford Area Career & Technical Center",
    "primary_color": null,
    "secondary_color": null,
    "state": "VT",
    "timezone": "America/New_York",
    "updated_at": "2012-07-08T01:49:42Z",
    "zip": "05001"
  },
  {
    "address": "52 Institute Rd",
    "city": "Burlington",
    "county": "Chittenden County",
    "created_at": "2012-01-04T20:18:08Z",
    "id": 25489,
    "latitude": "44.496299",
    "longitude": "-73.239105",
    "mascot": null,
    "name": "Burlington Technical Center",
    "primary_color": null,
    "secondary_color": null,
    "state": "VT",
    "timezone": "America/New_York",
    "updated_at": "2012-07-08T01:49:42Z",
    "zip": "05401"
  },
  {
    "address": "17 Forest St",
    "city": "Randolph",
    "county": "Orange County",
    "created_at": "2012-01-04T20:18:08Z",
    "id": 25490,
    "latitude": "43.930689",
    "longitude": "-72.661264",
    "mascot": null,
    "name": "Randolph Area Vocational Center",
    "primary_color": "Royal",
    "secondary_color": "White",
    "state": "VT",
    "timezone": "America/New_York",
    "updated_at": "2012-07-08T01:49:42Z",
    "zip": "05060"
  },
  {
    "address": "51 Charles Ave",
    "city": "Middlebury",
    "county": "Addison County",
    "created_at": "2012-01-04T20:18:08Z",
    "id": 25491,
    "latitude": "44.007011",
    "longitude": "-73.162446",
    "mascot": null,
    "name": "Addison Career Development Center",
    "primary_color": null,
    "secondary_color": null,
    "state": "VT",
    "timezone": "America/New_York",
    "updated_at": "2012-07-08T01:49:42Z",
    "zip": "05753"
  },
  {
    "address": "PO Box 530",
    "city": "Enosburg Falls",
    "county": "Franklin County",
    "created_at": "2012-01-04T20:18:08Z",
    "id": 25492,
    "latitude": "44.905880",
    "longitude": "-72.805794",
    "mascot": null,
    "name": "Cold Hollow Career Center",
    "primary_color": null,
    "secondary_color": null,
    "state": "VT",
    "timezone": "America/New_York",
    "updated_at": "2012-07-08T01:49:43Z",
    "zip": "05450"
  },
  {
    "address": "101 Allen St",
    "city": "Rutland",
    "county": "Rutland County",
    "created_at": "2012-01-04T20:18:08Z",
    "id": 25493,
    "latitude": "43.598241",
    "longitude": "-72.960267",
    "mascot": null,
    "name": "Success School",
    "primary_color": "Red",
    "secondary_color": "White",
    "state": "VT",
    "timezone": "America/New_York",
    "updated_at": "2012-07-08T01:49:43Z",
    "zip": "05701"
  },
  {
    "address": "399 W Gilson Ave",
    "city": "White River Junction",
    "county": "Windsor County",
    "created_at": "2012-01-04T20:18:08Z",
    "id": 25494,
    "latitude": "43.643484",
    "longitude": "-72.427041",
    "mascot": "Eagles",
    "name": "Mid-Vermont Christian School",
    "primary_color": "Gold",
    "secondary_color": "Royal",
    "state": "VT",
    "timezone": "America/New_York",
    "updated_at": "2012-07-08T01:49:43Z",
    "zip": "05001"
  },
  {
    "address": "2 Educational Dr",
    "city": "Essex Junction",
    "county": "Chittenden County",
    "created_at": "2012-01-04T20:18:08Z",
    "id": 25495,
    "latitude": "44.497491",
    "longitude": "-73.110778",
    "mascot": null,
    "name": "Essex Technical Center",
    "primary_color": "Maroon",
    "secondary_color": "White",
    "state": "VT",
    "timezone": "America/New_York",
    "updated_at": "2012-07-08T01:49:43Z",
    "zip": "05452"
  },
  {
    "address": "736 Rt 15 W",
    "city": "Hyde Park",
    "county": "Lamoille County",
    "created_at": "2012-01-04T20:18:08Z",
    "id": 25496,
    "latitude": "44.599888",
    "longitude": "-72.630561",
    "mascot": "Knight",
    "name": "Lamoille Union High School",
    "primary_color": "Gold",
    "secondary_color": "Royal",
    "state": "VT",
    "timezone": "America/New_York",
    "updated_at": "2012-07-08T01:49:44Z",
    "zip": "05655"
  },
  {
    "address": "104 Kocher Dr",
    "city": "Bennington",
    "county": "Bennington County",
    "created_at": "2012-01-04T20:18:08Z",
    "id": 25497,
    "latitude": "42.894121",
    "longitude": "-73.198195",
    "mascot": "Panthers",
    "name": "Grace Christian School",
    "primary_color": "Royal",
    "secondary_color": "White",
    "state": "VT",
    "timezone": "America/New_York",
    "updated_at": "2012-07-08T01:49:44Z",
    "zip": "05201"
  },
  {
    "address": "112 Lincoln Ave",
    "city": "Rutland",
    "county": "Rutland County",
    "created_at": "2012-01-04T20:18:08Z",
    "id": 25498,
    "latitude": "43.616722",
    "longitude": "-72.977132",
    "mascot": "Eagles",
    "name": "Rutland Area Christian School",
    "primary_color": "Red",
    "secondary_color": "White",
    "state": "VT",
    "timezone": "America/New_York",
    "updated_at": "2012-07-08T01:49:44Z",
    "zip": "05701"
  },
  {
    "address": "131 Fairground Rd",
    "city": "Brattleboro",
    "county": "Windham County",
    "created_at": "2012-01-04T20:18:08Z",
    "id": 25499,
    "latitude": "42.837575",
    "longitude": "-72.561733",
    "mascot": "Colonials",
    "name": "SE Vermont Career Education Center",
    "primary_color": "Purple",
    "secondary_color": "White",
    "state": "VT",
    "timezone": "America/New_York",
    "updated_at": "2012-07-08T01:49:44Z",
    "zip": "05301"
  },
  {
    "address": "73 Charles Ave",
    "city": "Middlebury",
    "county": "Addison County",
    "created_at": "2012-01-04T20:18:08Z",
    "id": 25500,
    "latitude": "44.007232",
    "longitude": "-73.162622",
    "mascot": "Tigers",
    "name": "Middlebury Union High School",
    "primary_color": "Orange",
    "secondary_color": "Black",
    "state": "VT",
    "timezone": "America/New_York",
    "updated_at": "2012-07-08T01:49:45Z",
    "zip": "05753"
  },
  {
    "address": "178 Rt 44",
    "city": "Brownsville",
    "county": "Windsor County",
    "created_at": "2012-01-04T20:18:08Z",
    "id": 25501,
    "latitude": "43.467660",
    "longitude": "-72.456611",
    "mascot": null,
    "name": "The Academy At Adventure Quest",
    "primary_color": "Royal",
    "secondary_color": "Gold",
    "state": "VT",
    "timezone": "America/New_York",
    "updated_at": "2012-07-08T01:49:45Z",
    "zip": "05037"
  },
  {
    "address": "75 Green Mountain Dr",
    "city": "South Burlington",
    "county": "Chittenden County",
    "created_at": "2012-01-04T20:18:08Z",
    "id": 25502,
    "latitude": "44.430818",
    "longitude": "-73.207427",
    "mascot": null,
    "name": "Vermont Commons School",
    "primary_color": null,
    "secondary_color": null,
    "state": "VT",
    "timezone": "America/New_York",
    "updated_at": "2012-07-08T01:49:45Z",
    "zip": "05403"
  },
  {
    "address": "71 S Main St",
    "city": "Saint Albans",
    "county": "Franklin County",
    "created_at": "2012-01-04T20:18:08Z",
    "id": 25503,
    "latitude": "44.808365",
    "longitude": "-73.083948",
    "mascot": null,
    "name": "Northwest Technical Center",
    "primary_color": null,
    "secondary_color": null,
    "state": "VT",
    "timezone": "America/New_York",
    "updated_at": "2012-07-08T01:49:45Z",
    "zip": "05478"
  },
  {
    "address": "2595 Depot St",
    "city": "Manchester Center",
    "county": "Bennington County",
    "created_at": "2012-01-04T20:18:08Z",
    "id": 25504,
    "latitude": "43.180029",
    "longitude": "-73.010864",
    "mascot": null,
    "name": "Bromley Brook School",
    "primary_color": null,
    "secondary_color": null,
    "state": "VT",
    "timezone": "America/New_York",
    "updated_at": "2012-07-08T01:49:46Z",
    "zip": "05255"
  }
]