[
  {
    "address": "12 Stillman Rd",
    "city": "North Stonington",
    "county": "New London County",
    "created_at": "2012-01-04T20:13:48Z",
    "id": 4475,
    "latitude": "41.429375",
    "longitude": "-71.844427",
    "mascot": "Eagles",
    "name": "North Stonington Christian Academy",
    "primary_color": "Red",
    "secondary_color": "White",
    "state": "CT",
    "timezone": "America/New_York",
    "updated_at": "2012-07-07T23:09:43Z",
    "zip": "06359"
  },
  {
    "address": "1144 Hartford Rd",
    "city": "Waterford",
    "county": "New London County",
    "created_at": "2012-01-04T20:13:48Z",
    "id": 4476,
    "latitude": "41.402581",
    "longitude": "-72.179729",
    "mascot": "Lions",
    "name": "Baptist Bible Academy",
    "primary_color": "Gold",
    "secondary_color": "Royal",
    "state": "CT",
    "timezone": "America/New_York",
    "updated_at": "2012-07-07T23:09:44Z",
    "zip": "06385"
  },
  {
    "address": "35 Hillfield Rd",
    "city": "Hamden",
    "county": "New Haven County",
    "created_at": "2012-01-04T20:13:48Z",
    "id": 4477,
    "latitude": "41.420943",
    "longitude": "-72.922327",
    "mascot": "Knights",
    "name": "West Woods Christian Academy",
    "primary_color": "Royal",
    "secondary_color": "Gold",
    "state": "CT",
    "timezone": "America/New_York",
    "updated_at": "2012-07-07T23:09:45Z",
    "zip": "06517"
  },
  {
    "address": "161 S Whittlesey Ave",
    "city": "Wallingford",
    "county": "New Haven County",
    "created_at": "2012-01-04T20:13:48Z",
    "id": 4478,
    "latitude": "41.450799",
    "longitude": "-72.822972",
    "mascot": "Patriots",
    "name": "Heritage Baptist Academy",
    "primary_color": "Red",
    "secondary_color": "White",
    "state": "CT",
    "timezone": "America/New_York",
    "updated_at": "2012-07-07T23:09:45Z",
    "zip": "06492"
  },
  {
    "address": "121 Gravel St",
    "city": "Meriden",
    "county": "New Haven County",
    "created_at": "2012-01-04T20:13:48Z",
    "id": 4479,
    "latitude": "41.531687",
    "longitude": "-72.774217",
    "mascot": null,
    "name": "Francise T Maloney High School",
    "primary_color": "Kelly Green",
    "secondary_color": "White",
    "state": "CT",
    "timezone": "America/New_York",
    "updated_at": "2012-07-07T23:09:46Z",
    "zip": "06450"
  },
  {
    "address": "569 Maple Hill Ave",
    "city": "Newington",
    "county": "Hartford County",
    "created_at": "2012-01-04T20:13:48Z",
    "id": 4480,
    "latitude": "41.676725",
    "longitude": "-72.741849",
    "mascot": "Wildcats",
    "name": "Emmanuel Christian Academy",
    "primary_color": "Kelly Green",
    "secondary_color": "Gold",
    "state": "CT",
    "timezone": "America/New_York",
    "updated_at": "2012-07-07T23:09:47Z",
    "zip": "06111"
  },
  {
    "address": "2320 Huntington Tpke",
    "city": "Trumbull",
    "county": "Fairfield County",
    "created_at": "2012-01-04T20:13:48Z",
    "id": 4481,
    "latitude": "41.261098",
    "longitude": "-73.166555",
    "mascot": "Cadets",
    "name": "Saint Joseph High School",
    "primary_color": "Gold",
    "secondary_color": "Maroon",
    "state": "CT",
    "timezone": "America/New_York",
    "updated_at": "2012-07-07T23:09:48Z",
    "zip": "06611"
  },
  {
    "address": "1734 Central Ave",
    "city": "Bridgeport",
    "county": "Fairfield County",
    "created_at": "2012-01-04T20:13:48Z",
    "id": 4482,
    "latitude": "41.190570",
    "longitude": "-73.167616",
    "mascot": "Presidents",
    "name": "Warren Harding High School",
    "primary_color": "Royal",
    "secondary_color": "Gold",
    "state": "CT",
    "timezone": "America/New_York",
    "updated_at": "2012-07-07T23:09:49Z",
    "zip": "06610"
  },
  {
    "address": "43 Clapboard Ridge Rd",
    "city": "Danbury",
    "county": "Fairfield County",
    "created_at": "2012-01-04T20:13:48Z",
    "id": 4483,
    "latitude": "41.416990",
    "longitude": "-73.473193",
    "mascot": "Mad Hatters",
    "name": "Danbury High School",
    "primary_color": "Orange",
    "secondary_color": "Royal",
    "state": "CT",
    "timezone": "America/New_York",
    "updated_at": "2012-07-07T23:09:50Z",
    "zip": "06811"
  },
  {
    "address": "80 High School Ln",
    "city": "Darien",
    "county": "Fairfield County",
    "created_at": "2012-01-04T20:13:48Z",
    "id": 4484,
    "latitude": "41.082933",
    "longitude": "-73.491081",
    "mascot": "Blue Waves",
    "name": "Darien High School",
    "primary_color": "Royal",
    "secondary_color": "White",
    "state": "CT",
    "timezone": "America/New_York",
    "updated_at": "2012-07-07T23:09:51Z",
    "zip": "06820"
  },
  {
    "address": "120 Meadow St",
    "city": "Shelton",
    "county": "Fairfield County",
    "created_at": "2012-01-04T20:13:48Z",
    "id": 4485,
    "latitude": "41.320934",
    "longitude": "-73.116590",
    "mascot": "Gaels",
    "name": "Shelton High School",
    "primary_color": "Black",
    "secondary_color": "Orange",
    "state": "CT",
    "timezone": "America/New_York",
    "updated_at": "2012-07-07T23:09:52Z",
    "zip": "06484"
  },
  {
    "address": "54 Gillotti Rd Resource Center",
    "city": "New Fairfield",
    "county": "Fairfield County",
    "created_at": "2012-01-04T20:13:48Z",
    "id": 4486,
    "latitude": "41.465331",
    "longitude": "-73.487048",
    "mascot": "Rebels",
    "name": "New Fairfield High School",
    "primary_color": "Red",
    "secondary_color": "White",
    "state": "CT",
    "timezone": "America/New_York",
    "updated_at": "2012-07-07T23:09:53Z",
    "zip": "06812"
  },
  {
    "address": "12 Berkshire Rd",
    "city": "Sandy Hook",
    "county": "Fairfield County",
    "created_at": "2012-01-04T20:13:48Z",
    "id": 4487,
    "latitude": "41.412744",
    "longitude": "-73.272483",
    "mascot": "Night Hawks",
    "name": "Newtown High School",
    "primary_color": "Gold",
    "secondary_color": "Royal",
    "state": "CT",
    "timezone": "America/New_York",
    "updated_at": "2012-07-07T23:09:54Z",
    "zip": "06482"
  },
  {
    "address": "1 Bulldog Blvd",
    "city": "Stratford",
    "county": "Fairfield County",
    "created_at": "2012-01-04T20:13:48Z",
    "id": 4488,
    "latitude": "41.225872",
    "longitude": "-73.136355",
    "mascot": "Bulldogs",
    "name": "Bunnell High School",
    "primary_color": "Royal",
    "secondary_color": "White",
    "state": "CT",
    "timezone": "America/New_York",
    "updated_at": "2012-07-07T23:09:55Z",
    "zip": "06614"
  },
  {
    "address": "415 Granby St",
    "city": "Hartford",
    "county": "Hartford County",
    "created_at": "2012-01-04T20:13:48Z",
    "id": 4489,
    "latitude": "41.800234",
    "longitude": "-72.706528",
    "mascot": "Beavers",
    "name": "Weaver High School",
    "primary_color": "Kelly Green",
    "secondary_color": "White",
    "state": "CT",
    "timezone": "America/New_York",
    "updated_at": "2012-07-07T23:09:56Z",
    "zip": "06112"
  },
  {
    "address": "411 Wolcott Hill Rd",
    "city": "Wethersfield",
    "county": "Hartford County",
    "created_at": "2012-01-04T20:13:48Z",
    "id": 4490,
    "latitude": "41.707968",
    "longitude": "-72.668688",
    "mascot": "Eagles",
    "name": "Wethersfield High School",
    "primary_color": "Navy",
    "secondary_color": "White",
    "state": "CT",
    "timezone": "America/New_York",
    "updated_at": "2012-07-07T23:09:57Z",
    "zip": "06109"
  },
  {
    "address": "58 S Elm St",
    "city": "Windsor Locks",
    "county": "Hartford County",
    "created_at": "2012-01-04T20:13:48Z",
    "id": 4491,
    "latitude": "41.922599",
    "longitude": "-72.647824",
    "mascot": "Raiders",
    "name": "Windsor Locks High School",
    "primary_color": "Maroon",
    "secondary_color": "White",
    "state": "CT",
    "timezone": "America/New_York",
    "updated_at": "2012-07-07T23:09:57Z",
    "zip": "06096"
  },
  {
    "address": "95 Little City Road",
    "city": "Higganum",
    "county": "Middlesex County",
    "created_at": "2012-01-04T20:13:48Z",
    "id": 4492,
    "latitude": "41.464048",
    "longitude": "-72.565658",
    "mascot": "Cougars",
    "name": "Haddam Killingworth High School",
    "primary_color": "Royal",
    "secondary_color": "Gold",
    "state": "CT",
    "timezone": "America/New_York",
    "updated_at": "2012-07-07T23:09:58Z",
    "zip": "06441"
  },
  {
    "address": "27 Killingworth Tpke",
    "city": "Clinton",
    "county": "Middlesex County",
    "created_at": "2012-01-04T20:13:48Z",
    "id": 4493,
    "latitude": "41.293172",
    "longitude": "-72.530943",
    "mascot": "Huskies",
    "name": "Morgan High School",
    "primary_color": "Royal",
    "secondary_color": "White",
    "state": "CT",
    "timezone": "America/New_York",
    "updated_at": "2012-07-07T23:09:59Z",
    "zip": "06413"
  },
  {
    "address": "543 Rubber Ave",
    "city": "Naugatuck",
    "county": "New Haven County",
    "created_at": "2012-01-04T20:13:48Z",
    "id": 4494,
    "latitude": "41.490393",
    "longitude": "-73.073363",
    "mascot": "Greyhounds",
    "name": "Naugatuck High School",
    "primary_color": "Gray",
    "secondary_color": "Maroon",
    "state": "CT",
    "timezone": "America/New_York",
    "updated_at": "2012-07-07T23:10:00Z",
    "zip": "06770"
  },
  {
    "address": "422 Highland Ave",
    "city": "Waterbury",
    "county": "New Haven County",
    "created_at": "2012-01-04T20:13:48Z",
    "id": 4495,
    "latitude": "41.546109",
    "longitude": "-73.056126",
    "mascot": "Eagles",
    "name": "John F Kennedy High School",
    "primary_color": "Gold",
    "secondary_color": "Navy",
    "state": "CT",
    "timezone": "America/New_York",
    "updated_at": "2012-07-07T23:10:01Z",
    "zip": "06708"
  },
  {
    "address": "234 Judd Rd",
    "city": "Southbury",
    "county": "New Haven County",
    "created_at": "2012-01-04T20:13:48Z",
    "id": 4496,
    "latitude": "41.502126",
    "longitude": "-73.163163",
    "mascot": "Panthers",
    "name": "Pomperaug High School",
    "primary_color": "Red",
    "secondary_color": "Gray",
    "state": "CT",
    "timezone": "America/New_York",
    "updated_at": "2012-07-07T23:10:02Z",
    "zip": "06488"
  },
  {
    "address": "525 S Main St",
    "city": "Cheshire",
    "county": "New Haven County",
    "created_at": "2012-01-04T20:13:48Z",
    "id": 4497,
    "latitude": "41.488994",
    "longitude": "-72.904891",
    "mascot": "Rams",
    "name": "Cheshire High School",
    "primary_color": "Red",
    "secondary_color": "White",
    "state": "CT",
    "timezone": "America/New_York",
    "updated_at": "2012-07-07T23:10:03Z",
    "zip": "06410"
  },
  {
    "address": "20 Rope Ferry Rd",
    "city": "Waterford",
    "county": "New London County",
    "created_at": "2012-01-04T20:13:48Z",
    "id": 4498,
    "latitude": "41.342264",
    "longitude": "-72.131939",
    "mascot": "Lancers",
    "name": "Waterford High School",
    "primary_color": "Royal",
    "secondary_color": "White",
    "state": "CT",
    "timezone": "America/New_York",
    "updated_at": "2012-07-07T23:10:03Z",
    "zip": "06385"
  },
  {
    "address": "490 Jefferson Ave",
    "city": "New London",
    "county": "New London County",
    "created_at": "2012-01-04T20:13:48Z",
    "id": 4499,
    "latitude": "41.360302",
    "longitude": "-72.121588",
    "mascot": "Whalers",
    "name": "New London High School",
    "primary_color": "Gold",
    "secondary_color": "Kelly Green",
    "state": "CT",
    "timezone": "America/New_York",
    "updated_at": "2012-07-07T23:10:04Z",
    "zip": "06320"
  },
  {
    "address": "145 Orcuttcille Rd",
    "city": "Stafford Springs",
    "county": "Tolland County",
    "created_at": "2012-01-04T20:13:48Z",
    "id": 4500,
    "latitude": "41.993785",
    "longitude": "-72.155359",
    "mascot": "Bulldogs",
    "name": "Stafford High School",
    "primary_color": "Royal",
    "secondary_color": "White",
    "state": "CT",
    "timezone": "America/New_York",
    "updated_at": "2012-07-07T23:10:05Z",
    "zip": "06076"
  },
  {
    "address": "1 Eagle Hill",
    "city": "Tolland",
    "county": "Tolland County",
    "created_at": "2012-01-04T20:13:48Z",
    "id": 4501,
    "latitude": "41.871636",
    "longitude": "-72.341530",
    "mascot": "Eagles",
    "name": "Tolland High School",
    "primary_color": "Columbia Blue",
    "secondary_color": "White",
    "state": "CT",
    "timezone": "America/New_York",
    "updated_at": "2012-07-07T23:10:06Z",
    "zip": "06084"
  },
  {
    "address": "70 Loveland Hill Rd",
    "city": "Vernon",
    "county": "Tolland County",
    "created_at": "2012-01-04T20:13:49Z",
    "id": 4502,
    "latitude": "41.856650",
    "longitude": "-72.482564",
    "mascot": "Rams",
    "name": "Rockville High School",
    "primary_color": "Royal",
    "secondary_color": "Gold",
    "state": "CT",
    "timezone": "America/New_York",
    "updated_at": "2012-07-07T23:10:07Z",
    "zip": "06066"
  },
  {
    "address": "45 Cottage Rd",
    "city": "Oakdale",
    "county": "New London County",
    "created_at": "2012-01-04T20:13:49Z",
    "id": 4503,
    "latitude": "41.514508",
    "longitude": "-72.213678",
    "mascot": "Chancellors",
    "name": "Saint Thomas More School",
    "primary_color": "Navy",
    "secondary_color": "White",
    "state": "CT",
    "timezone": "America/New_York",
    "updated_at": "2012-07-07T23:10:08Z",
    "zip": "06370"
  },
  {
    "address": "89 Barnes Rd",
    "city": "Stonington",
    "county": "New London County",
    "created_at": "2012-01-04T20:13:49Z",
    "id": 4504,
    "latitude": "41.366843",
    "longitude": "-71.894107",
    "mascot": "Panthers",
    "name": "Pine Point School",
    "primary_color": "Gold",
    "secondary_color": "Kelly Green",
    "state": "CT",
    "timezone": "America/New_York",
    "updated_at": "2012-07-07T23:10:09Z",
    "zip": "06378"
  },
  {
    "address": "2970 Bronson Rd",
    "city": "Fairfield",
    "county": "Fairfield County",
    "created_at": "2012-01-04T20:13:49Z",
    "id": 4505,
    "latitude": "41.172552",
    "longitude": "-73.291490",
    "mascot": "Crusaders",
    "name": "Fairfield Country Day School",
    "primary_color": "Royal",
    "secondary_color": "White",
    "state": "CT",
    "timezone": "America/New_York",
    "updated_at": "2012-07-07T23:10:14Z",
    "zip": "06824"
  },
  {
    "address": "201 Romford Rd",
    "city": "Washington Depot",
    "county": "Litchfield County",
    "created_at": "2012-01-04T20:13:49Z",
    "id": 4506,
    "latitude": "41.681156",
    "longitude": "-73.297296",
    "mascot": null,
    "name": "Rumsey Hall School",
    "primary_color": "Red",
    "secondary_color": "White",
    "state": "CT",
    "timezone": "America/New_York",
    "updated_at": "2012-07-07T23:10:14Z",
    "zip": "06794"
  },
  {
    "address": "155 Mountain Rd",
    "city": "West Hartford",
    "county": "Hartford County",
    "created_at": "2012-01-04T20:13:49Z",
    "id": 4507,
    "latitude": "41.754490",
    "longitude": "-72.764090",
    "mascot": "Eagles",
    "name": "Hartford Christian Academy",
    "primary_color": "Maroon",
    "secondary_color": "White",
    "state": "CT",
    "timezone": "America/New_York",
    "updated_at": "2012-07-07T23:10:15Z",
    "zip": "06107"
  },
  {
    "address": "26 Chase Rd",
    "city": "Thompson",
    "county": "Windham County",
    "created_at": "2012-01-04T20:13:49Z",
    "id": 4508,
    "latitude": "41.957933",
    "longitude": "-71.863682",
    "mascot": "Knights",
    "name": "Marianapolis Preparatory School",
    "primary_color": "Gold",
    "secondary_color": "Maroon",
    "state": "CT",
    "timezone": "America/New_York",
    "updated_at": "2012-07-07T23:10:16Z",
    "zip": "06277"
  },
  {
    "address": "611 Norwich Ave",
    "city": "Colchester",
    "county": "New London County",
    "created_at": "2012-01-04T20:13:49Z",
    "id": 4509,
    "latitude": "41.574325",
    "longitude": "-72.303580",
    "mascot": "Bobcats",
    "name": "Bacon Academy",
    "primary_color": "Gold",
    "secondary_color": "Royal",
    "state": "CT",
    "timezone": "America/New_York",
    "updated_at": "2012-07-07T23:10:17Z",
    "zip": "06415"
  },
  {
    "address": "15 N Maple St",
    "city": "East Hampton",
    "county": "Middlesex County",
    "created_at": "2012-01-04T20:13:49Z",
    "id": 4510,
    "latitude": "41.582455",
    "longitude": "-72.512056",
    "mascot": "Bell Ringers",
    "name": "East Hampton High School",
    "primary_color": "Royal",
    "secondary_color": "White",
    "state": "CT",
    "timezone": "America/New_York",
    "updated_at": "2012-07-07T23:10:17Z",
    "zip": "06424"
  },
  {
    "address": "14 Plumb Hill Rd",
    "city": "Litchfield",
    "county": "Litchfield County",
    "created_at": "2012-01-04T20:13:49Z",
    "id": 4511,
    "latitude": "41.741114",
    "longitude": "-73.205642",
    "mascot": "Cowboys",
    "name": "Litchfield High School",
    "primary_color": "Royal",
    "secondary_color": "White",
    "state": "CT",
    "timezone": "America/New_York",
    "updated_at": "2012-07-07T23:10:18Z",
    "zip": "06759"
  },
  {
    "address": "33 Calhoun Pl",
    "city": "Bridgeport",
    "county": "Fairfield County",
    "created_at": "2012-01-04T20:13:49Z",
    "id": 4512,
    "latitude": "41.179246",
    "longitude": "-73.196231",
    "mascot": "Cougars",
    "name": "Kolbe Cathedral High School",
    "primary_color": "Royal",
    "secondary_color": "Gold",
    "state": "CT",
    "timezone": "America/New_York",
    "updated_at": "2012-07-07T23:10:19Z",
    "zip": "06604"
  },
  {
    "address": "73 Southern Blvd",
    "city": "Danbury",
    "county": "Fairfield County",
    "created_at": "2012-01-04T20:13:49Z",
    "id": 4513,
    "latitude": "41.380380",
    "longitude": "-73.451144",
    "mascot": "Mustangs",
    "name": "Immaculate High School",
    "primary_color": "Navy",
    "secondary_color": "Gray",
    "state": "CT",
    "timezone": "America/New_York",
    "updated_at": "2012-07-07T23:10:20Z",
    "zip": "06810"
  },
  {
    "address": "1073 N Benson Rd",
    "city": "Fairfield",
    "county": "Fairfield County",
    "created_at": "2012-01-04T20:13:49Z",
    "id": 4514,
    "latitude": "41.161872",
    "longitude": "-73.254435",
    "mascot": "Jesuits",
    "name": "Fairfield College Preparatory School",
    "primary_color": "Red",
    "secondary_color": "White",
    "state": "CT",
    "timezone": "America/New_York",
    "updated_at": "2012-07-07T23:10:20Z",
    "zip": "06824"
  },
  {
    "address": "1177 King St",
    "city": "Greenwich",
    "county": "Fairfield County",
    "created_at": "2012-01-04T20:13:49Z",
    "id": 4515,
    "latitude": "41.062147",
    "longitude": "-73.694779",
    "mascot": "Tigers",
    "name": "Convent Of The Sacred Heart School",
    "primary_color": "Hunter Green",
    "secondary_color": "White",
    "state": "CT",
    "timezone": "America/New_York",
    "updated_at": "2012-07-07T23:10:21Z",
    "zip": "06831"
  },
  {
    "address": "926 Newfield Ave",
    "city": "Stamford",
    "county": "Fairfield County",
    "created_at": "2012-01-04T20:13:49Z",
    "id": 4516,
    "latitude": "41.091298",
    "longitude": "-73.533152",
    "mascot": "Crusaders",
    "name": "Trinity Catholic High School",
    "primary_color": "Gold",
    "secondary_color": "Kelly Green",
    "state": "CT",
    "timezone": "America/New_York",
    "updated_at": "2012-07-07T23:10:22Z",
    "zip": "06905"
  },
  {
    "address": "220 Jefferson St",
    "city": "Fairfield",
    "county": "Fairfield County",
    "created_at": "2012-01-04T20:13:49Z",
    "id": 4517,
    "latitude": "41.223257",
    "longitude": "-73.245782",
    "mascot": "Lancers",
    "name": "Notre Dame Catholic High School",
    "primary_color": "Gold",
    "secondary_color": "Navy",
    "state": "CT",
    "timezone": "America/New_York",
    "updated_at": "2012-07-07T23:10:23Z",
    "zip": "06825"
  },
  {
    "address": "159 Sky Meadow Dr",
    "city": "Stamford",
    "county": "Fairfield County",
    "created_at": "2012-01-04T20:13:49Z",
    "id": 4518,
    "latitude": "41.141986",
    "longitude": "-73.552343",
    "mascot": null,
    "name": "Villa Maria Education Center",
    "primary_color": null,
    "secondary_color": null,
    "state": "CT",
    "timezone": "America/New_York",
    "updated_at": "2012-07-07T23:10:24Z",
    "zip": "06903"
  },
  {
    "address": "1001 Stafford Ave",
    "city": "Bristol",
    "county": "Hartford County",
    "created_at": "2012-01-04T20:13:49Z",
    "id": 4519,
    "latitude": "41.704417",
    "longitude": "-72.911291",
    "mascot": "Falcons",
    "name": "Saint Paul Catholic High School",
    "primary_color": "Royal",
    "secondary_color": "White",
    "state": "CT",
    "timezone": "America/New_York",
    "updated_at": "2012-07-07T23:10:24Z",
    "zip": "06010"
  },
  {
    "address": "35 Groton St",
    "city": "Hartford",
    "county": "Hartford County",
    "created_at": "2012-01-04T20:13:49Z",
    "id": 4520,
    "latitude": "41.755700",
    "longitude": "-72.673419",
    "mascot": "Chiefs",
    "name": "Saints Cyril & Methodius School",
    "primary_color": "Red",
    "secondary_color": "White",
    "state": "CT",
    "timezone": "America/New_York",
    "updated_at": "2012-07-07T23:10:25Z",
    "zip": "06106"
  },
  {
    "address": "115 New State Rd",
    "city": "Manchester",
    "county": "Hartford County",
    "created_at": "2012-01-04T20:13:49Z",
    "id": 4521,
    "latitude": "41.782545",
    "longitude": "-72.556490",
    "mascot": "Eagles",
    "name": "East Catholic High School",
    "primary_color": "Royal",
    "secondary_color": "White",
    "state": "CT",
    "timezone": "America/New_York",
    "updated_at": "2012-07-07T23:10:26Z",
    "zip": "06040"
  },
  {
    "address": "29 Wampanoag Dr",
    "city": "West Hartford",
    "county": "Hartford County",
    "created_at": "2012-01-04T20:13:49Z",
    "id": 4522,
    "latitude": "41.800215",
    "longitude": "-72.752256",
    "mascot": "Indians",
    "name": "Northwest Catholic High School",
    "primary_color": "Kelly Green",
    "secondary_color": "White",
    "state": "CT",
    "timezone": "America/New_York",
    "updated_at": "2012-07-07T23:10:27Z",
    "zip": "06117"
  },
  {
    "address": "Aspetuck Ave 101",
    "city": "New Milford",
    "county": "Litchfield County",
    "created_at": "2012-01-04T20:13:49Z",
    "id": 4523,
    "latitude": "41.584590",
    "longitude": "-73.412484",
    "mascot": "Saints",
    "name": "Canterbury School",
    "primary_color": "Columbia Blue",
    "secondary_color": "Navy",
    "state": "CT",
    "timezone": "America/New_York",
    "updated_at": "2012-07-07T23:10:28Z",
    "zip": "06776"
  },
  {
    "address": "1740 Randolph Rd",
    "city": "Middletown",
    "county": "Middlesex County",
    "created_at": "2012-01-04T20:13:49Z",
    "id": 4524,
    "latitude": "41.531228",
    "longitude": "-72.675190",
    "mascot": "Tigers",
    "name": "Mercy High School",
    "primary_color": "Royal",
    "secondary_color": "Gold",
    "state": "CT",
    "timezone": "America/New_York",
    "updated_at": "2012-07-07T23:10:29Z",
    "zip": "06457"
  },
  {
    "address": "181 Randolph Rd",
    "city": "Middletown",
    "county": "Middlesex County",
    "created_at": "2012-01-04T20:13:49Z",
    "id": 4525,
    "latitude": "41.534004",
    "longitude": "-72.620761",
    "mascot": "Falcons",
    "name": "Xavier High School",
    "primary_color": "Black",
    "secondary_color": "Maroon",
    "state": "CT",
    "timezone": "America/New_York",
    "updated_at": "2012-07-07T23:10:29Z",
    "zip": "06457"
  },
  {
    "address": "265 Benham St",
    "city": "Hamden",
    "county": "New Haven County",
    "created_at": "2012-01-04T20:13:49Z",
    "id": 4526,
    "latitude": "41.364955",
    "longitude": "-72.932221",
    "mascot": "Pacers",
    "name": "Sacred Heart Academy",
    "primary_color": "Red",
    "secondary_color": "White",
    "state": "CT",
    "timezone": "America/New_York",
    "updated_at": "2012-07-07T23:10:30Z",
    "zip": "06514"
  },
  {
    "address": "587 Oronoke Rd",
    "city": "Waterbury",
    "county": "New Haven County",
    "created_at": "2012-01-04T20:13:49Z",
    "id": 4527,
    "latitude": "41.531293",
    "longitude": "-73.066461",
    "mascot": "Crusaders",
    "name": "Holy Cross High School",
    "primary_color": "Kelly Green",
    "secondary_color": "Gold",
    "state": "CT",
    "timezone": "America/New_York",
    "updated_at": "2012-07-07T23:10:31Z",
    "zip": "06708"
  },
  {
    "address": "24 Ricardo St",
    "city": "West Haven",
    "county": "New Haven County",
    "created_at": "2012-01-04T20:13:49Z",
    "id": 4528,
    "latitude": "41.288970",
    "longitude": "-72.961402",
    "mascot": "Knights",
    "name": "Notre Dame High School",
    "primary_color": "Kelly Green",
    "secondary_color": "Gold",
    "state": "CT",
    "timezone": "America/New_York",
    "updated_at": "2012-07-07T23:10:32Z",
    "zip": "06516"
  },
  {
    "address": "142 S Elm St",
    "city": "Waterbury",
    "county": "New Haven County",
    "created_at": "2012-01-04T20:13:49Z",
    "id": 4529,
    "latitude": "41.551489",
    "longitude": "-73.037830",
    "mascot": "Hearts",
    "name": "Sacred Heart High School",
    "primary_color": "Gold",
    "secondary_color": "Maroon",
    "state": "CT",
    "timezone": "America/New_York",
    "updated_at": "2012-07-07T23:10:33Z",
    "zip": "06722"
  },
  {
    "address": "54 W Main St",
    "city": "Baltic",
    "county": "New London County",
    "created_at": "2012-01-04T20:13:49Z",
    "id": 4530,
    "latitude": "41.616427",
    "longitude": "-72.086785",
    "mascot": null,
    "name": "Academy Of The Holy Family",
    "primary_color": "Gold",
    "secondary_color": "Royal",
    "state": "CT",
    "timezone": "America/New_York",
    "updated_at": "2012-07-07T23:10:34Z",
    "zip": "06330"
  },
  {
    "address": "1593 Norwich-New London Tpke",
    "city": "Uncasville",
    "county": "New London County",
    "created_at": "2012-01-04T20:13:49Z",
    "id": 4531,
    "latitude": "41.468471",
    "longitude": "-72.102957",
    "mascot": "Saint Bernard Dogs",
    "name": "Saint Bernard High School / Academy",
    "primary_color": "Gray",
    "secondary_color": "Red",
    "state": "CT",
    "timezone": "America/New_York",
    "updated_at": "2012-07-07T23:10:34Z",
    "zip": "06382"
  },
  {
    "address": "36 Gardner St",
    "city": "East Windsor",
    "county": "Hartford County",
    "created_at": "2012-01-04T20:13:49Z",
    "id": 4532,
    "latitude": "41.932122",
    "longitude": "-72.615219",
    "mascot": null,
    "name": "Albert W Redway School",
    "primary_color": "Kelly Green",
    "secondary_color": "White",
    "state": "CT",
    "timezone": "America/New_York",
    "updated_at": "2012-07-07T23:10:35Z",
    "zip": "06088"
  },
  {
    "address": "170 Long Ln",
    "city": "Middletown",
    "county": "Middlesex County",
    "created_at": "2012-01-04T20:13:49Z",
    "id": 4533,
    "latitude": "41.545892",
    "longitude": "-72.665965",
    "mascot": null,
    "name": "Long Lane School",
    "primary_color": null,
    "secondary_color": null,
    "state": "CT",
    "timezone": "America/New_York",
    "updated_at": "2012-07-07T23:10:36Z",
    "zip": "06457"
  },
  {
    "address": "825 Hartford Tpke",
    "city": "Hamden",
    "county": "New Haven County",
    "created_at": "2012-01-04T20:13:49Z",
    "id": 4534,
    "latitude": "41.359748",
    "longitude": "-72.896078",
    "mascot": null,
    "name": "High Meadows School",
    "primary_color": "Columbia Blue",
    "secondary_color": "White",
    "state": "CT",
    "timezone": "America/New_York",
    "updated_at": "2012-07-07T23:10:37Z",
    "zip": "06517"
  },
  {
    "address": "104 S Turnpike Rd",
    "city": "Wallingford",
    "county": "New Haven County",
    "created_at": "2012-01-04T20:13:49Z",
    "id": 4535,
    "latitude": "41.447981",
    "longitude": "-72.844200",
    "mascot": null,
    "name": "DMR Region 5",
    "primary_color": null,
    "secondary_color": null,
    "state": "CT",
    "timezone": "America/New_York",
    "updated_at": "2012-07-07T23:10:38Z",
    "zip": "06492"
  },
  {
    "address": "355 Goshen Road",
    "city": "Litchfield",
    "county": "Litchfield County",
    "created_at": "2012-01-04T20:13:49Z",
    "id": 4536,
    "latitude": "41.762376",
    "longitude": "-73.197795",
    "mascot": null,
    "name": "Education Connection",
    "primary_color": null,
    "secondary_color": null,
    "state": "CT",
    "timezone": "America/New_York",
    "updated_at": "2012-07-07T23:10:39Z",
    "zip": "06759"
  },
  {
    "address": "15 Ridgeway",
    "city": "Greenwich",
    "county": "Fairfield County",
    "created_at": "2012-01-04T20:13:49Z",
    "id": 4537,
    "latitude": "41.036104",
    "longitude": "-73.638801",
    "mascot": null,
    "name": "Greenwich Japanese School",
    "primary_color": null,
    "secondary_color": null,
    "state": "CT",
    "timezone": "America/New_York",
    "updated_at": "2012-07-07T23:10:40Z",
    "zip": "06831"
  },
  {
    "address": "45 Glenville Rd",
    "city": "Greenwich",
    "county": "Fairfield County",
    "created_at": "2012-01-04T20:13:49Z",
    "id": 4538,
    "latitude": "41.030738",
    "longitude": "-73.639417",
    "mascot": null,
    "name": "Eagle Hill Greenwich School",
    "primary_color": "Gold",
    "secondary_color": "Kelly Green",
    "state": "CT",
    "timezone": "America/New_York",
    "updated_at": "2012-07-07T23:10:41Z",
    "zip": "06831"
  },
  {
    "address": "35 Beachside Ave",
    "city": "Greens Farms",
    "county": "Fairfield County",
    "created_at": "2012-01-04T20:13:49Z",
    "id": 4539,
    "latitude": "41.125348",
    "longitude": "-73.320306",
    "mascot": "Dragons",
    "name": "Greens Farms Academy",
    "primary_color": "Royal",
    "secondary_color": "Red",
    "state": "CT",
    "timezone": "America/New_York",
    "updated_at": "2012-07-07T23:10:41Z",
    "zip": "06838"
  },
  {
    "address": "100 Maher Ave",
    "city": "Greenwich",
    "county": "Fairfield County",
    "created_at": "2012-01-04T20:13:49Z",
    "id": 4540,
    "latitude": "41.037819",
    "longitude": "-73.625706",
    "mascot": "Bears",
    "name": "Brunswick School",
    "primary_color": "Brown",
    "secondary_color": "White",
    "state": "CT",
    "timezone": "America/New_York",
    "updated_at": "2012-07-07T23:10:42Z",
    "zip": "06830"
  },
  {
    "address": "401 Old Church Lyons Rd",
    "city": "Greenwich",
    "county": "Fairfield County",
    "created_at": "2012-01-04T20:13:49Z",
    "id": 4541,
    "latitude": "41.048535",
    "longitude": "-73.616244",
    "mascot": null,
    "name": "Greenwich Country Day School",
    "primary_color": "Orange",
    "secondary_color": "Black",
    "state": "CT",
    "timezone": "America/New_York",
    "updated_at": "2012-07-07T23:10:42Z",
    "zip": "06830"
  },
  {
    "address": "200 N Maple Ave",
    "city": "Greenwich",
    "county": "Fairfield County",
    "created_at": "2012-01-04T20:13:49Z",
    "id": 4542,
    "latitude": "41.041775",
    "longitude": "-73.625132",
    "mascot": "Alligators",
    "name": "Greenwich Academy",
    "primary_color": "Gold",
    "secondary_color": "Hunter Green",
    "state": "CT",
    "timezone": "America/New_York",
    "updated_at": "2012-07-07T23:10:43Z",
    "zip": "06830"
  },
  {
    "address": "545 Ponus Ridge Rd",
    "city": "New Canaan",
    "county": "Fairfield County",
    "created_at": "2012-01-04T20:13:49Z",
    "id": 4543,
    "latitude": "41.131908",
    "longitude": "-73.523715",
    "mascot": null,
    "name": "New Canaan Country School",
    "primary_color": "Royal",
    "secondary_color": "White",
    "state": "CT",
    "timezone": "America/New_York",
    "updated_at": "2012-07-07T23:10:44Z",
    "zip": "06840"
  },
  {
    "address": "377 N Wilton Rd",
    "city": "New Canaan",
    "county": "Fairfield County",
    "created_at": "2012-01-04T20:13:49Z",
    "id": 4544,
    "latitude": "41.193847",
    "longitude": "-73.498266",
    "mascot": "Crusaders",
    "name": "Saint Luke's School",
    "primary_color": "Maroon",
    "secondary_color": "Gray",
    "state": "CT",
    "timezone": "America/New_York",
    "updated_at": "2012-07-07T23:10:45Z",
    "zip": "06840"
  },
  {
    "address": "1450 Newfield Ave",
    "city": "Stamford",
    "county": "Fairfield County",
    "created_at": "2012-01-04T20:13:49Z",
    "id": 4545,
    "latitude": "41.109231",
    "longitude": "-73.531766",
    "mascot": "Vikings",
    "name": "King And Low Heywood Thomas School",
    "primary_color": "Maroon",
    "secondary_color": "Navy",
    "state": "CT",
    "timezone": "America/New_York",
    "updated_at": "2012-07-07T23:10:45Z",
    "zip": "06905"
  },
  {
    "address": "91 Mire Brook Rd",
    "city": "Danbury",
    "county": "Fairfield County",
    "created_at": "2012-01-04T20:13:49Z",
    "id": 4546,
    "latitude": "41.367501",
    "longitude": "-73.495389",
    "mascot": "Generals",
    "name": "Wooster School",
    "primary_color": "Maroon",
    "secondary_color": "White",
    "state": "CT",
    "timezone": "America/New_York",
    "updated_at": "2012-07-07T23:10:46Z",
    "zip": "06810"
  },
  {
    "address": "47 Long Lots Rd",
    "city": "Westport",
    "county": "Fairfield County",
    "created_at": "2012-01-04T20:13:49Z",
    "id": 4547,
    "latitude": "41.142096",
    "longitude": "-73.330947",
    "mascot": null,
    "name": "Hall-Brooke School",
    "primary_color": null,
    "secondary_color": null,
    "state": "CT",
    "timezone": "America/New_York",
    "updated_at": "2012-07-07T23:10:47Z",
    "zip": "06880"
  },
  {
    "address": "575 White Plains Rd",
    "city": "Trumbull",
    "county": "Fairfield County",
    "created_at": "2012-01-04T20:13:49Z",
    "id": 4548,
    "latitude": "41.238333",
    "longitude": "-73.184263",
    "mascot": "Kingsmen",
    "name": "Christian Heritage School",
    "primary_color": "Royal",
    "secondary_color": "White",
    "state": "CT",
    "timezone": "America/New_York",
    "updated_at": "2012-07-07T23:10:48Z",
    "zip": "06611"
  },
  {
    "address": "40 Stadley Rough Rd",
    "city": "Danbury",
    "county": "Fairfield County",
    "created_at": "2012-01-04T20:13:49Z",
    "id": 4549,
    "latitude": "41.431113",
    "longitude": "-73.430224",
    "mascot": "Patriots",
    "name": "Colonial Hills Christian Academy",
    "primary_color": "Red",
    "secondary_color": "Navy",
    "state": "CT",
    "timezone": "America/New_York",
    "updated_at": "2012-07-07T23:10:49Z",
    "zip": "06811"
  },
  {
    "address": "170 Kingswood Road",
    "city": "West Hartford",
    "county": "Hartford County",
    "created_at": "2012-01-04T20:13:49Z",
    "id": 4550,
    "latitude": "41.759495",
    "longitude": "-72.734198",
    "mascot": "Dragons And Wyverns",
    "name": "Kingswood-Oxford School",
    "primary_color": "Red",
    "secondary_color": "Black",
    "state": "CT",
    "timezone": "America/New_York",
    "updated_at": "2012-07-07T23:10:49Z",
    "zip": "06119"
  },
  {
    "address": "500 Old Farms Rd",
    "city": "Avon",
    "county": "Hartford County",
    "created_at": "2012-01-04T20:13:49Z",
    "id": 4551,
    "latitude": "41.781314",
    "longitude": "-72.836655",
    "mascot": "Winged Beavers",
    "name": "Avon Old Farms School",
    "primary_color": "Maroon",
    "secondary_color": "White",
    "state": "CT",
    "timezone": "America/New_York",
    "updated_at": "2012-07-07T23:10:50Z",
    "zip": "06001"
  },
  {
    "address": "60 Main St",
    "city": "Farmington",
    "county": "Hartford County",
    "created_at": "2012-01-04T20:13:49Z",
    "id": 4552,
    "latitude": "41.722220",
    "longitude": "-72.829183",
    "mascot": null,
    "name": "Miss Porters School",
    "primary_color": "Kelly Green",
    "secondary_color": "White",
    "state": "CT",
    "timezone": "America/New_York",
    "updated_at": "2012-07-07T23:10:52Z",
    "zip": "06032"
  },
  {
    "address": "180 Bloomfield Ave",
    "city": "Hartford",
    "county": "Hartford County",
    "created_at": "2012-01-04T20:13:49Z",
    "id": 4553,
    "latitude": "41.792831",
    "longitude": "-72.716086",
    "mascot": "Rams",
    "name": "Watkinson School",
    "primary_color": "Royal",
    "secondary_color": "White",
    "state": "CT",
    "timezone": "America/New_York",
    "updated_at": "2012-07-07T23:10:52Z",
    "zip": "06105"
  },
  {
    "address": "230 Bushy Hill Road",
    "city": "Simsbury",
    "county": "Hartford County",
    "created_at": "2012-01-04T20:13:49Z",
    "id": 4554,
    "latitude": "41.849345",
    "longitude": "-72.835532",
    "mascot": "Tigers",
    "name": "The Ethel Walker School",
    "primary_color": "Purple",
    "secondary_color": "Gold",
    "state": "CT",
    "timezone": "America/New_York",
    "updated_at": "2012-07-07T23:10:53Z",
    "zip": "06070"
  },
  {
    "address": "995 Hopmeadow St",
    "city": "Simsbury",
    "county": "Hartford County",
    "created_at": "2012-01-04T20:13:49Z",
    "id": 4555,
    "latitude": "41.886940",
    "longitude": "-72.796620",
    "mascot": "Martletts",
    "name": "Westminster School",
    "primary_color": "Black",
    "secondary_color": "Gold",
    "state": "CT",
    "timezone": "America/New_York",
    "updated_at": "2012-07-07T23:10:54Z",
    "zip": "06070"
  },
  {
    "address": "N Main St",
    "city": "Suffield",
    "county": "Hartford County",
    "created_at": "2012-01-04T20:13:49Z",
    "id": 4556,
    "latitude": "41.994752",
    "longitude": "-72.646100",
    "mascot": "Tigers",
    "name": "Suffield Academy",
    "primary_color": "Black",
    "secondary_color": "Orange",
    "state": "CT",
    "timezone": "America/New_York",
    "updated_at": "2012-07-07T23:10:55Z",
    "zip": "06078"
  },
  {
    "address": "2865 Albany Ave",
    "city": "West Hartford",
    "county": "Hartford County",
    "created_at": "2012-01-04T20:13:49Z",
    "id": 4557,
    "latitude": "41.790652",
    "longitude": "-72.778177",
    "mascot": null,
    "name": "Renbrook School",
    "primary_color": "Royal",
    "secondary_color": "White",
    "state": "CT",
    "timezone": "America/New_York",
    "updated_at": "2012-07-07T23:10:55Z",
    "zip": "06117"
  },
  {
    "address": "4 Batchelder Rd",
    "city": "Windsor",
    "county": "Hartford County",
    "created_at": "2012-01-04T20:13:49Z",
    "id": 4558,
    "latitude": "41.838963",
    "longitude": "-72.640823",
    "mascot": "Pelicans",
    "name": "Loomis Chaffee School",
    "primary_color": "Maroon",
    "secondary_color": "Gray",
    "state": "CT",
    "timezone": "America/New_York",
    "updated_at": "2012-07-07T23:10:56Z",
    "zip": "06095"
  },
  {
    "address": "166 Lincoln St",
    "city": "Kensington",
    "county": "Hartford County",
    "created_at": "2012-01-04T20:13:49Z",
    "id": 4559,
    "latitude": "41.642993",
    "longitude": "-72.793909",
    "mascot": "Golden Retrievers",
    "name": "Mooreland Hill School",
    "primary_color": "Hunter Green",
    "secondary_color": "White",
    "state": "CT",
    "timezone": "America/New_York",
    "updated_at": "2012-07-07T23:10:57Z",
    "zip": "06037"
  },
  {
    "address": "Westledge Rd",
    "city": "West Simsbury",
    "county": "Hartford County",
    "created_at": "2012-01-04T20:13:49Z",
    "id": 4560,
    "latitude": "41.873999",
    "longitude": "-72.859576",
    "mascot": "Lions",
    "name": "The Master's School",
    "primary_color": "Maroon",
    "secondary_color": "White",
    "state": "CT",
    "timezone": "America/New_York",
    "updated_at": "2012-07-07T23:10:57Z",
    "zip": "06092"
  },
  {
    "address": "236 Main St",
    "city": "Manchester",
    "county": "Hartford County",
    "created_at": "2012-01-04T20:13:49Z",
    "id": 4561,
    "latitude": "41.755549",
    "longitude": "-72.520440",
    "mascot": "Crusaders",
    "name": "The Cornerstone Christian School",
    "primary_color": "Kelly Green",
    "secondary_color": "Navy",
    "state": "CT",
    "timezone": "America/New_York",
    "updated_at": "2012-07-07T23:10:58Z",
    "zip": "06040"
  },
  {
    "address": "474 Woodland St",
    "city": "Hartford",
    "county": "Hartford County",
    "created_at": "2012-01-04T20:13:49Z",
    "id": 4562,
    "latitude": "41.782723",
    "longitude": "-72.695894",
    "mascot": null,
    "name": "Hartford SDA Area School",
    "primary_color": "Navy",
    "secondary_color": "White",
    "state": "CT",
    "timezone": "America/New_York",
    "updated_at": "2012-07-07T23:10:59Z",
    "zip": "06112"
  },
  {
    "address": "139 N Main St",
    "city": "West Hartford",
    "county": "Hartford County",
    "created_at": "2012-01-04T20:13:49Z",
    "id": 4563,
    "latitude": "41.771348",
    "longitude": "-72.743995",
    "mascot": "Tigers",
    "name": "American School For The Deaf",
    "primary_color": "Black",
    "secondary_color": "Orange",
    "state": "CT",
    "timezone": "America/New_York",
    "updated_at": "2012-07-07T23:11:00Z",
    "zip": "06107"
  },
  {
    "address": "1505 West St",
    "city": "Southington",
    "county": "Hartford County",
    "created_at": "2012-01-04T20:13:49Z",
    "id": 4564,
    "latitude": "41.629621",
    "longitude": "-72.900023",
    "mascot": "Eagles",
    "name": "Central Christian Academy",
    "primary_color": "Royal",
    "secondary_color": "White",
    "state": "CT",
    "timezone": "America/New_York",
    "updated_at": "2012-07-07T23:11:01Z",
    "zip": "06489"
  },
  {
    "address": "1 Macedonis Rd",
    "city": "Kent",
    "county": "Litchfield County",
    "created_at": "2012-01-04T20:13:49Z",
    "id": 4565,
    "latitude": "41.726456",
    "longitude": "-73.480506",
    "mascot": "Lions",
    "name": "Kent School",
    "primary_color": "Royal",
    "secondary_color": "Gray",
    "state": "CT",
    "timezone": "America/New_York",
    "updated_at": "2012-07-07T23:11:02Z",
    "zip": "06757"
  },
  {
    "address": "476 Skiff Mountain Rd",
    "city": "Kent",
    "county": "Litchfield County",
    "created_at": "2012-01-04T20:13:49Z",
    "id": 4566,
    "latitude": "41.782153",
    "longitude": "-73.455377",
    "mascot": "Pterodactyls",
    "name": "Marvelwood School",
    "primary_color": "Royal",
    "secondary_color": "White",
    "state": "CT",
    "timezone": "America/New_York",
    "updated_at": "2012-07-07T23:11:02Z",
    "zip": "06757"
  },
  {
    "address": "211 Indian Mountain Rd",
    "city": "Lakeville",
    "county": "Litchfield County",
    "created_at": "2012-01-04T20:13:49Z",
    "id": 4567,
    "latitude": "41.937445",
    "longitude": "-73.466865",
    "mascot": "Falcons",
    "name": "Indian Mountain School",
    "primary_color": "Maroon",
    "secondary_color": "Gray",
    "state": "CT",
    "timezone": "America/New_York",
    "updated_at": "2012-07-07T23:11:03Z",
    "zip": "06039"
  },
  {
    "address": "251 Canaan Rd",
    "city": "Salisbury",
    "county": "Litchfield County",
    "created_at": "2012-01-04T20:13:49Z",
    "id": 4568,
    "latitude": "42.001053",
    "longitude": "-73.392862",
    "mascot": "Crimson Knights",
    "name": "Salisbury School",
    "primary_color": "Red",
    "secondary_color": "White",
    "state": "CT",
    "timezone": "America/New_York",
    "updated_at": "2012-07-07T23:11:04Z",
    "zip": "06068"
  },
  {
    "address": "40 Bulls Bridge Rd",
    "city": "South Kent",
    "county": "Litchfield County",
    "created_at": "2012-01-04T20:13:50Z",
    "id": 4569,
    "latitude": "41.676324",
    "longitude": "-73.475349",
    "mascot": null,
    "name": "South Kent School",
    "primary_color": "Red",
    "secondary_color": "Black",
    "state": "CT",
    "timezone": "America/New_York",
    "updated_at": "2012-07-07T23:11:05Z",
    "zip": "06785"
  },
  {
    "address": "99 Green Hill Rd",
    "city": "Washington",
    "county": "Litchfield County",
    "created_at": "2012-01-04T20:13:50Z",
    "id": 4570,
    "latitude": "41.629394",
    "longitude": "-73.310421",
    "mascot": null,
    "name": "Gunnery School",
    "primary_color": "Gray",
    "secondary_color": "Maroon",
    "state": "CT",
    "timezone": "America/New_York",
    "updated_at": "2012-07-07T23:11:06Z",
    "zip": "06793"
  },
  {
    "address": "110 Woodbury Rd",
    "city": "Watertown",
    "county": "Litchfield County",
    "created_at": "2012-01-04T20:13:50Z",
    "id": 4571,
    "latitude": "41.602779",
    "longitude": "-73.122997",
    "mascot": "Rinos",
    "name": "Taft School",
    "primary_color": "Maroon",
    "secondary_color": "Royal",
    "state": "CT",
    "timezone": "America/New_York",
    "updated_at": "2012-07-07T23:11:06Z",
    "zip": "06795"
  },
  {
    "address": "11 Interlaken Rd",
    "city": "Lakeville",
    "county": "Litchfield County",
    "created_at": "2012-01-04T20:13:50Z",
    "id": 4572,
    "latitude": "41.942499",
    "longitude": "-73.440557",
    "mascot": "Bearcats",
    "name": "Hotchkiss School",
    "primary_color": "Royal",
    "secondary_color": "White",
    "state": "CT",
    "timezone": "America/New_York",
    "updated_at": "2012-07-07T23:11:07Z",
    "zip": "06039"
  },
  {
    "address": "200 Williams Ave",
    "city": "Winsted",
    "county": "Litchfield County",
    "created_at": "2012-01-04T20:13:50Z",
    "id": 4573,
    "latitude": "41.929687",
    "longitude": "-73.071672",
    "mascot": "Bees",
    "name": "Gilbert School",
    "primary_color": "Gold",
    "secondary_color": "Royal",
    "state": "CT",
    "timezone": "America/New_York",
    "updated_at": "2012-07-07T23:11:08Z",
    "zip": "06098"
  },
  {
    "address": "81 Sabbaday Ln",
    "city": "Washington",
    "county": "Litchfield County",
    "created_at": "2012-01-04T20:13:50Z",
    "id": 4574,
    "latitude": "41.647387",
    "longitude": "-73.301752",
    "mascot": "Grizzly Bears",
    "name": "Devereux Glenholme School",
    "primary_color": "Royal",
    "secondary_color": "White",
    "state": "CT",
    "timezone": "America/New_York",
    "updated_at": "2012-07-07T23:11:09Z",
    "zip": "06793"
  },
  {
    "address": "387 New Harwinton Rd",
    "city": "Torrington",
    "county": "Litchfield County",
    "created_at": "2012-01-04T20:13:50Z",
    "id": 4575,
    "latitude": "41.806289",
    "longitude": "-73.099211",
    "mascot": null,
    "name": "Torrington Christian Academy",
    "primary_color": "Gold",
    "secondary_color": "Purple",
    "state": "CT",
    "timezone": "America/New_York",
    "updated_at": "2012-07-07T23:11:10Z",
    "zip": "06790"
  },
  {
    "address": "58 Harrison Ln",
    "city": "Bethlehem",
    "county": "Litchfield County",
    "created_at": "2012-01-04T20:13:50Z",
    "id": 4576,
    "latitude": "41.636737",
    "longitude": "-73.200785",
    "mascot": null,
    "name": "Woodhall School",
    "primary_color": "Maroon",
    "secondary_color": "Gold",
    "state": "CT",
    "timezone": "America/New_York",
    "updated_at": "2012-07-07T23:11:11Z",
    "zip": "06751"
  },
  {
    "address": "1393 Boston Post Rd",
    "city": "Westbrook",
    "county": "Middlesex County",
    "created_at": "2012-01-04T20:13:50Z",
    "id": 4577,
    "latitude": "41.283586",
    "longitude": "-72.442902",
    "mascot": "Oxen",
    "name": "The Oxford Academy",
    "primary_color": "Gold",
    "secondary_color": "Navy",
    "state": "CT",
    "timezone": "America/New_York",
    "updated_at": "2012-07-07T23:11:11Z",
    "zip": "06498"
  },
  {
    "address": "10 Main St",
    "city": "Cheshire",
    "county": "New Haven County",
    "created_at": "2012-01-04T20:13:50Z",
    "id": 4578,
    "latitude": "41.501040",
    "longitude": "-72.901308",
    "mascot": "Cheshire Cats",
    "name": "Cheshire Academy",
    "primary_color": "Royal",
    "secondary_color": "White",
    "state": "CT",
    "timezone": "America/New_York",
    "updated_at": "2012-07-07T23:11:12Z",
    "zip": "06410"
  },
  {
    "address": "719 Derby Milford Rd",
    "city": "Orange",
    "county": "New Haven County",
    "created_at": "2012-01-04T20:13:50Z",
    "id": 4579,
    "latitude": "41.287884",
    "longitude": "-73.054276",
    "mascot": null,
    "name": "The Foundation School Incorporated",
    "primary_color": null,
    "secondary_color": null,
    "state": "CT",
    "timezone": "America/New_York",
    "updated_at": "2012-07-07T23:11:13Z",
    "zip": "06477"
  },
  {
    "address": "1108 Whitney Ave",
    "city": "Hamden",
    "county": "New Haven County",
    "created_at": "2012-01-04T20:13:50Z",
    "id": 4580,
    "latitude": "41.341956",
    "longitude": "-72.912746",
    "mascot": "Hornets",
    "name": "Hamden Hall Country Day School",
    "primary_color": "Kelly Green",
    "secondary_color": "White",
    "state": "CT",
    "timezone": "America/New_York",
    "updated_at": "2012-07-07T23:11:14Z",
    "zip": "06517"
  },
  {
    "address": "1237 Whittmore Rd",
    "city": "Middlebury",
    "county": "New Haven County",
    "created_at": "2012-01-04T20:13:50Z",
    "id": 4581,
    "latitude": "41.527342",
    "longitude": "-73.123173",
    "mascot": "Wildcats",
    "name": "Westover School",
    "primary_color": "Columbia Blue",
    "secondary_color": "Gold",
    "state": "CT",
    "timezone": "America/New_York",
    "updated_at": "2012-07-07T23:11:15Z",
    "zip": "06762"
  },
  {
    "address": "50 Loomis Pl",
    "city": "New Haven",
    "county": "New Haven County",
    "created_at": "2012-01-04T20:13:50Z",
    "id": 4582,
    "latitude": "41.326858",
    "longitude": "-72.919627",
    "mascot": "Falcons",
    "name": "Foote School",
    "primary_color": "Maroon",
    "secondary_color": "Gray",
    "state": "CT",
    "timezone": "America/New_York",
    "updated_at": "2012-07-07T23:11:16Z",
    "zip": "06511"
  },
  {
    "address": "986 Forest Rd",
    "city": "New Haven",
    "county": "New Haven County",
    "created_at": "2012-01-04T20:13:50Z",
    "id": 4583,
    "latitude": "41.318834",
    "longitude": "-72.970529",
    "mascot": "Goats",
    "name": "Hopkins School",
    "primary_color": "Maroon",
    "secondary_color": "Gray",
    "state": "CT",
    "timezone": "America/New_York",
    "updated_at": "2012-07-07T23:11:16Z",
    "zip": "06515"
  },
  {
    "address": "565 Chase Pky",
    "city": "Waterbury",
    "county": "New Haven County",
    "created_at": "2012-01-04T20:13:50Z",
    "id": 4584,
    "latitude": "41.547505",
    "longitude": "-73.066024",
    "mascot": "Highlanders",
    "name": "Chase Collegiate School",
    "primary_color": "Hunter Green",
    "secondary_color": "White",
    "state": "CT",
    "timezone": "America/New_York",
    "updated_at": "2012-07-07T23:11:17Z",
    "zip": "06708"
  },
  {
    "address": "333 Christian St",
    "city": "Wallingford",
    "county": "New Haven County",
    "created_at": "2012-01-04T20:13:50Z",
    "id": 4585,
    "latitude": "41.456789",
    "longitude": "-72.807458",
    "mascot": "Wild Boars",
    "name": "Choate Rosemary Hall School",
    "primary_color": "Gold",
    "secondary_color": "Royal",
    "state": "CT",
    "timezone": "America/New_York",
    "updated_at": "2012-07-07T23:11:18Z",
    "zip": "06492"
  },
  {
    "address": "1861 Whitney Ave",
    "city": "Hamden",
    "county": "New Haven County",
    "created_at": "2012-01-04T20:13:50Z",
    "id": 4586,
    "latitude": "41.366338",
    "longitude": "-72.908053",
    "mascot": null,
    "name": "Lorraine D Foster Day School",
    "primary_color": "Purple",
    "secondary_color": "Gold",
    "state": "CT",
    "timezone": "America/New_York",
    "updated_at": "2012-07-07T23:11:19Z",
    "zip": "06517"
  },
  {
    "address": "765 Elm St",
    "city": "New Haven",
    "county": "New Haven County",
    "created_at": "2012-01-04T20:13:50Z",
    "id": 4587,
    "latitude": "41.316586",
    "longitude": "-72.947005",
    "mascot": null,
    "name": "The Gan School",
    "primary_color": null,
    "secondary_color": null,
    "state": "CT",
    "timezone": "America/New_York",
    "updated_at": "2012-07-07T23:11:20Z",
    "zip": "06511"
  },
  {
    "address": "175 Copse Rd",
    "city": "Madison",
    "county": "New Haven County",
    "created_at": "2012-01-04T20:13:50Z",
    "id": 4588,
    "latitude": "41.286674",
    "longitude": "-72.612210",
    "mascot": "Bulldogs",
    "name": "Grove School",
    "primary_color": "Royal Blue",
    "secondary_color": "White",
    "state": "CT",
    "timezone": "America/New_York",
    "updated_at": "2012-07-07T23:11:21Z",
    "zip": "06443"
  },
  {
    "address": "261 Derby Ave",
    "city": "Orange",
    "county": "New Haven County",
    "created_at": "2012-01-04T20:13:50Z",
    "id": 4589,
    "latitude": "41.298902",
    "longitude": "-73.007959",
    "mascot": null,
    "name": "Beth Chana Academy",
    "primary_color": "Hunter Green",
    "secondary_color": "Navy",
    "state": "CT",
    "timezone": "America/New_York",
    "updated_at": "2012-07-07T23:11:22Z",
    "zip": "06477"
  },
  {
    "address": "182 Mohegan Ave",
    "city": "New London",
    "county": "New London County",
    "created_at": "2012-01-04T20:13:50Z",
    "id": 4590,
    "latitude": "41.376573",
    "longitude": "-72.102986",
    "mascot": null,
    "name": "Williams School",
    "primary_color": "Royal",
    "secondary_color": "White",
    "state": "CT",
    "timezone": "America/New_York",
    "updated_at": "2012-07-07T23:11:23Z",
    "zip": "06320"
  },
  {
    "address": "398 Pomfret St",
    "city": "Pomfret",
    "county": "Windham County",
    "created_at": "2012-01-04T20:13:50Z",
    "id": 4591,
    "latitude": "41.884452",
    "longitude": "-71.961948",
    "mascot": "Griffins",
    "name": "Pomfret School",
    "primary_color": "Red",
    "secondary_color": "Black",
    "state": "CT",
    "timezone": "America/New_York",
    "updated_at": "2012-07-07T23:11:24Z",
    "zip": "06258"
  },
  {
    "address": "528 Pomfret St",
    "city": "Pomfret",
    "county": "Windham County",
    "created_at": "2012-01-04T20:13:50Z",
    "id": 4592,
    "latitude": "41.892713",
    "longitude": "-71.962147",
    "mascot": null,
    "name": "The Rectory School",
    "primary_color": "Black",
    "secondary_color": "Orange",
    "state": "CT",
    "timezone": "America/New_York",
    "updated_at": "2012-07-07T23:11:25Z",
    "zip": "06258"
  },
  {
    "address": "57 Academy Rd",
    "city": "Woodstock",
    "county": "Windham County",
    "created_at": "2012-01-04T20:13:50Z",
    "id": 4593,
    "latitude": "41.951809",
    "longitude": "-71.976674",
    "mascot": "Centaurs",
    "name": "Woodstock Academy",
    "primary_color": "Gold",
    "secondary_color": "Royal",
    "state": "CT",
    "timezone": "America/New_York",
    "updated_at": "2012-07-07T23:11:26Z",
    "zip": "06281"
  },
  {
    "address": "200 High St",
    "city": "Milford",
    "county": "New Haven County",
    "created_at": "2012-01-04T20:13:50Z",
    "id": 4594,
    "latitude": "41.224268",
    "longitude": "-73.061904",
    "mascot": "Mansion Towers",
    "name": "Academy Of Our Lady Of Mercy",
    "primary_color": "Navy",
    "secondary_color": "White",
    "state": "CT",
    "timezone": "America/New_York",
    "updated_at": "2012-07-07T23:11:27Z",
    "zip": "06460"
  },
  {
    "address": "1181 Fairfield Ave",
    "city": "Bridgeport",
    "county": "Fairfield County",
    "created_at": "2012-01-04T20:13:50Z",
    "id": 4595,
    "latitude": "41.173979",
    "longitude": "-73.206844",
    "mascot": "Lions",
    "name": "Bassick High School",
    "primary_color": "Kelly Green",
    "secondary_color": "White",
    "state": "CT",
    "timezone": "America/New_York",
    "updated_at": "2012-07-07T23:11:27Z",
    "zip": "06605"
  },
  {
    "address": "1 Lincoln Blvd",
    "city": "Bridgeport",
    "county": "Fairfield County",
    "created_at": "2012-01-04T20:13:50Z",
    "id": 4596,
    "latitude": "41.189361",
    "longitude": "-73.207359",
    "mascot": "Rams",
    "name": "Central High School",
    "primary_color": "Black",
    "secondary_color": "Red",
    "state": "CT",
    "timezone": "America/New_York",
    "updated_at": "2012-07-07T23:11:28Z",
    "zip": "06606"
  },
  {
    "address": "115 Highland Ave",
    "city": "Bridgeport",
    "county": "Fairfield County",
    "created_at": "2012-01-04T20:13:50Z",
    "id": 4597,
    "latitude": "41.183269",
    "longitude": "-73.196085",
    "mascot": null,
    "name": "Center For Interim Education",
    "primary_color": null,
    "secondary_color": null,
    "state": "CT",
    "timezone": "America/New_York",
    "updated_at": "2012-07-07T23:11:29Z",
    "zip": "06604"
  },
  {
    "address": "389 Kossuth St",
    "city": "Bridgeport",
    "county": "Fairfield County",
    "created_at": "2012-01-04T20:13:50Z",
    "id": 4598,
    "latitude": "41.183715",
    "longitude": "-73.182831",
    "mascot": null,
    "name": "Harding Preparatory School",
    "primary_color": null,
    "secondary_color": null,
    "state": "CT",
    "timezone": "America/New_York",
    "updated_at": "2012-07-07T23:11:30Z",
    "zip": "06608"
  },
  {
    "address": "300 Highland Ave",
    "city": "Norwalk",
    "county": "Fairfield County",
    "created_at": "2012-01-04T20:13:50Z",
    "id": 4599,
    "latitude": "41.084890",
    "longitude": "-73.435164",
    "mascot": "Senators",
    "name": "Brien McMahon High School",
    "primary_color": "Red",
    "secondary_color": "White",
    "state": "CT",
    "timezone": "America/New_York",
    "updated_at": "2012-07-07T23:11:31Z",
    "zip": "06854"
  },
  {
    "address": "23 Calvin Murphy Dr",
    "city": "Norwalk",
    "county": "Fairfield County",
    "created_at": "2012-01-04T20:13:50Z",
    "id": 4600,
    "latitude": "41.123170",
    "longitude": "-73.387977",
    "mascot": "Bears",
    "name": "Norwalk High School",
    "primary_color": "Kelly Green",
    "secondary_color": "White",
    "state": "CT",
    "timezone": "America/New_York",
    "updated_at": "2012-07-07T23:11:32Z",
    "zip": "06851"
  },
  {
    "address": "55 Strawberry Hill Ave",
    "city": "Stamford",
    "county": "Fairfield County",
    "created_at": "2012-01-04T20:13:50Z",
    "id": 4601,
    "latitude": "41.062083",
    "longitude": "-73.533030",
    "mascot": "Knights",
    "name": "Stamford High School",
    "primary_color": "Orange",
    "secondary_color": "Black",
    "state": "CT",
    "timezone": "America/New_York",
    "updated_at": "2012-07-07T23:11:33Z",
    "zip": "06902"
  },
  {
    "address": "125 Roxbury Rd",
    "city": "Stamford",
    "county": "Fairfield County",
    "created_at": "2012-01-04T20:13:50Z",
    "id": 4602,
    "latitude": "41.090669",
    "longitude": "-73.566219",
    "mascot": "Vikings",
    "name": "Westhill High School",
    "primary_color": "Yellow",
    "secondary_color": "Purple",
    "state": "CT",
    "timezone": "America/New_York",
    "updated_at": "2012-07-07T23:11:34Z",
    "zip": "06902"
  },
  {
    "address": "10 Hillside Rd",
    "city": "Greenwich",
    "county": "Fairfield County",
    "created_at": "2012-01-04T20:13:50Z",
    "id": 4603,
    "latitude": "41.038543",
    "longitude": "-73.610825",
    "mascot": "Cardinals",
    "name": "Greenwich High School",
    "primary_color": "Red",
    "secondary_color": "White",
    "state": "CT",
    "timezone": "America/New_York",
    "updated_at": "2012-07-07T23:11:35Z",
    "zip": "06830"
  },
  {
    "address": "1014 Monroe Tpke",
    "city": "Monroe",
    "county": "Fairfield County",
    "created_at": "2012-01-04T20:13:50Z",
    "id": 4604,
    "latitude": "41.348656",
    "longitude": "-73.198128",
    "mascot": "Panthers",
    "name": "Masuk High School",
    "primary_color": "Red",
    "secondary_color": "White",
    "state": "CT",
    "timezone": "America/New_York",
    "updated_at": "2012-07-07T23:11:36Z",
    "zip": "06468"
  },
  {
    "address": "11 Farm Rd",
    "city": "New Canaan",
    "county": "Fairfield County",
    "created_at": "2012-01-04T20:13:50Z",
    "id": 4605,
    "latitude": "41.131132",
    "longitude": "-73.488687",
    "mascot": "Rams",
    "name": "New Canaan High School",
    "primary_color": "Red",
    "secondary_color": "Black",
    "state": "CT",
    "timezone": "America/New_York",
    "updated_at": "2012-07-07T23:11:37Z",
    "zip": "06840"
  },
  {
    "address": "700 N Salem Rd",
    "city": "Ridgefield",
    "county": "Fairfield County",
    "created_at": "2012-01-04T20:13:50Z",
    "id": 4606,
    "latitude": "41.325264",
    "longitude": "-73.528721",
    "mascot": "Tigers",
    "name": "Ridgefield High School",
    "primary_color": "Orange",
    "secondary_color": "Black",
    "state": "CT",
    "timezone": "America/New_York",
    "updated_at": "2012-07-07T23:11:38Z",
    "zip": "06877"
  },
  {
    "address": "45 N Parade",
    "city": "Stratford",
    "county": "Fairfield County",
    "created_at": "2012-01-04T20:13:50Z",
    "id": 4607,
    "latitude": "41.196742",
    "longitude": "-73.132340",
    "mascot": "Red Devils",
    "name": "Stratford High School",
    "primary_color": "Gold",
    "secondary_color": "Red",
    "state": "CT",
    "timezone": "America/New_York",
    "updated_at": "2012-07-07T23:11:39Z",
    "zip": "06615"
  },
  {
    "address": "150 Lincoln St",
    "city": "Stratford",
    "county": "Fairfield County",
    "created_at": "2012-01-04T20:13:50Z",
    "id": 4608,
    "latitude": "41.210963",
    "longitude": "-73.140558",
    "mascot": null,
    "name": "Western High School",
    "primary_color": "Royal",
    "secondary_color": "White",
    "state": "CT",
    "timezone": "America/New_York",
    "updated_at": "2012-07-07T23:11:40Z",
    "zip": "06497"
  },
  {
    "address": "72 Strobel Rd",
    "city": "Trumbull",
    "county": "Fairfield County",
    "created_at": "2012-01-04T20:13:50Z",
    "id": 4609,
    "latitude": "41.265317",
    "longitude": "-73.191694",
    "mascot": "Eagles",
    "name": "Trumbull High School",
    "primary_color": "Gold",
    "secondary_color": "Black",
    "state": "CT",
    "timezone": "America/New_York",
    "updated_at": "2012-07-07T23:11:41Z",
    "zip": "06611"
  },
  {
    "address": "115 School Rd",
    "city": "Weston",
    "county": "Fairfield County",
    "created_at": "2012-01-04T20:13:50Z",
    "id": 4610,
    "latitude": "41.210072",
    "longitude": "-73.379301",
    "mascot": "Trojans",
    "name": "Weston High School",
    "primary_color": "Gold",
    "secondary_color": "Navy",
    "state": "CT",
    "timezone": "America/New_York",
    "updated_at": "2012-07-07T23:11:42Z",
    "zip": "06883"
  },
  {
    "address": "70 N Ave",
    "city": "Westport",
    "county": "Fairfield County",
    "created_at": "2012-01-04T20:13:50Z",
    "id": 4611,
    "latitude": "41.153291",
    "longitude": "-73.331014",
    "mascot": null,
    "name": "Staples High School",
    "primary_color": "Royal",
    "secondary_color": "White",
    "state": "CT",
    "timezone": "America/New_York",
    "updated_at": "2012-07-07T23:11:43Z",
    "zip": "06880"
  },
  {
    "address": "395 Danbury Rd",
    "city": "Wilton",
    "county": "Fairfield County",
    "created_at": "2012-01-04T20:13:50Z",
    "id": 4612,
    "latitude": "41.210712",
    "longitude": "-73.431842",
    "mascot": "Warriors",
    "name": "Wilton High School",
    "primary_color": "Royal",
    "secondary_color": "White",
    "state": "CT",
    "timezone": "America/New_York",
    "updated_at": "2012-07-07T23:11:44Z",
    "zip": "06897"
  },
  {
    "address": "300 Whittlesey",
    "city": "Bethel",
    "county": "Fairfield County",
    "created_at": "2012-01-04T20:13:50Z",
    "id": 4613,
    "latitude": "41.381000",
    "longitude": "-73.394996",
    "mascot": "Wildcats",
    "name": "Bethel High School",
    "primary_color": "Maroon",
    "secondary_color": "White",
    "state": "CT",
    "timezone": "America/New_York",
    "updated_at": "2012-07-07T23:11:45Z",
    "zip": "06801"
  },
  {
    "address": "45 Longmeadow Hill Rd",
    "city": "Brookfield",
    "county": "Fairfield County",
    "created_at": "2012-01-04T20:13:50Z",
    "id": 4614,
    "latitude": "41.479885",
    "longitude": "-73.390967",
    "mascot": "Bobcats",
    "name": "Brookfield High School",
    "primary_color": "Gold",
    "secondary_color": "Royal",
    "state": "CT",
    "timezone": "America/New_York",
    "updated_at": "2012-07-07T23:11:46Z",
    "zip": "06804"
  },
  {
    "address": "755 Melville Ave",
    "city": "Fairfield",
    "county": "Fairfield County",
    "created_at": "2012-01-04T20:13:50Z",
    "id": 4615,
    "latitude": "41.187344",
    "longitude": "-73.232722",
    "mascot": "Mustangs",
    "name": "Fairfield Warde High School",
    "primary_color": "Red",
    "secondary_color": "White",
    "state": "CT",
    "timezone": "America/New_York",
    "updated_at": "2012-07-07T23:11:47Z",
    "zip": "06825"
  },
  {
    "address": "100 Black Rock Tpke",
    "city": "Redding",
    "county": "Fairfield County",
    "created_at": "2012-01-04T20:13:50Z",
    "id": 4616,
    "latitude": "41.298729",
    "longitude": "-73.344810",
    "mascot": "Falcons",
    "name": "Joel Barlow High School Region 9",
    "primary_color": "Gold",
    "secondary_color": "White",
    "state": "CT",
    "timezone": "America/New_York",
    "updated_at": "2012-07-07T23:11:49Z",
    "zip": "06896"
  },
  {
    "address": "510 W Avon Rd",
    "city": "Avon",
    "county": "Hartford County",
    "created_at": "2012-01-04T20:13:50Z",
    "id": 4617,
    "latitude": "41.783433",
    "longitude": "-72.864421",
    "mascot": "Falcons",
    "name": "Avon High School",
    "primary_color": "Royal",
    "secondary_color": "White",
    "state": "CT",
    "timezone": "America/New_York",
    "updated_at": "2012-07-07T23:11:50Z",
    "zip": "06001"
  },
  {
    "address": "300 Wethersfield Ave",
    "city": "Hartford",
    "county": "Hartford County",
    "created_at": "2012-01-04T20:13:50Z",
    "id": 4618,
    "latitude": "41.747650",
    "longitude": "-72.673471",
    "mascot": "Bulldogs",
    "name": "Bulkeley High School",
    "primary_color": "Maroon",
    "secondary_color": "White",
    "state": "CT",
    "timezone": "America/New_York",
    "updated_at": "2012-07-07T23:11:51Z",
    "zip": "06114"
  },
  {
    "address": "55 Forest St",
    "city": "Hartford",
    "county": "Hartford County",
    "created_at": "2012-01-04T20:13:50Z",
    "id": 4619,
    "latitude": "41.765287",
    "longitude": "-72.700314",
    "mascot": "Owls",
    "name": "Hartford Public High School",
    "primary_color": "Royal",
    "secondary_color": "White",
    "state": "CT",
    "timezone": "America/New_York",
    "updated_at": "2012-07-07T23:11:52Z",
    "zip": "06105"
  },
  {
    "address": "110 Mill St",
    "city": "New Britain",
    "county": "Hartford County",
    "created_at": "2012-01-04T20:13:50Z",
    "id": 4620,
    "latitude": "41.651095",
    "longitude": "-72.778513",
    "mascot": "Golden Hurricanes",
    "name": "New Britain High School",
    "primary_color": "Gold",
    "secondary_color": "Maroon",
    "state": "CT",
    "timezone": "America/New_York",
    "updated_at": "2012-07-07T23:11:53Z",
    "zip": "06051"
  },
  {
    "address": "26 Lyon Rd",
    "city": "Burlington",
    "county": "Hartford County",
    "created_at": "2012-01-04T20:13:50Z",
    "id": 4621,
    "latitude": "41.782532",
    "longitude": "-72.988278",
    "mascot": "Spartans",
    "name": "Lewis S Mills High School",
    "primary_color": "Royal",
    "secondary_color": "White",
    "state": "CT",
    "timezone": "America/New_York",
    "updated_at": "2012-07-07T23:11:54Z",
    "zip": "06013"
  },
  {
    "address": "76 Simonds Ave",
    "city": "Collinsville",
    "county": "Hartford County",
    "created_at": "2012-01-04T20:13:50Z",
    "id": 4622,
    "latitude": "41.823782",
    "longitude": "-72.914632",
    "mascot": "Warriors",
    "name": "Canton Junior Senior High School",
    "primary_color": "Maroon",
    "secondary_color": "White",
    "state": "CT",
    "timezone": "America/New_York",
    "updated_at": "2012-07-07T23:11:55Z",
    "zip": "06022"
  },
  {
    "address": "869 Forbes St",
    "city": "East Hartford",
    "county": "Hartford County",
    "created_at": "2012-01-04T20:13:50Z",
    "id": 4623,
    "latitude": "41.752142",
    "longitude": "-72.605542",
    "mascot": "Hornets",
    "name": "East Hartford High School",
    "primary_color": "Black",
    "secondary_color": "Gold",
    "state": "CT",
    "timezone": "America/New_York",
    "updated_at": "2012-07-07T23:11:57Z",
    "zip": "06108"
  },
  {
    "address": "76 S Main St",
    "city": "East Windsor",
    "county": "Hartford County",
    "created_at": "2012-01-04T20:13:50Z",
    "id": 4624,
    "latitude": "41.901343",
    "longitude": "-72.610338",
    "mascot": "Panthers",
    "name": "East Windsor High School",
    "primary_color": "Gold",
    "secondary_color": "Black",
    "state": "CT",
    "timezone": "America/New_York",
    "updated_at": "2012-07-07T23:11:58Z",
    "zip": "06088"
  },
  {
    "address": "1264 Enfield St",
    "city": "Enfield",
    "county": "Hartford County",
    "created_at": "2012-01-04T20:13:50Z",
    "id": 4625,
    "latitude": "41.979107",
    "longitude": "-72.592241",
    "mascot": "Raiders",
    "name": "Enfield High School",
    "primary_color": "Gold",
    "secondary_color": "Kelly Green",
    "state": "CT",
    "timezone": "America/New_York",
    "updated_at": "2012-07-07T23:11:59Z",
    "zip": "06082"
  },
  {
    "address": "124 N Maple St",
    "city": "Enfield",
    "county": "Hartford County",
    "created_at": "2012-01-04T20:13:50Z",
    "id": 4626,
    "latitude": "41.999260",
    "longitude": "-72.540973",
    "mascot": "Falcons",
    "name": "Enrico Fermi High School",
    "primary_color": "Columbia Blue",
    "secondary_color": "Black",
    "state": "CT",
    "timezone": "America/New_York",
    "updated_at": "2012-07-07T23:12:01Z",
    "zip": "06082"
  },
  {
    "address": "10 Monteith Dr",
    "city": "Farmington",
    "county": "Hartford County",
    "created_at": "2012-01-04T20:13:50Z",
    "id": 4627,
    "latitude": "41.748590",
    "longitude": "-72.868243",
    "mascot": "Indians",
    "name": "Farmington High School",
    "primary_color": "Gray",
    "secondary_color": "Maroon",
    "state": "CT",
    "timezone": "America/New_York",
    "updated_at": "2012-07-07T23:12:02Z",
    "zip": "06034"
  },
  {
    "address": "330 Hubbard St",
    "city": "Glastonbury",
    "county": "Hartford County",
    "created_at": "2012-01-04T20:13:50Z",
    "id": 4628,
    "latitude": "41.702662",
    "longitude": "-72.592381",
    "mascot": "Tomahawks",
    "name": "Glastonbury High School",
    "primary_color": "Royal",
    "secondary_color": "White",
    "state": "CT",
    "timezone": "America/New_York",
    "updated_at": "2012-07-07T23:12:03Z",
    "zip": "06033"
  },
  {
    "address": "315 Salmon Brook St",
    "city": "Granby",
    "county": "Hartford County",
    "created_at": "2012-01-04T20:13:50Z",
    "id": 4629,
    "latitude": "41.960013",
    "longitude": "-72.790724",
    "mascot": "Bears",
    "name": "Granby Memorial High School",
    "primary_color": "Maroon",
    "secondary_color": "Gold",
    "state": "CT",
    "timezone": "America/New_York",
    "updated_at": "2012-07-07T23:12:04Z",
    "zip": "06035"
  },
  {
    "address": "134 E Middle Tpke",
    "city": "Manchester",
    "county": "Hartford County",
    "created_at": "2012-01-04T20:13:50Z",
    "id": 4630,
    "latitude": "41.783907",
    "longitude": "-72.517001",
    "mascot": "Indians",
    "name": "Manchester High School",
    "primary_color": "Red",
    "secondary_color": "White",
    "state": "CT",
    "timezone": "America/New_York",
    "updated_at": "2012-07-07T23:12:05Z",
    "zip": "06040"
  },
  {
    "address": "665 Wetherell St",
    "city": "Manchester",
    "county": "Hartford County",
    "created_at": "2012-01-04T20:13:50Z",
    "id": 4631,
    "latitude": "41.758531",
    "longitude": "-72.567753",
    "mascot": "Panthers",
    "name": "Manchester Regional Academy",
    "primary_color": "Purple",
    "secondary_color": "Gold",
    "state": "CT",
    "timezone": "America/New_York",
    "updated_at": "2012-07-07T23:12:05Z",
    "zip": "06040"
  },
  {
    "address": "605 Willard Ave",
    "city": "Newington",
    "county": "Hartford County",
    "created_at": "2012-01-04T20:13:50Z",
    "id": 4632,
    "latitude": "41.700953",
    "longitude": "-72.734512",
    "mascot": "Indians",
    "name": "Newington High School",
    "primary_color": "Royal",
    "secondary_color": "Gold",
    "state": "CT",
    "timezone": "America/New_York",
    "updated_at": "2012-07-07T23:12:06Z",
    "zip": "06111"
  },
  {
    "address": "47 Robert Holcomb Way",
    "city": "Plainville",
    "county": "Hartford County",
    "created_at": "2012-01-04T20:13:50Z",
    "id": 4633,
    "latitude": "41.666140",
    "longitude": "-72.857624",
    "mascot": "Devils",
    "name": "Plainville High School",
    "primary_color": "Royal",
    "secondary_color": "White",
    "state": "CT",
    "timezone": "America/New_York",
    "updated_at": "2012-07-07T23:12:07Z",
    "zip": "06062"
  },
  {
    "address": "50 Chapin Ave",
    "city": "Rocky Hill",
    "county": "Hartford County",
    "created_at": "2012-01-04T20:13:50Z",
    "id": 4634,
    "latitude": "41.669621",
    "longitude": "-72.645152",
    "mascot": "Terriers",
    "name": "Rocky Hill High School",
    "primary_color": "Royal",
    "secondary_color": "White",
    "state": "CT",
    "timezone": "America/New_York",
    "updated_at": "2012-07-07T23:12:08Z",
    "zip": "06067"
  },
  {
    "address": "34 Farms Vlg Rd",
    "city": "Simsbury",
    "county": "Hartford County",
    "created_at": "2012-01-04T20:13:50Z",
    "id": 4635,
    "latitude": "41.870010",
    "longitude": "-72.822282",
    "mascot": "Trojans",
    "name": "Simsbury High School",
    "primary_color": "Gold",
    "secondary_color": "Royal",
    "state": "CT",
    "timezone": "America/New_York",
    "updated_at": "2012-07-07T23:12:18Z",
    "zip": "06070"
  },
  {
    "address": "720 Pleasant St",
    "city": "Southington",
    "county": "Hartford County",
    "created_at": "2012-01-04T20:13:50Z",
    "id": 4636,
    "latitude": "41.617342",
    "longitude": "-72.859942",
    "mascot": "Blue Knights",
    "name": "Southington Senior High School",
    "primary_color": "Royal",
    "secondary_color": "White",
    "state": "CT",
    "timezone": "America/New_York",
    "updated_at": "2012-07-07T23:12:19Z",
    "zip": "06489"
  },
  {
    "address": "161 Nevers Rd",
    "city": "South Windsor",
    "county": "Hartford County",
    "created_at": "2012-01-04T20:13:50Z",
    "id": 4637,
    "latitude": "41.842224",
    "longitude": "-72.551813",
    "mascot": "Bobcats",
    "name": "South Windsor High School",
    "primary_color": "Maroon",
    "secondary_color": "Gold",
    "state": "CT",
    "timezone": "America/New_York",
    "updated_at": "2012-07-07T23:12:20Z",
    "zip": "06074"
  },
  {
    "address": "350 Mountain Rd",
    "city": "Suffield",
    "county": "Hartford County",
    "created_at": "2012-01-04T20:13:50Z",
    "id": 4638,
    "latitude": "41.983483",
    "longitude": "-72.663983",
    "mascot": "Wildcats",
    "name": "Suffield High School",
    "primary_color": "Royal",
    "secondary_color": "White",
    "state": "CT",
    "timezone": "America/New_York",
    "updated_at": "2012-07-07T23:12:20Z",
    "zip": "06078"
  },
  {
    "address": "110 Berkshire Rd",
    "city": "West Hartford",
    "county": "Hartford County",
    "created_at": "2012-01-04T20:13:50Z",
    "id": 4639,
    "latitude": "41.736739",
    "longitude": "-72.754200",
    "mascot": "Chieftains",
    "name": "Conard High School",
    "primary_color": "Gray",
    "secondary_color": "Red",
    "state": "CT",
    "timezone": "America/New_York",
    "updated_at": "2012-07-07T23:12:21Z",
    "zip": "06107"
  },
  {
    "address": "975 N Main St",
    "city": "West Hartford",
    "county": "Hartford County",
    "created_at": "2012-01-04T20:13:50Z",
    "id": 4640,
    "latitude": "41.794749",
    "longitude": "-72.747089",
    "mascot": "Warriors",
    "name": "Hall High School",
    "primary_color": "Royal",
    "secondary_color": "White",
    "state": "CT",
    "timezone": "America/New_York",
    "updated_at": "2012-07-07T23:12:22Z",
    "zip": "06117"
  },
  {
    "address": "50 Sage Park Rd",
    "city": "Windsor",
    "county": "Hartford County",
    "created_at": "2012-01-04T20:13:50Z",
    "id": 4641,
    "latitude": "41.842962",
    "longitude": "-72.657412",
    "mascot": "Warriors",
    "name": "Windsor High School",
    "primary_color": "Maroon",
    "secondary_color": "White",
    "state": "CT",
    "timezone": "America/New_York",
    "updated_at": "2012-07-07T23:12:23Z",
    "zip": "06095"
  },
  {
    "address": "480 Wolcott St",
    "city": "Bristol",
    "county": "Hartford County",
    "created_at": "2012-01-04T20:13:50Z",
    "id": 4642,
    "latitude": "41.660302",
    "longitude": "-72.958706",
    "mascot": "Rams",
    "name": "Bristol Central High School",
    "primary_color": "Maroon",
    "secondary_color": "White",
    "state": "CT",
    "timezone": "America/New_York",
    "updated_at": "2012-07-07T23:12:23Z",
    "zip": "06010"
  },
  {
    "address": "632 King St",
    "city": "Bristol",
    "county": "Hartford County",
    "created_at": "2012-01-04T20:13:50Z",
    "id": 4643,
    "latitude": "41.685951",
    "longitude": "-72.925146",
    "mascot": "Lancers",
    "name": "Bristol Eastern High School",
    "primary_color": "Royal",
    "secondary_color": "Gray",
    "state": "CT",
    "timezone": "America/New_York",
    "updated_at": "2012-07-07T23:12:24Z",
    "zip": "06010"
  },
  {
    "address": "139 Patterson Way",
    "city": "Berlin",
    "county": "Hartford County",
    "created_at": "2012-01-04T20:13:50Z",
    "id": 4644,
    "latitude": "41.622659",
    "longitude": "-72.752241",
    "mascot": "Red Coats",
    "name": "Berlin High School",
    "primary_color": "Red",
    "secondary_color": "Royal",
    "state": "CT",
    "timezone": "America/New_York",
    "updated_at": "2012-07-07T23:12:25Z",
    "zip": "06037"
  },
  {
    "address": "5 Huckleberry Ln",
    "city": "Bloomfield",
    "county": "Hartford County",
    "created_at": "2012-01-04T20:13:50Z",
    "id": 4645,
    "latitude": "41.825784",
    "longitude": "-72.726156",
    "mascot": "Warhawks",
    "name": "Bloomfield High School",
    "primary_color": "Orange",
    "secondary_color": "Royal",
    "state": "CT",
    "timezone": "America/New_York",
    "updated_at": "2012-07-07T23:12:26Z",
    "zip": "06002"
  },
  {
    "address": "Major Besse Dr",
    "city": "Torrington",
    "county": "Litchfield County",
    "created_at": "2012-01-04T20:13:50Z",
    "id": 4646,
    "latitude": "41.815181",
    "longitude": "-73.110747",
    "mascot": "Raiders",
    "name": "Torrington High School",
    "primary_color": "Maroon",
    "secondary_color": "White",
    "state": "CT",
    "timezone": "America/New_York",
    "updated_at": "2012-07-07T23:12:26Z",
    "zip": "06790"
  },
  {
    "address": "98 Wamogo Rd",
    "city": "Litchfield",
    "county": "Litchfield County",
    "created_at": "2012-01-04T20:13:50Z",
    "id": 4647,
    "latitude": "41.726722",
    "longitude": "-73.224566",
    "mascot": "Warriors",
    "name": "Wamogo Regional High School",
    "primary_color": "Red",
    "secondary_color": "White",
    "state": "CT",
    "timezone": "America/New_York",
    "updated_at": "2012-07-07T23:12:27Z",
    "zip": "06759"
  },
  {
    "address": "388 Danbury Rd",
    "city": "New Milford",
    "county": "Litchfield County",
    "created_at": "2012-01-04T20:13:50Z",
    "id": 4648,
    "latitude": "41.527898",
    "longitude": "-73.423453",
    "mascot": "Greenwave",
    "name": "New Milford High School",
    "primary_color": "Gold",
    "secondary_color": "Kelly Green",
    "state": "CT",
    "timezone": "America/New_York",
    "updated_at": "2012-07-07T23:12:28Z",
    "zip": "06776"
  },
  {
    "address": "21 N Main St",
    "city": "Terryville",
    "county": "Litchfield County",
    "created_at": "2012-01-04T20:13:51Z",
    "id": 4649,
    "latitude": "41.679241",
    "longitude": "-73.009377",
    "mascot": "Kangaroos",
    "name": "Terryville High School",
    "primary_color": "Black",
    "secondary_color": "Orange",
    "state": "CT",
    "timezone": "America/New_York",
    "updated_at": "2012-07-07T23:12:29Z",
    "zip": "06786"
  },
  {
    "address": "185 Branch Rd",
    "city": "Thomaston",
    "county": "Litchfield County",
    "created_at": "2012-01-04T20:13:51Z",
    "id": 4650,
    "latitude": "41.658119",
    "longitude": "-73.094980",
    "mascot": "Bears",
    "name": "Thomaston High School",
    "primary_color": "Gold",
    "secondary_color": "Brown",
    "state": "CT",
    "timezone": "America/New_York",
    "updated_at": "2012-07-07T23:12:30Z",
    "zip": "06787"
  },
  {
    "address": "159 South St",
    "city": "Washington",
    "county": "Litchfield County",
    "created_at": "2012-01-04T20:13:51Z",
    "id": 4651,
    "latitude": "41.604223",
    "longitude": "-73.304459",
    "mascot": "Spartan Heads",
    "name": "Shepaug Valley Middle High School",
    "primary_color": "Royal",
    "secondary_color": "White",
    "state": "CT",
    "timezone": "America/New_York",
    "updated_at": "2012-07-07T23:12:30Z",
    "zip": "06793"
  },
  {
    "address": "79 Gay St",
    "city": "Winsted",
    "county": "Litchfield County",
    "created_at": "2012-01-04T20:13:51Z",
    "id": 4652,
    "latitude": "41.922980",
    "longitude": "-73.066527",
    "mascot": null,
    "name": "Winchester Alternative High School",
    "primary_color": null,
    "secondary_color": null,
    "state": "CT",
    "timezone": "America/New_York",
    "updated_at": "2012-07-07T23:12:31Z",
    "zip": "06098"
  },
  {
    "address": "246 Warren Tpke Rd",
    "city": "Falls Village",
    "county": "Litchfield County",
    "created_at": "2012-01-04T20:13:51Z",
    "id": 4653,
    "latitude": "41.975822",
    "longitude": "-73.356911",
    "mascot": "Mountaineers",
    "name": "Housatonic Valley Regional High School",
    "primary_color": "Royal",
    "secondary_color": "Gold",
    "state": "CT",
    "timezone": "America/New_York",
    "updated_at": "2012-07-07T23:12:32Z",
    "zip": "06031"
  },
  {
    "address": "100 Battistoni Rd",
    "city": "Winsted",
    "county": "Litchfield County",
    "created_at": "2012-01-04T20:13:51Z",
    "id": 4654,
    "latitude": "41.914435",
    "longitude": "-73.047610",
    "mascot": "Stags",
    "name": "Northwestern Regional School 7",
    "primary_color": "Red",
    "secondary_color": "Gray",
    "state": "CT",
    "timezone": "America/New_York",
    "updated_at": "2012-07-07T23:12:33Z",
    "zip": "06098"
  },
  {
    "address": "5 Minortown Rd",
    "city": "Woodbury",
    "county": "Litchfield County",
    "created_at": "2012-01-04T20:13:51Z",
    "id": 4655,
    "latitude": "41.557423",
    "longitude": "-73.188331",
    "mascot": "Chiefs",
    "name": "Nonnewaug High School",
    "primary_color": "Red",
    "secondary_color": "White",
    "state": "CT",
    "timezone": "America/New_York",
    "updated_at": "2012-07-07T23:12:34Z",
    "zip": "06798"
  },
  {
    "address": "370 Hunting Hill Ave",
    "city": "Middletown",
    "county": "Middlesex County",
    "created_at": "2012-01-04T20:13:51Z",
    "id": 4656,
    "latitude": "41.540694",
    "longitude": "-72.647140",
    "mascot": "Dragons",
    "name": "Middletown High School",
    "primary_color": "Columbia Blue",
    "secondary_color": "Navy",
    "state": "CT",
    "timezone": "America/New_York",
    "updated_at": "2012-07-07T23:12:34Z",
    "zip": "06457"
  },
  {
    "address": "34 Evergreen Rd",
    "city": "Cromwell",
    "county": "Middlesex County",
    "created_at": "2012-01-04T20:13:51Z",
    "id": 4657,
    "latitude": "41.612480",
    "longitude": "-72.658895",
    "mascot": "Panthers",
    "name": "Cromwell High School",
    "primary_color": "Black",
    "secondary_color": "Red",
    "state": "CT",
    "timezone": "America/New_York",
    "updated_at": "2012-07-07T23:12:35Z",
    "zip": "06416"
  },
  {
    "address": "135 Pickett Ln",
    "city": "Durham",
    "county": "Middlesex County",
    "created_at": "2012-01-04T20:13:51Z",
    "id": 4658,
    "latitude": "41.475974",
    "longitude": "-72.671610",
    "mascot": "Blue Devils",
    "name": "Coginchaug Regional High School",
    "primary_color": "Royal",
    "secondary_color": "White",
    "state": "CT",
    "timezone": "America/New_York",
    "updated_at": "2012-07-07T23:12:36Z",
    "zip": "06422"
  },
  {
    "address": "1111 Boston Post Rd",
    "city": "Old Saybrook",
    "county": "Middlesex County",
    "created_at": "2012-01-04T20:13:51Z",
    "id": 4659,
    "latitude": "41.287518",
    "longitude": "-72.395997",
    "mascot": "Rams",
    "name": "Old Saybrook High School",
    "primary_color": "Royal",
    "secondary_color": "White",
    "state": "CT",
    "timezone": "America/New_York",
    "updated_at": "2012-07-07T23:12:37Z",
    "zip": "06475"
  },
  {
    "address": "95 High St",
    "city": "Portland",
    "county": "Middlesex County",
    "created_at": "2012-01-04T20:13:51Z",
    "id": 4660,
    "latitude": "41.581679",
    "longitude": "-72.624874",
    "mascot": "Highlanders",
    "name": "Portland High School",
    "primary_color": "Red",
    "secondary_color": "Black",
    "state": "CT",
    "timezone": "America/New_York",
    "updated_at": "2012-07-07T23:12:38Z",
    "zip": "06480"
  },
  {
    "address": "156 McVeagh Rd",
    "city": "Westbrook",
    "county": "Middlesex County",
    "created_at": "2012-01-04T20:13:51Z",
    "id": 4661,
    "latitude": "41.297568",
    "longitude": "-72.454160",
    "mascot": "Knights",
    "name": "Westbrook High School",
    "primary_color": "Purple",
    "secondary_color": "White",
    "state": "CT",
    "timezone": "America/New_York",
    "updated_at": "2012-07-07T23:12:39Z",
    "zip": "06498"
  },
  {
    "address": "256 Kelsey Hill Rd",
    "city": "Deep River",
    "county": "Middlesex County",
    "created_at": "2012-01-04T20:13:51Z",
    "id": 4662,
    "latitude": "41.368297",
    "longitude": "-72.446637",
    "mascot": "Warriors",
    "name": "Valley Regional High School",
    "primary_color": "Maroon",
    "secondary_color": "White",
    "state": "CT",
    "timezone": "America/New_York",
    "updated_at": "2012-07-07T23:12:40Z",
    "zip": "06417"
  },
  {
    "address": "20 Pulaski Hwy",
    "city": "Ansonia",
    "county": "New Haven County",
    "created_at": "2012-01-04T20:13:51Z",
    "id": 4663,
    "latitude": "41.329755",
    "longitude": "-73.063971",
    "mascot": "Chargers",
    "name": "Ansonia High School",
    "primary_color": "Royal",
    "secondary_color": "White",
    "state": "CT",
    "timezone": "America/New_York",
    "updated_at": "2012-07-07T23:12:40Z",
    "zip": "06401"
  },
  {
    "address": "220 Coe Ave",
    "city": "Meriden",
    "county": "New Haven County",
    "created_at": "2012-01-04T20:13:51Z",
    "id": 4664,
    "latitude": "41.535567",
    "longitude": "-72.826314",
    "mascot": "Panthers",
    "name": "Platt High School",
    "primary_color": "Gold",
    "secondary_color": "Navy",
    "state": "CT",
    "timezone": "America/New_York",
    "updated_at": "2012-07-07T23:12:41Z",
    "zip": "06451"
  },
  {
    "address": "140 Legion Ave",
    "city": "New Haven",
    "county": "New Haven County",
    "created_at": "2012-01-04T20:13:51Z",
    "id": 4665,
    "latitude": "41.306123",
    "longitude": "-72.940283",
    "mascot": "Panthers",
    "name": "Hill Regional Career High School",
    "primary_color": "Gold",
    "secondary_color": "Purple",
    "state": "CT",
    "timezone": "America/New_York",
    "updated_at": "2012-07-07T23:12:42Z",
    "zip": "06519"
  },
  {
    "address": "480 Sherman Pky",
    "city": "New Haven",
    "county": "New Haven County",
    "created_at": "2012-01-04T20:13:51Z",
    "id": 4666,
    "latitude": "41.322512",
    "longitude": "-72.938192",
    "mascot": "Academics",
    "name": "James Hillhouse High School",
    "primary_color": "Navy",
    "secondary_color": "White",
    "state": "CT",
    "timezone": "America/New_York",
    "updated_at": "2012-07-07T23:12:43Z",
    "zip": "06511"
  },
  {
    "address": "181 Mitchell Dr",
    "city": "New Haven",
    "county": "New Haven County",
    "created_at": "2012-01-04T20:13:51Z",
    "id": 4667,
    "latitude": "41.324131",
    "longitude": "-72.908623",
    "mascot": "Governors",
    "name": "Wilbur Cross High School",
    "primary_color": "Red",
    "secondary_color": "White",
    "state": "CT",
    "timezone": "America/New_York",
    "updated_at": "2012-07-07T23:12:44Z",
    "zip": "06511"
  },
  {
    "address": "444 Orange St",
    "city": "New Haven",
    "county": "New Haven County",
    "created_at": "2012-01-04T20:13:51Z",
    "id": 4668,
    "latitude": "41.312587",
    "longitude": "-72.918909",
    "mascot": null,
    "name": "Cooperative Arts & Magnet High School",
    "primary_color": "Maroon",
    "secondary_color": "White",
    "state": "CT",
    "timezone": "America/New_York",
    "updated_at": "2012-07-07T23:12:45Z",
    "zip": "06511"
  },
  {
    "address": "2040 Dixwell Ave",
    "city": "Hamden",
    "county": "New Haven County",
    "created_at": "2012-01-04T20:13:51Z",
    "id": 4669,
    "latitude": "41.366979",
    "longitude": "-72.920886",
    "mascot": "Dragons",
    "name": "Hamden High School",
    "primary_color": "Gold",
    "secondary_color": "Hunter Green",
    "state": "CT",
    "timezone": "America/New_York",
    "updated_at": "2012-07-07T23:12:46Z",
    "zip": "06514"
  },
  {
    "address": "300 Pierpont Rd",
    "city": "Waterbury",
    "county": "New Haven County",
    "created_at": "2012-01-04T20:13:51Z",
    "id": 4670,
    "latitude": "41.547964",
    "longitude": "-72.973838",
    "mascot": "Bulldogs",
    "name": "Crosby High School",
    "primary_color": "Royal",
    "secondary_color": "White",
    "state": "CT",
    "timezone": "America/New_York",
    "updated_at": "2012-07-07T23:12:46Z",
    "zip": "06705"
  },
  {
    "address": "568 Bucks Hill Rd",
    "city": "Waterbury",
    "county": "New Haven County",
    "created_at": "2012-01-04T20:13:51Z",
    "id": 4671,
    "latitude": "41.606174",
    "longitude": "-73.029976",
    "mascot": "Wildcats",
    "name": "Wilby High School",
    "primary_color": "Kelly Green",
    "secondary_color": "White",
    "state": "CT",
    "timezone": "America/New_York",
    "updated_at": "2012-07-07T23:12:47Z",
    "zip": "06704"
  },
  {
    "address": "35 State St",
    "city": "Waterbury",
    "county": "New Haven County",
    "created_at": "2012-01-04T20:13:51Z",
    "id": 4672,
    "latitude": "41.556550",
    "longitude": "-73.045231",
    "mascot": null,
    "name": "State Street School",
    "primary_color": "Maroon",
    "secondary_color": "White",
    "state": "CT",
    "timezone": "America/New_York",
    "updated_at": "2012-07-07T23:12:48Z",
    "zip": "06702"
  },
  {
    "address": "49 Caputo Rd",
    "city": "North Branford",
    "county": "New Haven County",
    "created_at": "2012-01-04T20:13:51Z",
    "id": 4673,
    "latitude": "41.334071",
    "longitude": "-72.802812",
    "mascot": "Thunder Birds",
    "name": "North Branford High School",
    "primary_color": "Purple",
    "secondary_color": "White",
    "state": "CT",
    "timezone": "America/New_York",
    "updated_at": "2012-07-07T23:12:49Z",
    "zip": "06471"
  },
  {
    "address": "222 Maple Ave",
    "city": "North Haven",
    "county": "New Haven County",
    "created_at": "2012-01-04T20:13:51Z",
    "id": 4674,
    "latitude": "41.374264",
    "longitude": "-72.851992",
    "mascot": "Indians",
    "name": "North Haven Senior High School",
    "primary_color": "Maroon",
    "secondary_color": "White",
    "state": "CT",
    "timezone": "America/New_York",
    "updated_at": "2012-07-07T23:12:50Z",
    "zip": "06473"
  },
  {
    "address": "2 Botsford Rd",
    "city": "Seymour",
    "county": "New Haven County",
    "created_at": "2012-01-04T20:13:51Z",
    "id": 4675,
    "latitude": "41.382376",
    "longitude": "-73.094727",
    "mascot": "Wildcats",
    "name": "Seymour High School",
    "primary_color": "Gold",
    "secondary_color": "Royal",
    "state": "CT",
    "timezone": "America/New_York",
    "updated_at": "2012-07-07T23:12:51Z",
    "zip": "06483"
  },
  {
    "address": "70 Pond Hill Rd",
    "city": "Wallingford",
    "county": "New Haven County",
    "created_at": "2012-01-04T20:13:51Z",
    "id": 4676,
    "latitude": "41.436693",
    "longitude": "-72.821387",
    "mascot": "Trojans",
    "name": "Lyman Hall High School",
    "primary_color": "Royal",
    "secondary_color": "Orange",
    "state": "CT",
    "timezone": "America/New_York",
    "updated_at": "2012-07-07T23:12:52Z",
    "zip": "06492"
  },
  {
    "address": "142 Hope Hill Rd",
    "city": "Wallingford",
    "county": "New Haven County",
    "created_at": "2012-01-04T20:13:51Z",
    "id": 4677,
    "latitude": "41.485245",
    "longitude": "-72.833658",
    "mascot": "Titans",
    "name": "Mark T Sheehan High School",
    "primary_color": "Gold",
    "secondary_color": "Maroon",
    "state": "CT",
    "timezone": "America/New_York",
    "updated_at": "2012-07-07T23:12:53Z",
    "zip": "06492"
  },
  {
    "address": "457 Bound Line Rd",
    "city": "Wolcott",
    "county": "New Haven County",
    "created_at": "2012-01-04T20:13:51Z",
    "id": 4678,
    "latitude": "41.606525",
    "longitude": "-72.976241",
    "mascot": "Eagles",
    "name": "Wolcott High School",
    "primary_color": "Gray",
    "secondary_color": "Red",
    "state": "CT",
    "timezone": "America/New_York",
    "updated_at": "2012-07-07T23:12:54Z",
    "zip": "06716"
  },
  {
    "address": "605 New England Rd",
    "city": "Guilford",
    "county": "New Haven County",
    "created_at": "2012-01-04T20:13:51Z",
    "id": 4679,
    "latitude": "41.313784",
    "longitude": "-72.711935",
    "mascot": "Indians",
    "name": "Guilford High School",
    "primary_color": "Gold",
    "secondary_color": "Kelly Green",
    "state": "CT",
    "timezone": "America/New_York",
    "updated_at": "2012-07-07T23:12:55Z",
    "zip": "06437"
  },
  {
    "address": "302 Green Hill Rd",
    "city": "Madison",
    "county": "New Haven County",
    "created_at": "2012-01-04T20:13:51Z",
    "id": 4680,
    "latitude": "41.297220",
    "longitude": "-72.620029",
    "mascot": "Tigers",
    "name": "Daniel Hand High School",
    "primary_color": "Gold",
    "secondary_color": "Black",
    "state": "CT",
    "timezone": "America/New_York",
    "updated_at": "2012-07-07T23:12:56Z",
    "zip": "06443"
  },
  {
    "address": "20 Lansdale Ave",
    "city": "Milford",
    "county": "New Haven County",
    "created_at": "2012-01-04T20:13:51Z",
    "id": 4681,
    "latitude": "41.203828",
    "longitude": "-73.087714",
    "mascot": "Golden Eagles",
    "name": "Jonathan Law High School",
    "primary_color": "Gold",
    "secondary_color": "Black",
    "state": "CT",
    "timezone": "America/New_York",
    "updated_at": "2012-07-07T23:12:57Z",
    "zip": "06460"
  },
  {
    "address": "1 McDonough Plaza",
    "city": "West Haven",
    "county": "New Haven County",
    "created_at": "2012-01-04T20:13:51Z",
    "id": 4682,
    "latitude": "41.274055",
    "longitude": "-72.966439",
    "mascot": "Devils",
    "name": "West Haven High School",
    "primary_color": "Royal",
    "secondary_color": "White",
    "state": "CT",
    "timezone": "America/New_York",
    "updated_at": "2012-07-07T23:12:58Z",
    "zip": "06516"
  },
  {
    "address": "190 Luke Hill Rd",
    "city": "Bethany",
    "county": "New Haven County",
    "created_at": "2012-01-04T20:13:51Z",
    "id": 4683,
    "latitude": "41.416730",
    "longitude": "-73.007272",
    "mascot": "Spartans",
    "name": "Amity Regional Junior High School",
    "primary_color": "Gold",
    "secondary_color": "Black",
    "state": "CT",
    "timezone": "America/New_York",
    "updated_at": "2012-07-07T23:12:58Z",
    "zip": "06524"
  },
  {
    "address": "25 Newton Rd",
    "city": "Woodbridge",
    "county": "New Haven County",
    "created_at": "2012-01-04T20:13:51Z",
    "id": 4684,
    "latitude": "41.355357",
    "longitude": "-73.011086",
    "mascot": "Spartans",
    "name": "Amity Regional Senior High School",
    "primary_color": "Gold",
    "secondary_color": "Black",
    "state": "CT",
    "timezone": "America/New_York",
    "updated_at": "2012-07-07T23:12:59Z",
    "zip": "06525"
  },
  {
    "address": "170 Ohman Ave",
    "city": "Orange",
    "county": "New Haven County",
    "created_at": "2012-01-04T20:13:51Z",
    "id": 4685,
    "latitude": "41.301696",
    "longitude": "-73.002484",
    "mascot": null,
    "name": "Amity Regional Junior High School Orange",
    "primary_color": "Gold",
    "secondary_color": "Black",
    "state": "CT",
    "timezone": "America/New_York",
    "updated_at": "2012-07-07T23:13:00Z",
    "zip": "06477"
  },
  {
    "address": "35 Wheelbarrow Ln",
    "city": "East Haven",
    "county": "New Haven County",
    "created_at": "2012-01-04T20:13:51Z",
    "id": 4686,
    "latitude": "41.325375",
    "longitude": "-72.832902",
    "mascot": "Yellow Jackets",
    "name": "East Haven High School",
    "primary_color": "Gold",
    "secondary_color": "Royal",
    "state": "CT",
    "timezone": "America/New_York",
    "updated_at": "2012-07-07T23:13:01Z",
    "zip": "06513"
  },
  {
    "address": "30 Chesterfield Rd",
    "city": "East Lyme",
    "county": "New London County",
    "created_at": "2012-01-04T20:13:51Z",
    "id": 4687,
    "latitude": "41.368396",
    "longitude": "-72.210418",
    "mascot": "Vikings",
    "name": "East Lyme High School",
    "primary_color": "Maroon",
    "secondary_color": "White",
    "state": "CT",
    "timezone": "America/New_York",
    "updated_at": "2012-07-07T23:13:02Z",
    "zip": "06333"
  },
  {
    "address": "182 Cedar St",
    "city": "Norwich",
    "county": "New London County",
    "created_at": "2012-01-04T20:13:51Z",
    "id": 4688,
    "latitude": "41.530936",
    "longitude": "-72.080531",
    "mascot": "Bobcats",
    "name": "Adult Education Program",
    "primary_color": "Gold",
    "secondary_color": "Royal",
    "state": "CT",
    "timezone": "America/New_York",
    "updated_at": "2012-07-07T23:13:03Z",
    "zip": "06360"
  },
  {
    "address": "917 Exeter Rd",
    "city": "Lebanon",
    "county": "New London County",
    "created_at": "2012-01-04T20:13:51Z",
    "id": 4689,
    "latitude": "41.626033",
    "longitude": "-72.239861",
    "mascot": "Bulldogs",
    "name": "Lyman Memorial High School",
    "primary_color": "Gold",
    "secondary_color": "Royal",
    "state": "CT",
    "timezone": "America/New_York",
    "updated_at": "2012-07-07T23:13:04Z",
    "zip": "06249"
  },
  {
    "address": "24 Gallup Hill Rd",
    "city": "Ledyard",
    "county": "New London County",
    "created_at": "2012-01-04T20:13:51Z",
    "id": 4690,
    "latitude": "41.439023",
    "longitude": "-71.993611",
    "mascot": "Colonels",
    "name": "Ledyard High School",
    "primary_color": "Navy",
    "secondary_color": "White",
    "state": "CT",
    "timezone": "America/New_York",
    "updated_at": "2012-07-07T23:13:05Z",
    "zip": "06339"
  },
  {
    "address": "800 Old Colchester Rd",
    "city": "Oakdale",
    "county": "New London County",
    "created_at": "2012-01-04T20:13:51Z",
    "id": 4691,
    "latitude": "41.457889",
    "longitude": "-72.163013",
    "mascot": "Indians",
    "name": "Montville High School",
    "primary_color": "Orange",
    "secondary_color": "Black",
    "state": "CT",
    "timezone": "America/New_York",
    "updated_at": "2012-07-07T23:13:06Z",
    "zip": "06370"
  },
  {
    "address": "238 Maple Ave",
    "city": "Montville",
    "county": "New London County",
    "created_at": "2012-01-04T20:13:51Z",
    "id": 4692,
    "latitude": "41.446557",
    "longitude": "-72.130596",
    "mascot": "Indians",
    "name": "Montville Alternative Education Center",
    "primary_color": "Royal",
    "secondary_color": "Black",
    "state": "CT",
    "timezone": "America/New_York",
    "updated_at": "2012-07-07T23:13:07Z",
    "zip": "06353"
  },
  {
    "address": "298 Norwich Wersley Rd",
    "city": "North Stonington",
    "county": "New London County",
    "created_at": "2012-01-04T20:13:51Z",
    "id": 4693,
    "latitude": "41.441053",
    "longitude": "-71.889364",
    "mascot": "Lions",
    "name": "Wheeler Junior Senior High School",
    "primary_color": "Maroon",
    "secondary_color": "White",
    "state": "CT",
    "timezone": "America/New_York",
    "updated_at": "2012-07-07T23:13:08Z",
    "zip": "06359"
  },
  {
    "address": "69 Lyme St",
    "city": "Old Lyme",
    "county": "New London County",
    "created_at": "2012-01-04T20:13:51Z",
    "id": 4694,
    "latitude": "41.320350",
    "longitude": "-72.329054",
    "mascot": "Wildcats",
    "name": "Lyme-Old Lyme High School",
    "primary_color": "Royal",
    "secondary_color": "White",
    "state": "CT",
    "timezone": "America/New_York",
    "updated_at": "2012-07-07T23:13:09Z",
    "zip": "06371"
  },
  {
    "address": "176 S Broad St",
    "city": "Pawcatuck",
    "county": "New London County",
    "created_at": "2012-01-04T20:13:51Z",
    "id": 4695,
    "latitude": "41.367288",
    "longitude": "-71.863257",
    "mascot": "Bears",
    "name": "Stonington High School",
    "primary_color": "Brown",
    "secondary_color": "White",
    "state": "CT",
    "timezone": "America/New_York",
    "updated_at": "2012-07-07T23:13:10Z",
    "zip": "06379"
  },
  {
    "address": "267 Slater Ave",
    "city": "Jewitt City",
    "county": "New London County",
    "created_at": "2012-01-04T20:13:51Z",
    "id": 4696,
    "latitude": "41.596881",
    "longitude": "-71.978304",
    "mascot": "Wolverines",
    "name": "Griswold High School",
    "primary_color": "Kelly Green",
    "secondary_color": "White",
    "state": "CT",
    "timezone": "America/New_York",
    "updated_at": "2012-07-07T23:13:11Z",
    "zip": "06351"
  },
  {
    "address": "78 Ripley Hill Rd",
    "city": "Coventry",
    "county": "Tolland County",
    "created_at": "2012-01-04T20:13:51Z",
    "id": 4697,
    "latitude": "41.782884",
    "longitude": "-72.313794",
    "mascot": "Patriots",
    "name": "Coventry High School",
    "primary_color": "Gold",
    "secondary_color": "Kelly Green",
    "state": "CT",
    "timezone": "America/New_York",
    "updated_at": "2012-07-07T23:13:12Z",
    "zip": "06238"
  },
  {
    "address": "37 Maple St",
    "city": "Ellington",
    "county": "Tolland County",
    "created_at": "2012-01-04T20:13:51Z",
    "id": 4698,
    "latitude": "41.908223",
    "longitude": "-72.460354",
    "mascot": "Knights",
    "name": "Ellington High School",
    "primary_color": "Gold",
    "secondary_color": "Purple",
    "state": "CT",
    "timezone": "America/New_York",
    "updated_at": "2012-07-07T23:13:13Z",
    "zip": "06029"
  },
  {
    "address": "59 Ninth District Rd",
    "city": "Somers",
    "county": "Tolland County",
    "created_at": "2012-01-04T20:13:51Z",
    "id": 4699,
    "latitude": "41.980221",
    "longitude": "-72.464247",
    "mascot": "Spartans",
    "name": "Somers High School",
    "primary_color": "Red",
    "secondary_color": "White",
    "state": "CT",
    "timezone": "America/New_York",
    "updated_at": "2012-07-07T23:13:14Z",
    "zip": "06071"
  },
  {
    "address": "97 Main St",
    "city": "Talcottville",
    "county": "Tolland County",
    "created_at": "2012-01-04T20:13:51Z",
    "id": 4700,
    "latitude": "41.819291",
    "longitude": "-72.500299",
    "mascot": null,
    "name": "Talcottville School",
    "primary_color": null,
    "secondary_color": null,
    "state": "CT",
    "timezone": "America/New_York",
    "updated_at": "2012-07-07T23:13:15Z",
    "zip": "06066"
  },
  {
    "address": "67 Rham Rd",
    "city": "Hebron",
    "county": "Tolland County",
    "created_at": "2012-01-04T20:13:51Z",
    "id": 4701,
    "latitude": "41.661033",
    "longitude": "-72.366105",
    "mascot": "Sachems",
    "name": "Rham High School",
    "primary_color": "Gold",
    "secondary_color": "Royal",
    "state": "CT",
    "timezone": "America/New_York",
    "updated_at": "2012-07-07T23:13:16Z",
    "zip": "06248"
  },
  {
    "address": "72 Brandy St",
    "city": "Bolton",
    "county": "Tolland County",
    "created_at": "2012-01-04T20:13:51Z",
    "id": 4702,
    "latitude": "41.762031",
    "longitude": "-72.423304",
    "mascot": "Bulldogs",
    "name": "Bolton High School",
    "primary_color": "Royal",
    "secondary_color": "White",
    "state": "CT",
    "timezone": "America/New_York",
    "updated_at": "2012-07-07T23:13:17Z",
    "zip": "06043"
  },
  {
    "address": "1235 Storrs Rd",
    "city": "Storrs",
    "county": "Tolland County",
    "created_at": "2012-01-04T20:13:51Z",
    "id": 4703,
    "latitude": "41.804480",
    "longitude": "-72.243829",
    "mascot": "Panthers",
    "name": "Edwin O Smith High School",
    "primary_color": "Red",
    "secondary_color": "Black",
    "state": "CT",
    "timezone": "America/New_York",
    "updated_at": "2012-07-07T23:13:18Z",
    "zip": "06268"
  },
  {
    "address": "79 Westfield Ave",
    "city": "Danielson",
    "county": "Windham County",
    "created_at": "2012-01-04T20:13:51Z",
    "id": 4704,
    "latitude": "41.813315",
    "longitude": "-71.879858",
    "mascot": "Red Men",
    "name": "Killingly High School",
    "primary_color": "Red",
    "secondary_color": "White",
    "state": "CT",
    "timezone": "America/New_York",
    "updated_at": "2012-07-07T23:13:19Z",
    "zip": "06239"
  },
  {
    "address": "105 Putnam Rd",
    "city": "Central Village",
    "county": "Windham County",
    "created_at": "2012-01-04T20:13:51Z",
    "id": 4705,
    "latitude": "41.722666",
    "longitude": "-71.906960",
    "mascot": "Panthers",
    "name": "Plainfield High School",
    "primary_color": "Orange",
    "secondary_color": "Black",
    "state": "CT",
    "timezone": "America/New_York",
    "updated_at": "2012-07-07T23:13:20Z",
    "zip": "06332"
  },
  {
    "address": "152 Woodstock Ave",
    "city": "Putnam",
    "county": "Windham County",
    "created_at": "2012-01-04T20:13:51Z",
    "id": 4706,
    "latitude": "41.923355",
    "longitude": "-71.915535",
    "mascot": "Clipper Ships",
    "name": "Putnam High School",
    "primary_color": "Royal",
    "secondary_color": "White",
    "state": "CT",
    "timezone": "America/New_York",
    "updated_at": "2012-07-07T23:13:21Z",
    "zip": "06260"
  },
  {
    "address": "785 Riverside Dr",
    "city": "North Grosvenordale",
    "county": "Windham County",
    "created_at": "2012-01-04T20:13:51Z",
    "id": 4707,
    "latitude": "41.975512",
    "longitude": "-71.900775",
    "mascot": null,
    "name": "Tourtellotte High School",
    "primary_color": "Red",
    "secondary_color": "Black",
    "state": "CT",
    "timezone": "America/New_York",
    "updated_at": "2012-07-07T23:13:22Z",
    "zip": "06255"
  },
  {
    "address": "355 High St",
    "city": "Willimantic",
    "county": "Windham County",
    "created_at": "2012-01-04T20:13:51Z",
    "id": 4708,
    "latitude": "41.722813",
    "longitude": "-72.215959",
    "mascot": "Whippets",
    "name": "Windham High School",
    "primary_color": "Royal",
    "secondary_color": "Maroon",
    "state": "CT",
    "timezone": "America/New_York",
    "updated_at": "2012-07-07T23:13:23Z",
    "zip": "06226"
  },
  {
    "address": "304 Parish Hill Rd",
    "city": "Chaplin",
    "county": "Windham County",
    "created_at": "2012-01-04T20:13:51Z",
    "id": 4709,
    "latitude": "41.749492",
    "longitude": "-72.107796",
    "mascot": "Pirates",
    "name": "Parish Hill High School",
    "primary_color": "Hunter Green",
    "secondary_color": "White",
    "state": "CT",
    "timezone": "America/New_York",
    "updated_at": "2012-07-07T23:13:24Z",
    "zip": "06235"
  },
  {
    "address": "185 E Main St",
    "city": "Branford",
    "county": "New Haven County",
    "created_at": "2012-01-04T20:13:51Z",
    "id": 4710,
    "latitude": "41.288930",
    "longitude": "-72.801275",
    "mascot": "Hornets",
    "name": "Branford High School",
    "primary_color": "Red",
    "secondary_color": "White",
    "state": "CT",
    "timezone": "America/New_York",
    "updated_at": "2012-07-07T23:13:26Z",
    "zip": "06405"
  },
  {
    "address": "295 Mill Rd",
    "city": "North Haven",
    "county": "New Haven County",
    "created_at": "2012-01-04T20:13:51Z",
    "id": 4711,
    "latitude": "41.386671",
    "longitude": "-72.838297",
    "mascot": null,
    "name": "Mill Road School",
    "primary_color": null,
    "secondary_color": null,
    "state": "CT",
    "timezone": "America/New_York",
    "updated_at": "2012-07-07T23:13:27Z",
    "zip": "06473"
  },
  {
    "address": "55 Audubon St",
    "city": "New Haven",
    "county": "New Haven County",
    "created_at": "2012-01-04T20:13:51Z",
    "id": 4712,
    "latitude": "41.310912",
    "longitude": "-72.920265",
    "mascot": null,
    "name": "ACES Educational Center For The Arts",
    "primary_color": null,
    "secondary_color": null,
    "state": "CT",
    "timezone": "America/New_York",
    "updated_at": "2012-07-07T23:13:28Z",
    "zip": "06510"
  },
  {
    "address": "261 Skiff St",
    "city": "Hamden",
    "county": "New Haven County",
    "created_at": "2012-01-04T20:13:51Z",
    "id": 4713,
    "latitude": "41.371525",
    "longitude": "-72.907394",
    "mascot": null,
    "name": "ACES Transition Center",
    "primary_color": "Royal",
    "secondary_color": "White",
    "state": "CT",
    "timezone": "America/New_York",
    "updated_at": "2012-07-07T23:13:29Z",
    "zip": "06517"
  },
  {
    "address": "305 Broadway St",
    "city": "Norwich",
    "county": "New London County",
    "created_at": "2012-01-04T20:13:51Z",
    "id": 4714,
    "latitude": "41.536731",
    "longitude": "-72.083107",
    "mascot": "Wildcats",
    "name": "Norwich Free Academy",
    "primary_color": "Red",
    "secondary_color": "White",
    "state": "CT",
    "timezone": "America/New_York",
    "updated_at": "2012-07-07T23:13:29Z",
    "zip": "06360"
  },
  {
    "address": "528 Wheelers Farm Rd",
    "city": "Milford",
    "county": "New Haven County",
    "created_at": "2012-01-04T20:13:51Z",
    "id": 4715,
    "latitude": "41.249157",
    "longitude": "-73.075779",
    "mascot": null,
    "name": "Boys Village School",
    "primary_color": null,
    "secondary_color": null,
    "state": "CT",
    "timezone": "America/New_York",
    "updated_at": "2012-07-07T23:13:31Z",
    "zip": "06460"
  },
  {
    "address": "324 French St",
    "city": "Watertown",
    "county": "Litchfield County",
    "created_at": "2012-01-04T20:13:51Z",
    "id": 4716,
    "latitude": "41.597182",
    "longitude": "-73.102198",
    "mascot": "Indians",
    "name": "Watertown High School",
    "primary_color": "Black",
    "secondary_color": "White",
    "state": "CT",
    "timezone": "America/New_York",
    "updated_at": "2012-07-07T23:13:32Z",
    "zip": "06795"
  },
  {
    "address": "15 School Dr",
    "city": "Moodus",
    "county": "Middlesex County",
    "created_at": "2012-01-04T20:13:51Z",
    "id": 4717,
    "latitude": "41.492322",
    "longitude": "-72.447071",
    "mascot": "Indians",
    "name": "Nathan Hale Ray High School",
    "primary_color": "Royal",
    "secondary_color": "White",
    "state": "CT",
    "timezone": "America/New_York",
    "updated_at": "2012-07-07T23:13:33Z",
    "zip": "06469"
  },
  {
    "address": "175 Water St",
    "city": "New Haven",
    "county": "New Haven County",
    "created_at": "2012-01-04T20:13:51Z",
    "id": 4718,
    "latitude": "41.301340",
    "longitude": "-72.921329",
    "mascot": null,
    "name": "High School In The Community School",
    "primary_color": "Teal",
    "secondary_color": "Black",
    "state": "CT",
    "timezone": "America/New_York",
    "updated_at": "2012-07-07T23:13:34Z",
    "zip": "06511"
  },
  {
    "address": "306 Circular Ave",
    "city": "Hamden",
    "county": "New Haven County",
    "created_at": "2012-01-04T20:13:51Z",
    "id": 4719,
    "latitude": "41.354290",
    "longitude": "-72.936449",
    "mascot": "Howling Wolves",
    "name": "Hyde Leadership School",
    "primary_color": "Navy",
    "secondary_color": "Gold",
    "state": "CT",
    "timezone": "America/New_York",
    "updated_at": "2012-07-07T23:13:35Z",
    "zip": "06514"
  },
  {
    "address": "80 Foran Rd",
    "city": "Milford",
    "county": "New Haven County",
    "created_at": "2012-01-04T20:13:51Z",
    "id": 4720,
    "latitude": "41.215734",
    "longitude": "-73.011452",
    "mascot": "Lions",
    "name": "Joseph A Foran High School",
    "primary_color": "Royal",
    "secondary_color": "Red",
    "state": "CT",
    "timezone": "America/New_York",
    "updated_at": "2012-07-07T23:13:36Z",
    "zip": "06460"
  },
  {
    "address": "43 Tompkins St",
    "city": "Waterbury",
    "county": "New Haven County",
    "created_at": "2012-01-04T20:13:51Z",
    "id": 4721,
    "latitude": "41.574688",
    "longitude": "-73.065464",
    "mascot": null,
    "name": "W.F. Kaynor Technical School",
    "primary_color": null,
    "secondary_color": null,
    "state": "CT",
    "timezone": "America/New_York",
    "updated_at": "2012-07-07T23:13:37Z",
    "zip": "06708"
  },
  {
    "address": "Shaw's Cove Three",
    "city": "New London",
    "county": "New London County",
    "created_at": "2012-01-04T20:13:51Z",
    "id": 4722,
    "latitude": "41.356445",
    "longitude": "-72.096469",
    "mascot": "Whalers",
    "name": "New London Adult & Continuing Education",
    "primary_color": "Yellow",
    "secondary_color": "Kelly Green",
    "state": "CT",
    "timezone": "America/New_York",
    "updated_at": "2012-07-07T23:13:38Z",
    "zip": "06320"
  },
  {
    "address": "298 Oregon Rd",
    "city": "Meriden",
    "county": "New Haven County",
    "created_at": "2012-01-04T20:13:51Z",
    "id": 4723,
    "latitude": "41.528550",
    "longitude": "-72.832095",
    "mascot": "Wildcats",
    "name": "H C Wilcox Regional Vocational Technical",
    "primary_color": "Royal",
    "secondary_color": "Navy",
    "state": "CT",
    "timezone": "America/New_York",
    "updated_at": "2012-07-07T23:13:39Z",
    "zip": "06451"
  },
  {
    "address": "791 W Middle Tpke",
    "city": "Manchester",
    "county": "Hartford County",
    "created_at": "2012-01-04T20:13:51Z",
    "id": 4724,
    "latitude": "41.781092",
    "longitude": "-72.560537",
    "mascot": "Beavers",
    "name": "Howell Cheney Regional Vocational Tech",
    "primary_color": "Kelly Green",
    "secondary_color": "White",
    "state": "CT",
    "timezone": "America/New_York",
    "updated_at": "2012-07-07T23:13:40Z",
    "zip": "06040"
  },
  {
    "address": "141 Prindle Ave",
    "city": "Ansonia",
    "county": "New Haven County",
    "created_at": "2012-01-04T20:13:51Z",
    "id": 4725,
    "latitude": "41.334326",
    "longitude": "-73.064052",
    "mascot": null,
    "name": "Emmett O'Brien Regional Vocational",
    "primary_color": "Kelly Green",
    "secondary_color": "Gold",
    "state": "CT",
    "timezone": "America/New_York",
    "updated_at": "2012-07-07T23:13:41Z",
    "zip": "06401"
  },
  {
    "address": "21 Hayestown Ave",
    "city": "Danbury",
    "county": "Fairfield County",
    "created_at": "2012-01-04T20:13:52Z",
    "id": 4726,
    "latitude": "41.412917",
    "longitude": "-73.453684",
    "mascot": "Wolverines",
    "name": "Henry Abbott Regional Vocational School",
    "primary_color": "Royal",
    "secondary_color": "White",
    "state": "CT",
    "timezone": "America/New_York",
    "updated_at": "2012-07-07T23:13:42Z",
    "zip": "06811"
  },
  {
    "address": "500 Palisade Ave",
    "city": "Bridgeport",
    "county": "Fairfield County",
    "created_at": "2012-01-04T20:13:52Z",
    "id": 4727,
    "latitude": "41.200445",
    "longitude": "-73.165093",
    "mascot": "Tigers",
    "name": "Bullard Havens Regional Vocational",
    "primary_color": "Orange",
    "secondary_color": "Black",
    "state": "CT",
    "timezone": "America/New_York",
    "updated_at": "2012-07-07T23:13:44Z",
    "zip": "06610"
  },
  {
    "address": "210 Birch St",
    "city": "Willimantic",
    "county": "Windham County",
    "created_at": "2012-01-04T20:13:52Z",
    "id": 4728,
    "latitude": "41.718183",
    "longitude": "-72.220859",
    "mascot": "Beavers",
    "name": "Windham Regional Vocational Technical",
    "primary_color": "Royal",
    "secondary_color": "Gold",
    "state": "CT",
    "timezone": "America/New_York",
    "updated_at": "2012-07-07T23:13:45Z",
    "zip": "06226"
  },
  {
    "address": "PO Box 1416",
    "city": "Stamford",
    "county": "Fairfield County",
    "created_at": "2012-01-04T20:13:52Z",
    "id": 4729,
    "latitude": "41.051820",
    "longitude": "-73.542234",
    "mascot": "Beavers",
    "name": "J M Wright Regional Vocational Technical",
    "primary_color": "Red",
    "secondary_color": "White",
    "state": "CT",
    "timezone": "America/New_York",
    "updated_at": "2012-07-07T23:13:46Z",
    "zip": "06904"
  },
  {
    "address": "590 New London Tpke",
    "city": "Norwich",
    "county": "New London County",
    "created_at": "2012-01-04T20:13:52Z",
    "id": 4730,
    "latitude": "41.508405",
    "longitude": "-72.104242",
    "mascot": "Warriors",
    "name": "Norwich Regional Vocational Technical",
    "primary_color": "Royal",
    "secondary_color": "Gold",
    "state": "CT",
    "timezone": "America/New_York",
    "updated_at": "2012-07-07T23:13:47Z",
    "zip": "06360"
  },
  {
    "address": "613 Upper Maple St",
    "city": "Danielson",
    "county": "Windham County",
    "created_at": "2012-01-04T20:13:52Z",
    "id": 4731,
    "latitude": "41.819496",
    "longitude": "-71.892813",
    "mascot": "Golden Eagles",
    "name": "H H Ellis Regional Vocational Technical",
    "primary_color": "Red",
    "secondary_color": "Royal",
    "state": "CT",
    "timezone": "America/New_York",
    "updated_at": "2012-07-07T23:13:48Z",
    "zip": "06239"
  },
  {
    "address": "735 Slater Rd",
    "city": "New Britain",
    "county": "Hartford County",
    "created_at": "2012-01-04T20:13:52Z",
    "id": 4732,
    "latitude": "41.687031",
    "longitude": "-72.807118",
    "mascot": null,
    "name": "E C Goodwin Regional Vocational School",
    "primary_color": "Black",
    "secondary_color": "Orange",
    "state": "CT",
    "timezone": "America/New_York",
    "updated_at": "2012-07-07T23:13:49Z",
    "zip": "06053"
  },
  {
    "address": "60 Daniel St",
    "city": "Middletown",
    "county": "Middlesex County",
    "created_at": "2012-01-04T20:13:52Z",
    "id": 4733,
    "latitude": "41.527660",
    "longitude": "-72.673582",
    "mascot": "Hawks",
    "name": "Vinal Regional Vocational Technical",
    "primary_color": "Royal",
    "secondary_color": "Gold",
    "state": "CT",
    "timezone": "America/New_York",
    "updated_at": "2012-07-07T23:13:50Z",
    "zip": "06457"
  },
  {
    "address": "600 Orange Ave",
    "city": "Milford",
    "county": "New Haven County",
    "created_at": "2012-01-04T20:13:52Z",
    "id": 4734,
    "latitude": "41.250215",
    "longitude": "-73.044364",
    "mascot": "Panthers",
    "name": "Platt Regional Vocational Technical",
    "primary_color": "Black",
    "secondary_color": "Gold",
    "state": "CT",
    "timezone": "America/New_York",
    "updated_at": "2012-07-07T23:13:51Z",
    "zip": "06460"
  },
  {
    "address": "71 Jones Rd",
    "city": "Hamden",
    "county": "New Haven County",
    "created_at": "2012-01-04T20:13:52Z",
    "id": 4735,
    "latitude": "41.343227",
    "longitude": "-72.943606",
    "mascot": null,
    "name": "Eli Whitney Vocational Technical School",
    "primary_color": null,
    "secondary_color": null,
    "state": "CT",
    "timezone": "America/New_York",
    "updated_at": "2012-07-07T23:13:52Z",
    "zip": "06514"
  },
  {
    "address": "75 Oliver St",
    "city": "Torrington",
    "county": "Litchfield County",
    "created_at": "2012-01-04T20:13:52Z",
    "id": 4736,
    "latitude": "41.810138",
    "longitude": "-73.111555",
    "mascot": "Wildcats",
    "name": "Oliver Wolcott Regional Vocational Tech",
    "primary_color": "Royal",
    "secondary_color": "Gold",
    "state": "CT",
    "timezone": "America/New_York",
    "updated_at": "2012-07-07T23:13:53Z",
    "zip": "06790"
  },
  {
    "address": "189 Fort Hill Rd",
    "city": "Groton",
    "county": "New London County",
    "created_at": "2012-01-04T20:13:52Z",
    "id": 4737,
    "latitude": "41.347095",
    "longitude": "-72.021977",
    "mascot": "Eagles",
    "name": "Ella Grasso SE Vocational Technical",
    "primary_color": "Navy",
    "secondary_color": "Gray",
    "state": "CT",
    "timezone": "America/New_York",
    "updated_at": "2012-07-07T23:13:54Z",
    "zip": "06340"
  },
  {
    "address": "95 S Main St",
    "city": "East Granby",
    "county": "Hartford County",
    "created_at": "2012-01-04T20:13:52Z",
    "id": 4738,
    "latitude": "41.929916",
    "longitude": "-72.732234",
    "mascot": "Crusaders",
    "name": "East Granby High School",
    "primary_color": "Purple",
    "secondary_color": "White",
    "state": "CT",
    "timezone": "America/New_York",
    "updated_at": "2012-07-07T23:13:55Z",
    "zip": "06026"
  },
  {
    "address": "8 Nutmeg Ave",
    "city": "Derby",
    "county": "New Haven County",
    "created_at": "2012-01-04T20:13:52Z",
    "id": 4739,
    "latitude": "41.329787",
    "longitude": "-73.099970",
    "mascot": null,
    "name": "Derby High School",
    "primary_color": "Red",
    "secondary_color": "White",
    "state": "CT",
    "timezone": "America/New_York",
    "updated_at": "2012-07-07T23:13:57Z",
    "zip": "06418"
  },
  {
    "address": "101 Groton Long Point Rd",
    "city": "Groton",
    "county": "New London County",
    "created_at": "2012-01-04T20:13:52Z",
    "id": 4740,
    "latitude": "41.342516",
    "longitude": "-72.010362",
    "mascot": "Falcons",
    "name": "Fitch Senior High School",
    "primary_color": "Gray",
    "secondary_color": "Red",
    "state": "CT",
    "timezone": "America/New_York",
    "updated_at": "2012-07-07T23:13:58Z",
    "zip": "06340"
  },
  {
    "address": "29 Village Ln",
    "city": "Wallingford",
    "county": "New Haven County",
    "created_at": "2012-01-04T20:13:52Z",
    "id": 4741,
    "latitude": "41.476164",
    "longitude": "-72.805718",
    "mascot": null,
    "name": "High Road Student Learning Center",
    "primary_color": null,
    "secondary_color": null,
    "state": "CT",
    "timezone": "America/New_York",
    "updated_at": "2012-07-07T23:13:59Z",
    "zip": "06492"
  },
  {
    "address": "60 S Water St",
    "city": "New Haven",
    "county": "New Haven County",
    "created_at": "2012-01-04T20:13:52Z",
    "id": 4742,
    "latitude": "41.282080",
    "longitude": "-72.928659",
    "mascot": null,
    "name": "Sound School",
    "primary_color": "Navy",
    "secondary_color": "White",
    "state": "CT",
    "timezone": "America/New_York",
    "updated_at": "2012-07-07T23:14:00Z",
    "zip": "06519"
  },
  {
    "address": "560 Ella Garso Blvd",
    "city": "New Haven",
    "county": "New Haven County",
    "created_at": "2012-01-04T20:13:52Z",
    "id": 4743,
    "latitude": "41.294271",
    "longitude": "-72.945333",
    "mascot": null,
    "name": "Riverside Education Academy",
    "primary_color": null,
    "secondary_color": null,
    "state": "CT",
    "timezone": "America/New_York",
    "updated_at": "2012-07-07T23:14:01Z",
    "zip": "06519"
  },
  {
    "address": "21 Wooster Place",
    "city": "New Haven",
    "county": "New Haven County",
    "created_at": "2012-01-04T20:13:52Z",
    "id": 4744,
    "latitude": "41.304275",
    "longitude": "-72.917053",
    "mascot": null,
    "name": "Polly T McCabe High School",
    "primary_color": "Pink",
    "secondary_color": "Royal",
    "state": "CT",
    "timezone": "America/New_York",
    "updated_at": "2012-07-07T23:14:02Z",
    "zip": "06512"
  },
  {
    "address": "275 Asylum St",
    "city": "Hartford",
    "county": "Hartford County",
    "created_at": "2012-01-04T20:13:52Z",
    "id": 4745,
    "latitude": "41.767433",
    "longitude": "-72.678362",
    "mascot": "Tigers",
    "name": "Sport Sciences Academy",
    "primary_color": "Gray",
    "secondary_color": "Royal",
    "state": "CT",
    "timezone": "America/New_York",
    "updated_at": "2012-07-07T23:14:03Z",
    "zip": "06103"
  },
  {
    "address": "350 Main St",
    "city": "Norwalk",
    "county": "Fairfield County",
    "created_at": "2012-01-04T20:13:52Z",
    "id": 4746,
    "latitude": "41.138095",
    "longitude": "-73.425878",
    "mascot": "Phoenixs",
    "name": "Briggs High School",
    "primary_color": "Royal",
    "secondary_color": "White",
    "state": "CT",
    "timezone": "America/New_York",
    "updated_at": "2012-07-07T23:14:04Z",
    "zip": "06851"
  },
  {
    "address": "223A W Mountain Rd",
    "city": "Richfield",
    "county": "Fairfield County",
    "created_at": "2012-01-04T20:13:52Z",
    "id": 4747,
    "latitude": "41.297510",
    "longitude": "-73.534304",
    "mascot": null,
    "name": "Richfield Academy",
    "primary_color": null,
    "secondary_color": null,
    "state": "CT",
    "timezone": "America/New_York",
    "updated_at": "2012-07-07T23:14:05Z",
    "zip": "06877"
  },
  {
    "address": "358 Springside Ave",
    "city": "New Haven",
    "county": "New Haven County",
    "created_at": "2012-01-04T20:13:52Z",
    "id": 4748,
    "latitude": "41.338033",
    "longitude": "-72.958274",
    "mascot": null,
    "name": "Common Ground High School",
    "primary_color": null,
    "secondary_color": null,
    "state": "CT",
    "timezone": "America/New_York",
    "updated_at": "2012-07-07T23:14:06Z",
    "zip": "06515"
  },
  {
    "address": "401 Kossuth Street",
    "city": "Bridgeport",
    "county": "Fairfield County",
    "created_at": "2012-01-04T20:13:52Z",
    "id": 4749,
    "latitude": "41.183837",
    "longitude": "-73.182818",
    "mascot": null,
    "name": "The Bridge Academy",
    "primary_color": null,
    "secondary_color": null,
    "state": "CT",
    "timezone": "America/New_York",
    "updated_at": "2012-07-07T23:14:07Z",
    "zip": "06608"
  },
  {
    "address": "71 Spencer St",
    "city": "Winsted",
    "county": "Litchfield County",
    "created_at": "2012-01-04T20:13:52Z",
    "id": 4750,
    "latitude": "41.929043",
    "longitude": "-73.075680",
    "mascot": null,
    "name": "EXPLORATIONS Charter School",
    "primary_color": null,
    "secondary_color": null,
    "state": "CT",
    "timezone": "America/New_York",
    "updated_at": "2012-07-07T23:14:08Z",
    "zip": "06098"
  },
  {
    "address": "225 Meloy Rd",
    "city": "West Haven",
    "county": "New Haven County",
    "created_at": "2012-01-04T20:13:52Z",
    "id": 4751,
    "latitude": "41.276815",
    "longitude": "-72.976614",
    "mascot": null,
    "name": "Living World Christian Academy",
    "primary_color": null,
    "secondary_color": null,
    "state": "CT",
    "timezone": "America/New_York",
    "updated_at": "2012-07-07T23:14:09Z",
    "zip": "06516"
  },
  {
    "address": "257 Stanwich Rd",
    "city": "Greenwich",
    "county": "Fairfield County",
    "created_at": "2012-01-04T20:13:52Z",
    "id": 4752,
    "latitude": "41.071747",
    "longitude": "-73.604447",
    "mascot": "Cougars",
    "name": "Stanwich School",
    "primary_color": "Royal",
    "secondary_color": "White",
    "state": "CT",
    "timezone": "America/New_York",
    "updated_at": "2012-07-07T23:14:15Z",
    "zip": "06830"
  },
  {
    "address": "45 Plaza Ct",
    "city": "Grotton",
    "county": "New London County",
    "created_at": "2012-01-04T20:13:52Z",
    "id": 4753,
    "latitude": "41.347951",
    "longitude": "-72.051519",
    "mascot": null,
    "name": "Lighthouse Vocational Education Center",
    "primary_color": null,
    "secondary_color": null,
    "state": "CT",
    "timezone": "America/New_York",
    "updated_at": "2012-07-07T23:14:16Z",
    "zip": "06340"
  },
  {
    "address": "312 Main St",
    "city": "Niantic",
    "county": "New London County",
    "created_at": "2012-01-04T20:13:52Z",
    "id": 4754,
    "latitude": "41.323010",
    "longitude": "-72.195014",
    "mascot": null,
    "name": "Lighthouse Vocational Education Center",
    "primary_color": null,
    "secondary_color": null,
    "state": "CT",
    "timezone": "America/New_York",
    "updated_at": "2012-07-07T23:14:16Z",
    "zip": "06357"
  },
  {
    "address": "55 Florence Rd",
    "city": "Riverside",
    "county": "Fairfield County",
    "created_at": "2012-01-04T20:13:52Z",
    "id": 4755,
    "latitude": "41.052673",
    "longitude": "-73.575085",
    "mascot": null,
    "name": "International School At Dundee",
    "primary_color": null,
    "secondary_color": null,
    "state": "CT",
    "timezone": "America/New_York",
    "updated_at": "2012-07-07T23:14:17Z",
    "zip": "06878"
  },
  {
    "address": "370 Linwood St",
    "city": "New Britain",
    "county": "Hartford County",
    "created_at": "2012-01-04T20:13:52Z",
    "id": 4756,
    "latitude": "41.651165",
    "longitude": "-72.787881",
    "mascot": null,
    "name": "Raymond Hill School",
    "primary_color": null,
    "secondary_color": null,
    "state": "CT",
    "timezone": "America/New_York",
    "updated_at": "2012-07-07T23:14:18Z",
    "zip": "06052"
  },
  {
    "address": "12 Norfolk Road",
    "city": "Litchfield",
    "county": "Litchfield County",
    "created_at": "2012-01-04T20:13:52Z",
    "id": 4757,
    "latitude": "41.757102",
    "longitude": "-73.192016",
    "mascot": "Lions",
    "name": "The Forman School",
    "primary_color": "Hunter Green",
    "secondary_color": "White",
    "state": "CT",
    "timezone": "America/New_York",
    "updated_at": "2012-07-07T23:14:19Z",
    "zip": "06759"
  }
]