[
  {
    "address": "112 Boulevard St",
    "city": "Craigmont",
    "county": "Lewis County",
    "created_at": "2012-01-04T20:14:21Z",
    "id": 7077,
    "latitude": "46.243381",
    "longitude": "-116.472770",
    "mascot": "Huskies",
    "name": "Highland School",
    "primary_color": "Gold",
    "secondary_color": "Black",
    "state": "ID",
    "timezone": "America/Los_Angeles",
    "updated_at": "2012-07-07T23:42:08Z",
    "zip": "83523"
  },
  {
    "address": "402 E 5th St",
    "city": "Moscow",
    "county": "Latah County",
    "created_at": "2012-01-04T20:14:21Z",
    "id": 7078,
    "latitude": "46.731080",
    "longitude": "-116.996924",
    "mascot": "Bears",
    "name": "Moscow High School",
    "primary_color": "Red",
    "secondary_color": "Black",
    "state": "ID",
    "timezone": "America/Los_Angeles",
    "updated_at": "2012-07-07T23:42:08Z",
    "zip": "83843"
  },
  {
    "address": "110 Baker St",
    "city": "Moscow",
    "county": "Latah County",
    "created_at": "2012-01-04T20:14:21Z",
    "id": 7079,
    "latitude": "46.733112",
    "longitude": "-117.020625",
    "mascot": "Knights",
    "name": "Logos School",
    "primary_color": "Navy",
    "secondary_color": "White",
    "state": "ID",
    "timezone": "America/Los_Angeles",
    "updated_at": "2012-07-07T23:42:11Z",
    "zip": "83843"
  },
  {
    "address": "398 School Dr",
    "city": "Horseshoe Bend",
    "county": "Boise County",
    "created_at": "2012-01-04T20:14:21Z",
    "id": 7080,
    "latitude": "43.907506",
    "longitude": "-116.201565",
    "mascot": "Mustangs",
    "name": "Horseshoe Bend School",
    "primary_color": "Black",
    "secondary_color": "Gray",
    "state": "ID",
    "timezone": "America/Boise",
    "updated_at": "2012-07-07T23:42:16Z",
    "zip": "83629"
  },
  {
    "address": "775 N West Side Hwy",
    "city": "Dayton",
    "county": "Franklin County",
    "created_at": "2012-01-04T20:14:21Z",
    "id": 7081,
    "latitude": "42.109450",
    "longitude": "-111.993319",
    "mascot": "Pirates",
    "name": "West Side High School",
    "primary_color": "Maroon",
    "secondary_color": "White",
    "state": "ID",
    "timezone": "America/Boise",
    "updated_at": "2012-07-07T23:42:16Z",
    "zip": "83232"
  },
  {
    "address": "3610 12th St",
    "city": "Lewiston",
    "county": "Nez Perce County",
    "created_at": "2012-01-04T20:14:21Z",
    "id": 7082,
    "latitude": "46.372051",
    "longitude": "-116.970418",
    "mascot": "Braves",
    "name": "Sacajawea Junior High School",
    "primary_color": "Gold",
    "secondary_color": "Kelly Green",
    "state": "ID",
    "timezone": "America/Los_Angeles",
    "updated_at": "2012-07-07T23:42:16Z",
    "zip": "83501"
  },
  {
    "address": "644 Caswell Ave W",
    "city": "Twin Falls",
    "county": "Twin Falls County",
    "created_at": "2012-01-04T20:14:21Z",
    "id": 7083,
    "latitude": "42.574363",
    "longitude": "-114.492647",
    "mascot": "Bears",
    "name": "Robert Stuart Junior High School",
    "primary_color": "Kelly Green",
    "secondary_color": "White",
    "state": "ID",
    "timezone": "America/Boise",
    "updated_at": "2012-07-07T23:42:17Z",
    "zip": "83301"
  },
  {
    "address": "798 Main St",
    "city": "Rathdrum",
    "county": "Kootenai County",
    "created_at": "2012-01-04T20:14:21Z",
    "id": 7084,
    "latitude": "47.816230",
    "longitude": "-116.881469",
    "mascot": "Moose",
    "name": "Mountain View Alternative School",
    "primary_color": "Hunter Green",
    "secondary_color": "Navy",
    "state": "ID",
    "timezone": "America/Los_Angeles",
    "updated_at": "2012-07-07T23:42:17Z",
    "zip": "83858"
  },
  {
    "address": "725 Hazel Ave",
    "city": "Coeur D'Alene",
    "county": "Kootenai County",
    "created_at": "2012-01-04T20:14:21Z",
    "id": 7085,
    "latitude": "47.690188",
    "longitude": "-116.776128",
    "mascot": "Devils",
    "name": "Project CDA High School",
    "primary_color": "Red",
    "secondary_color": "Black",
    "state": "ID",
    "timezone": "America/Los_Angeles",
    "updated_at": "2012-07-07T23:42:17Z",
    "zip": "83814"
  },
  {
    "address": "322 S Main St",
    "city": "Bancroft",
    "county": "Caribou County",
    "created_at": "2012-01-04T20:14:21Z",
    "id": 7086,
    "latitude": "42.717511",
    "longitude": "-111.887246",
    "mascot": "Cowboys",
    "name": "North Gem School District 149",
    "primary_color": "Purple",
    "secondary_color": "White",
    "state": "ID",
    "timezone": "America/Boise",
    "updated_at": "2012-07-07T23:42:17Z",
    "zip": "83217"
  },
  {
    "address": "Ace's Place Rd",
    "city": "Riggins",
    "county": "Idaho County",
    "created_at": "2012-01-04T20:14:21Z",
    "id": 7087,
    "latitude": "45.422200",
    "longitude": "-116.314804",
    "mascot": "Savages",
    "name": "Salmon River Junior Senior High School",
    "primary_color": "Gold",
    "secondary_color": "Royal",
    "state": "ID",
    "timezone": "America/Boise",
    "updated_at": "2012-07-07T23:42:18Z",
    "zip": "83549"
  },
  {
    "address": "855 N Bridge St",
    "city": "Saint Anthony",
    "county": "Fremont County",
    "created_at": "2012-01-04T20:14:21Z",
    "id": 7088,
    "latitude": "43.973847",
    "longitude": "-111.682497",
    "mascot": "Cougars",
    "name": "South Fremont High School",
    "primary_color": "Red",
    "secondary_color": "Black",
    "state": "ID",
    "timezone": "America/Boise",
    "updated_at": "2012-07-07T23:42:18Z",
    "zip": "83445"
  },
  {
    "address": "1600 E 6th St S",
    "city": "Mountain Home",
    "county": "Elmore County",
    "created_at": "2012-01-04T20:14:21Z",
    "id": 7089,
    "latitude": "43.126578",
    "longitude": "-115.679954",
    "mascot": "Tigers",
    "name": "Mountain Home Junior High School",
    "primary_color": "Orange",
    "secondary_color": "Black",
    "state": "ID",
    "timezone": "America/Boise",
    "updated_at": "2012-07-07T23:42:18Z",
    "zip": "83647"
  },
  {
    "address": "406 N Park",
    "city": "Dietrich",
    "county": "Lincoln County",
    "created_at": "2012-01-04T20:14:21Z",
    "id": 7090,
    "latitude": "42.916049",
    "longitude": "-114.264281",
    "mascot": "Devils",
    "name": "Dietrich School",
    "primary_color": "Columbia Blue",
    "secondary_color": "White",
    "state": "ID",
    "timezone": "America/Boise",
    "updated_at": "2012-07-07T23:42:19Z",
    "zip": "83324"
  },
  {
    "address": "#1 Indian Territory",
    "city": "Buhl",
    "county": "Twin Falls County",
    "created_at": "2012-01-04T20:14:21Z",
    "id": 7091,
    "latitude": "42.600658",
    "longitude": "-114.801459",
    "mascot": "Indians",
    "name": "Buhl High School",
    "primary_color": "Orange",
    "secondary_color": "Black",
    "state": "ID",
    "timezone": "America/Boise",
    "updated_at": "2012-07-07T23:42:19Z",
    "zip": "83316"
  },
  {
    "address": "310 1st W St",
    "city": "Ririe",
    "county": "Jefferson County",
    "created_at": "2012-01-04T20:14:21Z",
    "id": 7092,
    "latitude": "43.629587",
    "longitude": "-111.772389",
    "mascot": "Bulldogs",
    "name": "Ririe High School",
    "primary_color": "Gold",
    "secondary_color": "Royal",
    "state": "ID",
    "timezone": "America/Boise",
    "updated_at": "2012-07-07T23:42:19Z",
    "zip": "83443"
  },
  {
    "address": "2345 W Broadway",
    "city": "Idaho Falls",
    "county": "Bonneville County",
    "created_at": "2012-01-04T20:14:21Z",
    "id": 7093,
    "latitude": "43.496702",
    "longitude": "-112.077896",
    "mascot": "Patriots",
    "name": "Gethsemane Christian School",
    "primary_color": "Red",
    "secondary_color": "White",
    "state": "ID",
    "timezone": "America/Boise",
    "updated_at": "2012-07-07T23:42:20Z",
    "zip": "83402"
  },
  {
    "address": "250 S Water St",
    "city": "Arco",
    "county": "Butte County",
    "created_at": "2012-01-04T20:14:21Z",
    "id": 7094,
    "latitude": "43.633525",
    "longitude": "-113.301264",
    "mascot": "Pirates",
    "name": "Butte County High School",
    "primary_color": "Black",
    "secondary_color": "White",
    "state": "ID",
    "timezone": "America/Boise",
    "updated_at": "2012-07-07T23:42:20Z",
    "zip": "83213"
  },
  {
    "address": "2020 Pancheri Dr",
    "city": "Idaho Falls",
    "county": "Bonneville County",
    "created_at": "2012-01-04T20:14:21Z",
    "id": 7095,
    "latitude": "43.489441",
    "longitude": "-112.072033",
    "mascot": "Eagles",
    "name": "Eagle Rock Junior High School",
    "primary_color": "Royal",
    "secondary_color": "White",
    "state": "ID",
    "timezone": "America/Boise",
    "updated_at": "2012-07-07T23:42:20Z",
    "zip": "83402"
  },
  {
    "address": "210 A Ave E",
    "city": "Wilder",
    "county": "Canyon County",
    "created_at": "2012-01-04T20:14:21Z",
    "id": 7096,
    "latitude": "43.677068",
    "longitude": "-116.905593",
    "mascot": "Wildcats",
    "name": "Wilder Middle High School",
    "primary_color": "Gold",
    "secondary_color": "Purple",
    "state": "ID",
    "timezone": "America/Boise",
    "updated_at": "2012-07-07T23:42:21Z",
    "zip": "83676"
  },
  {
    "address": "1076 Banks Lowman Rd",
    "city": "Garden Valley",
    "county": "Boise County",
    "created_at": "2012-01-04T20:14:21Z",
    "id": 7097,
    "latitude": "44.105207",
    "longitude": "-115.975896",
    "mascot": "Wolverines",
    "name": "Garden Valley School",
    "primary_color": "Gold",
    "secondary_color": "Purple",
    "state": "ID",
    "timezone": "America/Boise",
    "updated_at": "2012-07-07T23:42:21Z",
    "zip": "83622"
  },
  {
    "address": "8775 Ustick Rd",
    "city": "Boise",
    "county": "Ada County",
    "created_at": "2012-01-04T20:14:21Z",
    "id": 7098,
    "latitude": "43.633922",
    "longitude": "-116.291365",
    "mascot": "Cougars",
    "name": "Cole Christian School",
    "primary_color": "Navy",
    "secondary_color": "White",
    "state": "ID",
    "timezone": "America/Boise",
    "updated_at": "2012-07-07T23:42:22Z",
    "zip": "83704"
  },
  {
    "address": "601 E US Hwy 130",
    "city": "Bliss",
    "county": "Gooding County",
    "created_at": "2012-01-04T20:14:21Z",
    "id": 7099,
    "latitude": "42.950494",
    "longitude": "-114.937017",
    "mascot": "Bears",
    "name": "Bliss School",
    "primary_color": "Maroon",
    "secondary_color": "White",
    "state": "ID",
    "timezone": "America/Boise",
    "updated_at": "2012-07-07T23:42:22Z",
    "zip": "83314"
  },
  {
    "address": "500 North Miller Rd",
    "city": "New Meadows",
    "county": "Adams County",
    "created_at": "2012-01-04T20:14:21Z",
    "id": 7100,
    "latitude": "44.967301",
    "longitude": "-116.285867",
    "mascot": "Mountaineers",
    "name": "Meadows Valley School",
    "primary_color": "Orange",
    "secondary_color": "Black",
    "state": "ID",
    "timezone": "America/Boise",
    "updated_at": "2012-07-07T23:42:22Z",
    "zip": "83654"
  },
  {
    "address": "1025 W Eldredge St",
    "city": "Pocatello",
    "county": "Bannock County",
    "created_at": "2012-01-04T20:14:21Z",
    "id": 7101,
    "latitude": "42.895020",
    "longitude": "-112.470355",
    "mascot": "Hawks",
    "name": "Hawthorne Junior High School",
    "primary_color": "Kelly Green",
    "secondary_color": "White",
    "state": "ID",
    "timezone": "America/Boise",
    "updated_at": "2012-07-07T23:42:22Z",
    "zip": "83201"
  },
  {
    "address": "3115 Pole Line Rd",
    "city": "Pocatello",
    "county": "Bannock County",
    "created_at": "2012-01-04T20:14:21Z",
    "id": 7102,
    "latitude": "42.890838",
    "longitude": "-112.466219",
    "mascot": null,
    "name": "Alameda Junior High School",
    "primary_color": "Navy",
    "secondary_color": "Gold",
    "state": "ID",
    "timezone": "America/Boise",
    "updated_at": "2012-07-07T23:42:23Z",
    "zip": "83201"
  },
  {
    "address": "911 N Grant St",
    "city": "Pocatello",
    "county": "Bannock County",
    "created_at": "2012-01-04T20:14:21Z",
    "id": 7103,
    "latitude": "42.865743",
    "longitude": "-112.461822",
    "mascot": "Bears",
    "name": "Irving Junior High School",
    "primary_color": "Red",
    "secondary_color": "White",
    "state": "ID",
    "timezone": "America/Boise",
    "updated_at": "2012-07-07T23:42:23Z",
    "zip": "83204"
  },
  {
    "address": "3536 Hill Rd",
    "city": "Boise",
    "county": "Ada County",
    "created_at": "2012-01-04T20:14:21Z",
    "id": 7104,
    "latitude": "43.655026",
    "longitude": "-116.232573",
    "mascot": "Rams",
    "name": "Hillside Junior High School",
    "primary_color": "Columbia Blue",
    "secondary_color": "Red",
    "state": "ID",
    "timezone": "America/Boise",
    "updated_at": "2012-07-07T23:42:23Z",
    "zip": "83703"
  },
  {
    "address": "1569 Hwy 41",
    "city": "Rathdrum",
    "county": "Kootenai County",
    "created_at": "2012-01-04T20:14:21Z",
    "id": 7105,
    "latitude": "47.811950",
    "longitude": "-116.888789",
    "mascot": "Hawks",
    "name": "Lakeland Junior High School",
    "primary_color": "Gold",
    "secondary_color": "Kelly Green",
    "state": "ID",
    "timezone": "America/Los_Angeles",
    "updated_at": "2012-07-07T23:42:24Z",
    "zip": "83858"
  },
  {
    "address": "1213 16th St",
    "city": "Lewiston",
    "county": "Nez Perce County",
    "created_at": "2012-01-04T20:14:21Z",
    "id": 7106,
    "latitude": "46.408102",
    "longitude": "-117.009441",
    "mascot": "Burros",
    "name": "Jenifer Junior High School",
    "primary_color": "Red",
    "secondary_color": "White",
    "state": "ID",
    "timezone": "America/Los_Angeles",
    "updated_at": "2012-07-07T23:42:24Z",
    "zip": "83501"
  },
  {
    "address": "1010 W Washington St",
    "city": "Boise",
    "county": "Ada County",
    "created_at": "2012-01-04T20:14:22Z",
    "id": 7107,
    "latitude": "43.620739",
    "longitude": "-116.202296",
    "mascot": "Braves",
    "name": "Boise Senior High School",
    "primary_color": "White",
    "secondary_color": "Red",
    "state": "ID",
    "timezone": "America/Boise",
    "updated_at": "2012-07-07T23:42:24Z",
    "zip": "83702"
  },
  {
    "address": "637 E Deer Flat RD",
    "city": "Kuna",
    "county": "Ada County",
    "created_at": "2012-01-04T20:14:22Z",
    "id": 7108,
    "latitude": "43.502894",
    "longitude": "-116.405348",
    "mascot": "Kavemen",
    "name": "Kuna High School",
    "primary_color": "Black",
    "secondary_color": "Gold",
    "state": "ID",
    "timezone": "America/Boise",
    "updated_at": "2012-07-07T23:42:25Z",
    "zip": "83634"
  },
  {
    "address": "1900 W Pine St",
    "city": "Meridian",
    "county": "Ada County",
    "created_at": "2012-01-04T20:14:22Z",
    "id": 7109,
    "latitude": "43.611969",
    "longitude": "-116.416835",
    "mascot": "Warriors",
    "name": "Meridian High School",
    "primary_color": "Royal",
    "secondary_color": "Gold",
    "state": "ID",
    "timezone": "America/Boise",
    "updated_at": "2012-07-07T23:42:25Z",
    "zip": "83642"
  },
  {
    "address": "1800 Bench Rd",
    "city": "Pocatello",
    "county": "Bannock County",
    "created_at": "2012-01-04T20:14:22Z",
    "id": 7110,
    "latitude": "42.906702",
    "longitude": "-112.426797",
    "mascot": "Rams",
    "name": "Highland Senior High School",
    "primary_color": "Red",
    "secondary_color": "White",
    "state": "ID",
    "timezone": "America/Boise",
    "updated_at": "2012-07-07T23:42:25Z",
    "zip": "83201"
  },
  {
    "address": "325 N Arthur St",
    "city": "Pocatello",
    "county": "Bannock County",
    "created_at": "2012-01-04T20:14:22Z",
    "id": 7111,
    "latitude": "42.863197",
    "longitude": "-112.453658",
    "mascot": "Indians",
    "name": "Pocatello Senior High School",
    "primary_color": "Navy",
    "secondary_color": "Red",
    "state": "ID",
    "timezone": "America/Boise",
    "updated_at": "2012-07-07T23:42:26Z",
    "zip": "83204"
  },
  {
    "address": "410 S Division St",
    "city": "Sandpoint",
    "county": "Bonner County",
    "created_at": "2012-01-04T20:14:22Z",
    "id": 7112,
    "latitude": "48.269022",
    "longitude": "-116.567925",
    "mascot": "Bulldogs",
    "name": "Sandpoint High School",
    "primary_color": "Black",
    "secondary_color": "Red",
    "state": "ID",
    "timezone": "America/Los_Angeles",
    "updated_at": "2012-07-07T23:42:26Z",
    "zip": "83864"
  },
  {
    "address": "3401 S Indiana Ave",
    "city": "Caldwell",
    "county": "Canyon County",
    "created_at": "2012-01-04T20:14:22Z",
    "id": 7113,
    "latitude": "43.640239",
    "longitude": "-116.673040",
    "mascot": "Cougars",
    "name": "Caldwell Senior High School",
    "primary_color": "Gold",
    "secondary_color": "Royal",
    "state": "ID",
    "timezone": "America/Boise",
    "updated_at": "2012-07-07T23:42:26Z",
    "zip": "83605"
  },
  {
    "address": "511 W Main St",
    "city": "Middleton",
    "county": "Canyon County",
    "created_at": "2012-01-04T20:14:22Z",
    "id": 7114,
    "latitude": "43.706411",
    "longitude": "-116.629921",
    "mascot": "Vikings",
    "name": "Middleton High School",
    "primary_color": "Royal",
    "secondary_color": "Gold",
    "state": "ID",
    "timezone": "America/Boise",
    "updated_at": "2012-07-07T23:42:26Z",
    "zip": "83644"
  },
  {
    "address": "292 W 100 S",
    "city": "Rupert",
    "county": "Minidoka County",
    "created_at": "2012-01-04T20:14:22Z",
    "id": 7115,
    "latitude": "42.605122",
    "longitude": "-113.722735",
    "mascot": "Spartans",
    "name": "Minico High School",
    "primary_color": "Red",
    "secondary_color": "Gold",
    "state": "ID",
    "timezone": "America/Boise",
    "updated_at": "2012-07-07T23:42:27Z",
    "zip": "83350"
  },
  {
    "address": "721 W 12th St",
    "city": "Emmett",
    "county": "Gem County",
    "created_at": "2012-01-04T20:14:22Z",
    "id": 7116,
    "latitude": "43.864704",
    "longitude": "-116.509387",
    "mascot": "Huskies",
    "name": "Emmett High School",
    "primary_color": "Royal",
    "secondary_color": "White",
    "state": "ID",
    "timezone": "America/Boise",
    "updated_at": "2012-07-07T23:42:27Z",
    "zip": "83617"
  },
  {
    "address": "555 Ross Ave",
    "city": "Driggs",
    "county": "Teton County",
    "created_at": "2012-01-04T20:14:22Z",
    "id": 7117,
    "latitude": "43.730258",
    "longitude": "-111.100208",
    "mascot": "Redskins",
    "name": "Teton High School",
    "primary_color": "Maroon",
    "secondary_color": "Orange",
    "state": "ID",
    "timezone": "America/Boise",
    "updated_at": "2012-07-07T23:42:27Z",
    "zip": "83422"
  },
  {
    "address": "800 17th Ave N",
    "city": "Payette",
    "county": "Payette County",
    "created_at": "2012-01-04T20:14:22Z",
    "id": 7118,
    "latitude": "44.092902",
    "longitude": "-116.933481",
    "mascot": "Lions",
    "name": "River Of Life School",
    "primary_color": "Gold",
    "secondary_color": "Royal",
    "state": "ID",
    "timezone": "America/Boise",
    "updated_at": "2012-07-07T23:42:27Z",
    "zip": "83661"
  },
  {
    "address": "798 Eastland Dr N",
    "city": "Twin Falls",
    "county": "Twin Falls County",
    "created_at": "2012-01-04T20:14:22Z",
    "id": 7119,
    "latitude": "42.576719",
    "longitude": "-114.440631",
    "mascot": "Tigers",
    "name": "Twin Falls Christian Academy",
    "primary_color": "Royal",
    "secondary_color": "White",
    "state": "ID",
    "timezone": "America/Boise",
    "updated_at": "2012-07-07T23:42:28Z",
    "zip": "83301"
  },
  {
    "address": "251 W Miles Ave",
    "city": "Hayden",
    "county": "Kootenai County",
    "created_at": "2012-01-04T20:14:22Z",
    "id": 7120,
    "latitude": "47.766268",
    "longitude": "-116.789676",
    "mascot": "Lions",
    "name": "North Idaho Christian School",
    "primary_color": "Gold",
    "secondary_color": "Royal",
    "state": "ID",
    "timezone": "America/Los_Angeles",
    "updated_at": "2012-07-07T23:42:28Z",
    "zip": "83835"
  },
  {
    "address": "615 2nd Ave",
    "city": "Nezperce",
    "county": "Lewis County",
    "created_at": "2012-01-04T20:14:22Z",
    "id": 7121,
    "latitude": "46.237085",
    "longitude": "-116.245739",
    "mascot": "Indians",
    "name": "Nezperce Junior Senior High School",
    "primary_color": "Royal",
    "secondary_color": "Gold",
    "state": "ID",
    "timezone": "America/Los_Angeles",
    "updated_at": "2012-07-07T23:42:28Z",
    "zip": "83543"
  },
  {
    "address": "500 Main St",
    "city": "Castleford",
    "county": "Twin Falls County",
    "created_at": "2012-01-04T20:14:22Z",
    "id": 7122,
    "latitude": "42.520628",
    "longitude": "-114.874794",
    "mascot": "Castleford Wolves",
    "name": "Castleford School",
    "primary_color": "Red",
    "secondary_color": "White",
    "state": "ID",
    "timezone": "America/Boise",
    "updated_at": "2012-07-07T23:42:28Z",
    "zip": "83321"
  },
  {
    "address": "329 Lincoln St",
    "city": "Firth",
    "county": "Bingham County",
    "created_at": "2012-01-04T20:14:22Z",
    "id": 7123,
    "latitude": "43.307400",
    "longitude": "-112.185949",
    "mascot": "Cougars",
    "name": "Firth High School",
    "primary_color": "Royal",
    "secondary_color": "White",
    "state": "ID",
    "timezone": "America/Boise",
    "updated_at": "2012-07-07T23:42:29Z",
    "zip": "83236"
  },
  {
    "address": "2966 S Frontage Rd",
    "city": "American Falls",
    "county": "Power County",
    "created_at": "2012-01-04T20:14:22Z",
    "id": 7124,
    "latitude": "42.765751",
    "longitude": "-112.863255",
    "mascot": "Beavers",
    "name": "American Falls High School",
    "primary_color": "Red",
    "secondary_color": "White",
    "state": "ID",
    "timezone": "America/Boise",
    "updated_at": "2012-07-07T23:42:29Z",
    "zip": "83211"
  },
  {
    "address": "8100 E O'Gara Rd",
    "city": "Harrison",
    "county": "Kootenai County",
    "created_at": "2012-01-04T20:14:22Z",
    "id": 7125,
    "latitude": "47.403259",
    "longitude": "-116.732236",
    "mascot": "Warriors",
    "name": "Kootenai Junior Senior High School",
    "primary_color": "Red",
    "secondary_color": "White",
    "state": "ID",
    "timezone": "America/Los_Angeles",
    "updated_at": "2012-07-07T23:42:29Z",
    "zip": "83833"
  },
  {
    "address": "325 Park Ave",
    "city": "Mullan",
    "county": "Shoshone County",
    "created_at": "2012-01-04T20:14:22Z",
    "id": 7126,
    "latitude": "47.468917",
    "longitude": "-115.798447",
    "mascot": "Tigers",
    "name": "Mullan High School",
    "primary_color": "White",
    "secondary_color": "Purple",
    "state": "ID",
    "timezone": "America/Los_Angeles",
    "updated_at": "2012-07-07T23:42:30Z",
    "zip": "83846"
  },
  {
    "address": "Keuterville Rd",
    "city": "Cottonwood",
    "county": "Idaho County",
    "created_at": "2012-01-04T20:14:22Z",
    "id": 7127,
    "latitude": "46.048780",
    "longitude": "-116.357531",
    "mascot": "Pirates",
    "name": "Prairie High School",
    "primary_color": "Red",
    "secondary_color": "Black",
    "state": "ID",
    "timezone": "America/Los_Angeles",
    "updated_at": "2012-07-07T23:42:30Z",
    "zip": "83522"
  },
  {
    "address": "1150 E St",
    "city": "Plummer",
    "county": "Benewah County",
    "created_at": "2012-01-04T20:14:22Z",
    "id": 7128,
    "latitude": "47.333128",
    "longitude": "-116.883702",
    "mascot": "Knights",
    "name": "Lakeside High School",
    "primary_color": "Red",
    "secondary_color": "Black",
    "state": "ID",
    "timezone": "America/Los_Angeles",
    "updated_at": "2012-07-07T23:42:30Z",
    "zip": "83851"
  },
  {
    "address": "7009 Franklin Rd",
    "city": "Boise",
    "county": "Ada County",
    "created_at": "2012-01-04T20:14:22Z",
    "id": 7129,
    "latitude": "43.604322",
    "longitude": "-116.268989",
    "mascot": "Knights",
    "name": "Bishop Kelly High School",
    "primary_color": "Gold",
    "secondary_color": "Black",
    "state": "ID",
    "timezone": "America/Boise",
    "updated_at": "2012-07-07T23:42:31Z",
    "zip": "83709"
  },
  {
    "address": "21985 Dixie River Rd",
    "city": "Caldwell",
    "county": "Canyon County",
    "created_at": "2012-01-04T20:14:22Z",
    "id": 7130,
    "latitude": "43.690717",
    "longitude": "-116.772897",
    "mascot": "Linx",
    "name": "Canyon Owyhee School",
    "primary_color": "Royal",
    "secondary_color": "White",
    "state": "ID",
    "timezone": "America/Boise",
    "updated_at": "2012-07-07T23:42:31Z",
    "zip": "83605"
  },
  {
    "address": "219 N Roosevelt St",
    "city": "Boise",
    "county": "Ada County",
    "created_at": "2012-01-04T20:14:22Z",
    "id": 7131,
    "latitude": "43.606224",
    "longitude": "-116.233467",
    "mascot": null,
    "name": "Boise Christian School",
    "primary_color": "Royal",
    "secondary_color": "White",
    "state": "ID",
    "timezone": "America/Boise",
    "updated_at": "2012-07-07T23:42:31Z",
    "zip": "83706"
  },
  {
    "address": "9th & Jefferson",
    "city": "Saint Maries",
    "county": "Benewah County",
    "created_at": "2012-01-04T20:14:22Z",
    "id": 7132,
    "latitude": "47.314320",
    "longitude": "-116.568769",
    "mascot": null,
    "name": "Saint Maries SDA School",
    "primary_color": null,
    "secondary_color": null,
    "state": "ID",
    "timezone": "America/Los_Angeles",
    "updated_at": "2012-07-07T23:42:32Z",
    "zip": "83861"
  },
  {
    "address": "181 Dollar Rd",
    "city": "Sun Valley",
    "county": "Blaine County",
    "created_at": "2012-01-04T20:14:22Z",
    "id": 7133,
    "latitude": "43.691431",
    "longitude": "-114.351167",
    "mascot": "Cutthroats",
    "name": "The Community School",
    "primary_color": "Royal",
    "secondary_color": "White",
    "state": "ID",
    "timezone": "America/Boise",
    "updated_at": "2012-07-07T23:42:32Z",
    "zip": "83353"
  },
  {
    "address": "653 Loop Rd",
    "city": "Cocolalla",
    "county": "Bonner County",
    "created_at": "2012-01-04T20:14:22Z",
    "id": 7134,
    "latitude": "48.110336",
    "longitude": "-116.633463",
    "mascot": "Conquerors",
    "name": "Southside Christian School",
    "primary_color": "Kelly Green",
    "secondary_color": "White",
    "state": "ID",
    "timezone": "America/Los_Angeles",
    "updated_at": "2012-07-07T23:42:33Z",
    "zip": "83813"
  },
  {
    "address": "2255 Pine St",
    "city": "Sandpoint",
    "county": "Bonner County",
    "created_at": "2012-01-04T20:14:22Z",
    "id": 7135,
    "latitude": "48.273057",
    "longitude": "-116.579035",
    "mascot": null,
    "name": "Sandpoint Junior Academy",
    "primary_color": null,
    "secondary_color": null,
    "state": "ID",
    "timezone": "America/Los_Angeles",
    "updated_at": "2012-07-07T23:42:33Z",
    "zip": "83864"
  },
  {
    "address": "16115 Montana Ave",
    "city": "Caldwell",
    "county": "Canyon County",
    "created_at": "2012-01-04T20:14:22Z",
    "id": 7136,
    "latitude": "43.606307",
    "longitude": "-116.682929",
    "mascot": "Jaguars",
    "name": "Gem State SDA Academy",
    "primary_color": "Royal",
    "secondary_color": "White",
    "state": "ID",
    "timezone": "America/Boise",
    "updated_at": "2012-07-07T23:42:33Z",
    "zip": "83605"
  },
  {
    "address": "20565 N Academy Dr",
    "city": "Greenleaf",
    "county": "Canyon County",
    "created_at": "2012-01-04T20:14:22Z",
    "id": 7137,
    "latitude": "43.670323",
    "longitude": "-116.820267",
    "mascot": "Grizzlies",
    "name": "Greenleaf Friends Academy",
    "primary_color": "Red",
    "secondary_color": "White",
    "state": "ID",
    "timezone": "America/Boise",
    "updated_at": "2012-07-07T23:42:33Z",
    "zip": "83626"
  },
  {
    "address": "111 Locust Ave",
    "city": "Coeur D'Alene",
    "county": "Kootenai County",
    "created_at": "2012-01-04T20:14:22Z",
    "id": 7138,
    "latitude": "47.693421",
    "longitude": "-116.785577",
    "mascot": "Eagles",
    "name": "Lake City Junior Academy",
    "primary_color": "Royal",
    "secondary_color": "Gray",
    "state": "ID",
    "timezone": "America/Los_Angeles",
    "updated_at": "2012-07-07T23:42:34Z",
    "zip": "83814"
  },
  {
    "address": "1687 Horsehaven Ave",
    "city": "Post Falls",
    "county": "Kootenai County",
    "created_at": "2012-01-04T20:14:22Z",
    "id": 7139,
    "latitude": "47.726809",
    "longitude": "-116.922545",
    "mascot": "Eagles",
    "name": "Post Falls Christian Academy",
    "primary_color": "Red",
    "secondary_color": "White",
    "state": "ID",
    "timezone": "America/Los_Angeles",
    "updated_at": "2012-07-07T23:42:34Z",
    "zip": "83854"
  },
  {
    "address": "1275 N 400 E",
    "city": "Rupert",
    "county": "Minidoka County",
    "created_at": "2012-01-04T20:14:22Z",
    "id": 7140,
    "latitude": "42.805692",
    "longitude": "-113.589337",
    "mascot": "Mavericks",
    "name": "Idaho Youth Ranch",
    "primary_color": "Red",
    "secondary_color": "White",
    "state": "ID",
    "timezone": "America/Boise",
    "updated_at": "2012-07-07T23:42:34Z",
    "zip": "83350"
  },
  {
    "address": "615 Stewart Ave",
    "city": "Lewiston",
    "county": "Nez Perce County",
    "created_at": "2012-01-04T20:14:22Z",
    "id": 7141,
    "latitude": "46.391385",
    "longitude": "-117.000073",
    "mascot": null,
    "name": "Beacon SDA School",
    "primary_color": null,
    "secondary_color": null,
    "state": "ID",
    "timezone": "America/Los_Angeles",
    "updated_at": "2012-07-07T23:42:35Z",
    "zip": "83501"
  },
  {
    "address": "17400 Hiline Rd",
    "city": "Pocatello",
    "county": "Bannock County",
    "created_at": "2012-01-04T20:14:22Z",
    "id": 7142,
    "latitude": "42.978520",
    "longitude": "-112.443219",
    "mascot": "Chiefs",
    "name": "Sho Ban Tribal School",
    "primary_color": "Red",
    "secondary_color": "Black",
    "state": "ID",
    "timezone": "America/Boise",
    "updated_at": "2012-07-07T23:42:35Z",
    "zip": "83202"
  },
  {
    "address": "150 Lake St W",
    "city": "Hagerman",
    "county": "Gooding County",
    "created_at": "2012-01-04T20:14:22Z",
    "id": 7143,
    "latitude": "42.818317",
    "longitude": "-114.899425",
    "mascot": "Pirates",
    "name": "Hagerman Junior Senior High School",
    "primary_color": "Orange",
    "secondary_color": "Black",
    "state": "ID",
    "timezone": "America/Boise",
    "updated_at": "2012-07-07T23:42:35Z",
    "zip": "83332"
  },
  {
    "address": "6001 Cassia St",
    "city": "Boise",
    "county": "Ada County",
    "created_at": "2012-01-04T20:14:22Z",
    "id": 7144,
    "latitude": "43.598093",
    "longitude": "-116.256852",
    "mascot": "Lions",
    "name": "Borah Senior High School",
    "primary_color": "Gold",
    "secondary_color": "Hunter Green",
    "state": "ID",
    "timezone": "America/Boise",
    "updated_at": "2012-07-07T23:42:35Z",
    "zip": "83709"
  },
  {
    "address": "8055 Goddard Rd",
    "city": "Boise",
    "county": "Ada County",
    "created_at": "2012-01-04T20:14:22Z",
    "id": 7145,
    "latitude": "43.644639",
    "longitude": "-116.281984",
    "mascot": "Eagles",
    "name": "Capital Senior High School",
    "primary_color": "Gold",
    "secondary_color": "Black",
    "state": "ID",
    "timezone": "America/Boise",
    "updated_at": "2012-07-07T23:42:35Z",
    "zip": "83704"
  },
  {
    "address": "415 Warm Springs Ave",
    "city": "Boise",
    "county": "Ada County",
    "created_at": "2012-01-04T20:14:22Z",
    "id": 7146,
    "latitude": "43.610554",
    "longitude": "-116.190569",
    "mascot": "Hornets",
    "name": "East Junior High School",
    "primary_color": "Black",
    "secondary_color": "Orange",
    "state": "ID",
    "timezone": "America/Boise",
    "updated_at": "2012-07-07T23:42:36Z",
    "zip": "83712"
  },
  {
    "address": "2121 N Cole Rd",
    "city": "Boise",
    "county": "Ada County",
    "created_at": "2012-01-04T20:14:22Z",
    "id": 7147,
    "latitude": "43.624540",
    "longitude": "-116.274248",
    "mascot": "Falcons",
    "name": "Fairmont Junior High School",
    "primary_color": "Gold",
    "secondary_color": "Royal",
    "state": "ID",
    "timezone": "America/Boise",
    "updated_at": "2012-07-07T23:42:36Z",
    "zip": "83704"
  },
  {
    "address": "1105 N 13th St",
    "city": "Boise",
    "county": "Ada County",
    "created_at": "2012-01-04T20:14:22Z",
    "id": 7148,
    "latitude": "43.625748",
    "longitude": "-116.203353",
    "mascot": "Vikings",
    "name": "North Junior High School",
    "primary_color": "Royal",
    "secondary_color": "White",
    "state": "ID",
    "timezone": "America/Boise",
    "updated_at": "2012-07-07T23:42:36Z",
    "zip": "83702"
  },
  {
    "address": "805 Shoshone St",
    "city": "Boise",
    "county": "Ada County",
    "created_at": "2012-01-04T20:14:22Z",
    "id": 7149,
    "latitude": "43.596897",
    "longitude": "-116.218590",
    "mascot": "Bobcats",
    "name": "South Junior High School",
    "primary_color": "Maroon",
    "secondary_color": "Gray",
    "state": "ID",
    "timezone": "America/Boise",
    "updated_at": "2012-07-07T23:42:37Z",
    "zip": "83705"
  },
  {
    "address": "711 N Curtis Rd",
    "city": "Boise",
    "county": "Ada County",
    "created_at": "2012-01-04T20:14:22Z",
    "id": 7150,
    "latitude": "43.610868",
    "longitude": "-116.253657",
    "mascot": "Mustangs",
    "name": "West Junior High School",
    "primary_color": "Kelly Green",
    "secondary_color": "White",
    "state": "ID",
    "timezone": "America/Boise",
    "updated_at": "2012-07-07T23:42:37Z",
    "zip": "83706"
  },
  {
    "address": "PO Box 1216",
    "city": "Boise",
    "county": "Ada County",
    "created_at": "2012-01-04T20:14:22Z",
    "id": 7151,
    "latitude": "43.606980",
    "longitude": "-116.193409",
    "mascot": null,
    "name": "Booth Memorial School",
    "primary_color": "Purple",
    "secondary_color": "White",
    "state": "ID",
    "timezone": "America/Boise",
    "updated_at": "2012-07-07T23:42:37Z",
    "zip": "83701"
  },
  {
    "address": "12400 W McMillan Rd",
    "city": "Boise",
    "county": "Ada County",
    "created_at": "2012-01-04T20:14:22Z",
    "id": 7152,
    "latitude": "43.648498",
    "longitude": "-116.336730",
    "mascot": "Patriots",
    "name": "Centennial High School",
    "primary_color": "Gray",
    "secondary_color": "Maroon",
    "state": "ID",
    "timezone": "America/Boise",
    "updated_at": "2012-07-07T23:42:38Z",
    "zip": "83713"
  },
  {
    "address": "101 Bleeker",
    "city": "Council",
    "county": "Adams County",
    "created_at": "2012-01-04T20:14:22Z",
    "id": 7153,
    "latitude": "44.727820",
    "longitude": "-116.444934",
    "mascot": "Lumberjacks",
    "name": "Council Junior Senior High School",
    "primary_color": "Red",
    "secondary_color": "Black",
    "state": "ID",
    "timezone": "America/Boise",
    "updated_at": "2012-07-07T23:42:38Z",
    "zip": "83612"
  },
  {
    "address": "12655 S Old Hwy 91",
    "city": "Arimo",
    "county": "Bannock County",
    "created_at": "2012-01-04T20:14:22Z",
    "id": 7154,
    "latitude": "42.580900",
    "longitude": "-112.180193",
    "mascot": "Eagles",
    "name": "Marsh Valley High School",
    "primary_color": "Red",
    "secondary_color": "White",
    "state": "ID",
    "timezone": "America/Boise",
    "updated_at": "2012-07-07T23:42:39Z",
    "zip": "83214"
  },
  {
    "address": "2271 E Terry St",
    "city": "Pocatello",
    "county": "Bannock County",
    "created_at": "2012-01-04T20:14:22Z",
    "id": 7155,
    "latitude": "42.867999",
    "longitude": "-112.413219",
    "mascot": "Panthers",
    "name": "Franklin Junior High School",
    "primary_color": "Royal",
    "secondary_color": "White",
    "state": "ID",
    "timezone": "America/Boise",
    "updated_at": "2012-07-07T23:42:39Z",
    "zip": "83201"
  },
  {
    "address": "845 McKinley St",
    "city": "Pocatello",
    "county": "Bannock County",
    "created_at": "2012-01-04T20:14:22Z",
    "id": 7156,
    "latitude": "42.890457",
    "longitude": "-112.456328",
    "mascot": "Bulldogs",
    "name": "Alameda Center - Alternative School",
    "primary_color": "Gold",
    "secondary_color": "Black",
    "state": "ID",
    "timezone": "America/Boise",
    "updated_at": "2012-07-07T23:42:39Z",
    "zip": "83201"
  },
  {
    "address": "330 Boise St",
    "city": "Montpelier",
    "county": "Bear Lake County",
    "created_at": "2012-01-04T20:14:22Z",
    "id": 7157,
    "latitude": "42.328511",
    "longitude": "-111.295801",
    "mascot": "Bears",
    "name": "Bear Lake High School",
    "primary_color": "Royal",
    "secondary_color": "White",
    "state": "ID",
    "timezone": "America/Boise",
    "updated_at": "2012-07-07T23:42:39Z",
    "zip": "83254"
  },
  {
    "address": "424 Hells Gulls Rd",
    "city": "Saint Maries",
    "county": "Benewah County",
    "created_at": "2012-01-04T20:14:22Z",
    "id": 7158,
    "latitude": "47.332032",
    "longitude": "-116.576711",
    "mascot": "Lumberjacks",
    "name": "Saint Maries Senior High School",
    "primary_color": "Gold",
    "secondary_color": "Kelly Green",
    "state": "ID",
    "timezone": "America/Los_Angeles",
    "updated_at": "2012-07-07T23:42:40Z",
    "zip": "83861"
  },
  {
    "address": "268 S 4th W",
    "city": "Aberdeen",
    "county": "Bingham County",
    "created_at": "2012-01-04T20:14:22Z",
    "id": 7159,
    "latitude": "42.942426",
    "longitude": "-112.833038",
    "mascot": "Tigers",
    "name": "Aberdeen High School",
    "primary_color": "Orange",
    "secondary_color": "Black",
    "state": "ID",
    "timezone": "America/Boise",
    "updated_at": "2012-07-07T23:42:40Z",
    "zip": "83210"
  },
  {
    "address": "870 S Fisher St",
    "city": "Blackfoot",
    "county": "Bingham County",
    "created_at": "2012-01-04T20:14:22Z",
    "id": 7160,
    "latitude": "43.178934",
    "longitude": "-112.347245",
    "mascot": "Broncos",
    "name": "Blackfoot High School",
    "primary_color": "Kelly Green",
    "secondary_color": "White",
    "state": "ID",
    "timezone": "America/Boise",
    "updated_at": "2012-07-07T23:42:40Z",
    "zip": "83221"
  },
  {
    "address": "570 W Fir St",
    "city": "Shelley",
    "county": "Bingham County",
    "created_at": "2012-01-04T20:14:22Z",
    "id": 7161,
    "latitude": "43.374274",
    "longitude": "-112.133558",
    "mascot": "Russets",
    "name": "Shelley Senior High School",
    "primary_color": "Red",
    "secondary_color": "Black",
    "state": "ID",
    "timezone": "America/Boise",
    "updated_at": "2012-07-07T23:42:41Z",
    "zip": "83274"
  },
  {
    "address": "922 W Hwy 39",
    "city": "Blackfoot",
    "county": "Bingham County",
    "created_at": "2012-01-04T20:14:22Z",
    "id": 7162,
    "latitude": "43.196956",
    "longitude": "-112.479601",
    "mascot": "Panthers",
    "name": "Snake River High School",
    "primary_color": "Purple",
    "secondary_color": "White",
    "state": "ID",
    "timezone": "America/Boise",
    "updated_at": "2012-07-07T23:42:41Z",
    "zip": "83221"
  },
  {
    "address": "20 Panther Ln",
    "city": "Carey",
    "county": "Blaine County",
    "created_at": "2012-01-04T20:14:22Z",
    "id": 7163,
    "latitude": "43.314973",
    "longitude": "-113.943871",
    "mascot": "Panthers",
    "name": "Carey School",
    "primary_color": "Royal",
    "secondary_color": "Gold",
    "state": "ID",
    "timezone": "America/Boise",
    "updated_at": "2012-07-07T23:42:41Z",
    "zip": "83320"
  },
  {
    "address": "1050 Fox Acres Rd",
    "city": "Hailey",
    "county": "Blaine County",
    "created_at": "2012-01-04T20:14:22Z",
    "id": 7164,
    "latitude": "43.516397",
    "longitude": "-114.295158",
    "mascot": "Wolverines",
    "name": "Wood River High School",
    "primary_color": "Kelly Green",
    "secondary_color": "Black",
    "state": "ID",
    "timezone": "America/Boise",
    "updated_at": "2012-07-07T23:42:41Z",
    "zip": "83333"
  },
  {
    "address": "121 E 4th Ave",
    "city": "Clark Fork",
    "county": "Bonner County",
    "created_at": "2012-01-04T20:14:22Z",
    "id": 7165,
    "latitude": "48.146420",
    "longitude": "-116.177510",
    "mascot": "Cats",
    "name": "Clark Fork Senior High School",
    "primary_color": "Gold",
    "secondary_color": "Royal",
    "state": "ID",
    "timezone": "America/Los_Angeles",
    "updated_at": "2012-07-07T23:42:42Z",
    "zip": "83811"
  },
  {
    "address": "1103 9th St Hwy 57 N",
    "city": "Priest River",
    "county": "Bonner County",
    "created_at": "2012-01-04T20:14:22Z",
    "id": 7166,
    "latitude": "48.189206",
    "longitude": "-116.915056",
    "mascot": "Spartans",
    "name": "Priest River-Lamanna High School",
    "primary_color": "Orange",
    "secondary_color": "Black",
    "state": "ID",
    "timezone": "America/Los_Angeles",
    "updated_at": "2012-07-07T23:42:42Z",
    "zip": "83856"
  },
  {
    "address": "3165 E Iona Rd",
    "city": "Idaho Falls",
    "county": "Bonneville County",
    "created_at": "2012-01-04T20:14:22Z",
    "id": 7167,
    "latitude": "43.525822",
    "longitude": "-111.971427",
    "mascot": "Fighter Bees",
    "name": "Bonneville High School",
    "primary_color": "Hunter Green",
    "secondary_color": "Gold",
    "state": "ID",
    "timezone": "America/Boise",
    "updated_at": "2012-07-07T23:42:43Z",
    "zip": "83401"
  },
  {
    "address": "955 Garfield St",
    "city": "Idaho Falls",
    "county": "Bonneville County",
    "created_at": "2012-01-04T20:14:22Z",
    "id": 7168,
    "latitude": "43.500475",
    "longitude": "-112.012179",
    "mascot": "Spartans",
    "name": "Clair E Gale Junior High School",
    "primary_color": "Red",
    "secondary_color": "White",
    "state": "ID",
    "timezone": "America/Boise",
    "updated_at": "2012-07-07T23:42:43Z",
    "zip": "83401"
  },
  {
    "address": "601 S Holmes Ave",
    "city": "Idaho Falls",
    "county": "Bonneville County",
    "created_at": "2012-01-04T20:14:22Z",
    "id": 7169,
    "latitude": "43.492384",
    "longitude": "-112.023841",
    "mascot": "Tigers",
    "name": "Idaho Falls High School",
    "primary_color": "Orange",
    "secondary_color": "Black",
    "state": "ID",
    "timezone": "America/Boise",
    "updated_at": "2012-07-07T23:42:43Z",
    "zip": "83401"
  },
  {
    "address": "1767 Bluesky Dr",
    "city": "Idaho Falls",
    "county": "Bonneville County",
    "created_at": "2012-01-04T20:14:22Z",
    "id": 7170,
    "latitude": "43.487562",
    "longitude": "-112.068445",
    "mascot": "Grizzlies",
    "name": "Skyline Senior High School",
    "primary_color": "Navy",
    "secondary_color": "White",
    "state": "ID",
    "timezone": "America/Boise",
    "updated_at": "2012-07-07T23:42:44Z",
    "zip": "83402"
  },
  {
    "address": "6577 Main",
    "city": "Bonners Ferry",
    "county": "Boundary County",
    "created_at": "2012-01-04T20:14:22Z",
    "id": 7171,
    "latitude": "48.680897",
    "longitude": "-116.325879",
    "mascot": "Badgers",
    "name": "Bonners Ferry High School",
    "primary_color": "Royal",
    "secondary_color": "White",
    "state": "ID",
    "timezone": "America/Los_Angeles",
    "updated_at": "2012-07-07T23:42:44Z",
    "zip": "83805"
  },
  {
    "address": "610 Foldier Rd",
    "city": "Fairfield",
    "county": "Camas County",
    "created_at": "2012-01-04T20:14:22Z",
    "id": 7172,
    "latitude": "43.406635",
    "longitude": "-114.726707",
    "mascot": "Mushers",
    "name": "Camas County School",
    "primary_color": "Navy",
    "secondary_color": "Gold",
    "state": "ID",
    "timezone": "America/Boise",
    "updated_at": "2012-07-07T23:42:44Z",
    "zip": "83327"
  },
  {
    "address": "3311 S 10th Ave",
    "city": "Caldwell",
    "county": "Canyon County",
    "created_at": "2012-01-04T20:14:22Z",
    "id": 7173,
    "latitude": "43.640212",
    "longitude": "-116.693070",
    "mascot": "Cougar Cubs",
    "name": "Jefferson Junior High School",
    "primary_color": "Gold",
    "secondary_color": "Royal",
    "state": "ID",
    "timezone": "America/Boise",
    "updated_at": "2012-07-07T23:42:44Z",
    "zip": "83605"
  },
  {
    "address": "520 Broadway Ave",
    "city": "Melba",
    "county": "Canyon County",
    "created_at": "2012-01-04T20:14:22Z",
    "id": 7174,
    "latitude": "43.377743",
    "longitude": "-116.531077",
    "mascot": "Mustangs",
    "name": "Melba High School",
    "primary_color": "Red",
    "secondary_color": "White",
    "state": "ID",
    "timezone": "America/Boise",
    "updated_at": "2012-07-07T23:42:45Z",
    "zip": "83641"
  },
  {
    "address": "203 Lake Lowell Ave",
    "city": "Nampa",
    "county": "Canyon County",
    "created_at": "2012-01-04T20:14:22Z",
    "id": 7175,
    "latitude": "43.561532",
    "longitude": "-116.574535",
    "mascot": "Bulldogs",
    "name": "Nampa Senior High School",
    "primary_color": "Red",
    "secondary_color": "Royal",
    "state": "ID",
    "timezone": "America/Boise",
    "updated_at": "2012-07-07T23:42:45Z",
    "zip": "83686"
  },
  {
    "address": "25260 Notus Rd",
    "city": "Notus",
    "county": "Canyon County",
    "created_at": "2012-01-04T20:14:22Z",
    "id": 7176,
    "latitude": "43.730940",
    "longitude": "-116.797669",
    "mascot": "Pirates",
    "name": "Notus Junior Senior High School",
    "primary_color": "Royal Blue",
    "secondary_color": "Black",
    "state": "ID",
    "timezone": "America/Boise",
    "updated_at": "2012-07-07T23:42:45Z",
    "zip": "83656"
  },
  {
    "address": "908 N 8th St",
    "city": "Parma",
    "county": "Canyon County",
    "created_at": "2012-01-04T20:14:22Z",
    "id": 7177,
    "latitude": "43.789617",
    "longitude": "-116.937216",
    "mascot": "Panthers",
    "name": "Parma High School",
    "primary_color": "Red",
    "secondary_color": "Black",
    "state": "ID",
    "timezone": "America/Boise",
    "updated_at": "2012-07-07T23:42:46Z",
    "zip": "83660"
  },
  {
    "address": "1407 Homedale Rd",
    "city": "Caldwell",
    "county": "Canyon County",
    "created_at": "2012-01-04T20:14:22Z",
    "id": 7178,
    "latitude": "43.618834",
    "longitude": "-116.680970",
    "mascot": "Falcons",
    "name": "Vallivue High School",
    "primary_color": "Brown",
    "secondary_color": "Gold",
    "state": "ID",
    "timezone": "America/Boise",
    "updated_at": "2012-07-07T23:42:46Z",
    "zip": "83607"
  },
  {
    "address": "704 S Main St",
    "city": "Grace",
    "county": "Caribou County",
    "created_at": "2012-01-04T20:14:22Z",
    "id": 7179,
    "latitude": "42.568865",
    "longitude": "-111.730447",
    "mascot": "Grizzlies",
    "name": "Grace High School",
    "primary_color": "Red",
    "secondary_color": "White",
    "state": "ID",
    "timezone": "America/Boise",
    "updated_at": "2012-07-07T23:42:46Z",
    "zip": "83241"
  },
  {
    "address": "300 E 100 N",
    "city": "Soda Springs",
    "county": "Caribou County",
    "created_at": "2012-01-04T20:14:22Z",
    "id": 7180,
    "latitude": "42.699590",
    "longitude": "-111.565075",
    "mascot": "Cardinals",
    "name": "Soda Springs High School",
    "primary_color": "Red",
    "secondary_color": "Black",
    "state": "ID",
    "timezone": "America/Boise",
    "updated_at": "2012-07-07T23:42:47Z",
    "zip": "83276"
  },
  {
    "address": "700 W 16th St",
    "city": "Burley",
    "county": "Cassia County",
    "created_at": "2012-01-04T20:14:22Z",
    "id": 7181,
    "latitude": "42.533016",
    "longitude": "-113.801205",
    "mascot": "Bobcats",
    "name": "Burley Junior High School",
    "primary_color": "Kelly Green",
    "secondary_color": "White",
    "state": "ID",
    "timezone": "America/Boise",
    "updated_at": "2012-07-07T23:42:47Z",
    "zip": "83350"
  },
  {
    "address": "1 Bobcat Blvd",
    "city": "Burley",
    "county": "Cassia County",
    "created_at": "2012-01-04T20:14:22Z",
    "id": 7182,
    "latitude": "42.504224",
    "longitude": "-113.808337",
    "mascot": "Bobcats",
    "name": "Burley Senior High School",
    "primary_color": "Hunter Green",
    "secondary_color": "White",
    "state": "ID",
    "timezone": "America/Boise",
    "updated_at": "2012-07-07T23:42:47Z",
    "zip": "83318"
  },
  {
    "address": "455 W Main St",
    "city": "Oakley",
    "county": "Cassia County",
    "created_at": "2012-01-04T20:14:22Z",
    "id": 7183,
    "latitude": "42.243184",
    "longitude": "-113.890627",
    "mascot": "Hornets",
    "name": "Oakley Junior Senior High School",
    "primary_color": "Red",
    "secondary_color": "White",
    "state": "ID",
    "timezone": "America/Boise",
    "updated_at": "2012-07-07T23:42:47Z",
    "zip": "83346"
  },
  {
    "address": "55 N 1st W",
    "city": "Malta",
    "county": "Cassia County",
    "created_at": "2012-01-04T20:14:22Z",
    "id": 7184,
    "latitude": "42.307512",
    "longitude": "-113.371787",
    "mascot": "Trojans",
    "name": "Raft River High School",
    "primary_color": "Royal",
    "secondary_color": "Gold",
    "state": "ID",
    "timezone": "America/Boise",
    "updated_at": "2012-07-07T23:42:48Z",
    "zip": "83342"
  },
  {
    "address": "343 S Center St",
    "city": "Dubois",
    "county": "Clark County",
    "created_at": "2012-01-04T20:14:22Z",
    "id": 7185,
    "latitude": "44.170740",
    "longitude": "-112.229539",
    "mascot": "Bobcats",
    "name": "Clark County Junior Senior High School",
    "primary_color": "Black",
    "secondary_color": "Orange",
    "state": "ID",
    "timezone": "America/Boise",
    "updated_at": "2012-07-07T23:42:48Z",
    "zip": "83423"
  },
  {
    "address": "300 Dunlap Rd",
    "city": "Orofino",
    "county": "Clearwater County",
    "created_at": "2012-01-04T20:14:22Z",
    "id": 7186,
    "latitude": "46.490663",
    "longitude": "-116.264826",
    "mascot": "Maniacs",
    "name": "Orofino High School",
    "primary_color": "Royal",
    "secondary_color": "White",
    "state": "ID",
    "timezone": "America/Los_Angeles",
    "updated_at": "2012-07-07T23:42:48Z",
    "zip": "83544"
  },
  {
    "address": "1150 Hwy 11",
    "city": "Weippe",
    "county": "Clearwater County",
    "created_at": "2012-01-04T20:14:22Z",
    "id": 7187,
    "latitude": "46.437031",
    "longitude": "-115.884122",
    "mascot": "Spartans",
    "name": "Timberline High School",
    "primary_color": "Gold",
    "secondary_color": "Black",
    "state": "ID",
    "timezone": "America/Los_Angeles",
    "updated_at": "2012-07-07T23:42:48Z",
    "zip": "83553"
  },
  {
    "address": "100 E Bluff St",
    "city": "Challis",
    "county": "Custer County",
    "created_at": "2012-01-04T20:14:22Z",
    "id": 7188,
    "latitude": "44.507015",
    "longitude": "-114.226504",
    "mascot": "Vikings",
    "name": "Challis High School",
    "primary_color": "Red",
    "secondary_color": "White",
    "state": "ID",
    "timezone": "America/Boise",
    "updated_at": "2012-07-07T23:42:49Z",
    "zip": "83226"
  },
  {
    "address": "411 Rose Ave",
    "city": "Mackay",
    "county": "Custer County",
    "created_at": "2012-01-04T20:14:22Z",
    "id": 7189,
    "latitude": "43.911160",
    "longitude": "-113.607369",
    "mascot": "Miners",
    "name": "MacKay Junior Senior High School",
    "primary_color": "Red",
    "secondary_color": "White",
    "state": "ID",
    "timezone": "America/Boise",
    "updated_at": "2012-07-07T23:42:49Z",
    "zip": "83251"
  },
  {
    "address": "545 N Bannock Rd",
    "city": "Glenns Ferry",
    "county": "Elmore County",
    "created_at": "2012-01-04T20:14:22Z",
    "id": 7190,
    "latitude": "42.957034",
    "longitude": "-115.308495",
    "mascot": "Pilots",
    "name": "Glenns Ferry Junior Senior High School",
    "primary_color": "Orange",
    "secondary_color": "Black",
    "state": "ID",
    "timezone": "America/Boise",
    "updated_at": "2012-07-07T23:42:49Z",
    "zip": "83623"
  },
  {
    "address": "300 Main Ave",
    "city": "Mountain Home AFB",
    "county": "Owyhee County",
    "created_at": "2012-01-04T20:14:22Z",
    "id": 7191,
    "latitude": "42.989185",
    "longitude": "-116.093998",
    "mascot": null,
    "name": "Mountain Home AFB Junior High School",
    "primary_color": "Raspberry",
    "secondary_color": "White",
    "state": "ID",
    "timezone": "America/Boise",
    "updated_at": "2012-07-07T23:42:50Z",
    "zip": "83648"
  },
  {
    "address": "300 S 11th E St",
    "city": "Mountain Home",
    "county": "Elmore County",
    "created_at": "2012-01-04T20:14:22Z",
    "id": 7192,
    "latitude": "43.134003",
    "longitude": "-115.686443",
    "mascot": "Tigers",
    "name": "Mountain Home High School",
    "primary_color": "Orange",
    "secondary_color": "Black",
    "state": "ID",
    "timezone": "America/Boise",
    "updated_at": "2012-07-07T23:42:52Z",
    "zip": "83647"
  },
  {
    "address": "21 Main St",
    "city": "Ashton",
    "county": "Fremont County",
    "created_at": "2012-01-04T20:14:22Z",
    "id": 7193,
    "latitude": "44.071388",
    "longitude": "-111.455075",
    "mascot": "Huskies",
    "name": "North Fremont Junior Senior High School",
    "primary_color": "Gold",
    "secondary_color": "Purple",
    "state": "ID",
    "timezone": "America/Boise",
    "updated_at": "2012-07-07T23:42:52Z",
    "zip": "83420"
  },
  {
    "address": "1050 7th Ave W",
    "city": "Gooding",
    "county": "Gooding County",
    "created_at": "2012-01-04T20:14:22Z",
    "id": 7194,
    "latitude": "42.938528",
    "longitude": "-114.724914",
    "mascot": "Senators",
    "name": "Gooding High School",
    "primary_color": "Red",
    "secondary_color": "Black",
    "state": "ID",
    "timezone": "America/Boise",
    "updated_at": "2012-07-07T23:42:53Z",
    "zip": "83330"
  },
  {
    "address": "Hwy 12",
    "city": "Kooskia",
    "county": "Idaho County",
    "created_at": "2012-01-04T20:14:22Z",
    "id": 7195,
    "latitude": "46.141795",
    "longitude": "-115.964290",
    "mascot": "Rams",
    "name": "Clearwater Valley High School",
    "primary_color": "Red",
    "secondary_color": "White",
    "state": "ID",
    "timezone": "America/Los_Angeles",
    "updated_at": "2012-07-07T23:42:53Z",
    "zip": "83539"
  },
  {
    "address": "910 S D St",
    "city": "Grangeville",
    "county": "Idaho County",
    "created_at": "2012-01-04T20:14:22Z",
    "id": 7196,
    "latitude": "45.918950",
    "longitude": "-116.129763",
    "mascot": "Bulldogs",
    "name": "Grangeville High School",
    "primary_color": "Royal",
    "secondary_color": "White",
    "state": "ID",
    "timezone": "America/Los_Angeles",
    "updated_at": "2012-07-07T23:42:53Z",
    "zip": "83530"
  },
  {
    "address": "306 Pine St",
    "city": "Kooskia",
    "county": "Idaho County",
    "created_at": "2012-01-04T20:14:22Z",
    "id": 7197,
    "latitude": "46.145860",
    "longitude": "-115.974749",
    "mascot": "Rams",
    "name": "Clearwater Valley Sr. High School",
    "primary_color": "Red",
    "secondary_color": "White",
    "state": "ID",
    "timezone": "America/Los_Angeles",
    "updated_at": "2012-07-07T23:42:53Z",
    "zip": "83539"
  },
  {
    "address": "290 N 3800 E",
    "city": "Rigby",
    "county": "Jefferson County",
    "created_at": "2012-01-04T20:14:22Z",
    "id": 7198,
    "latitude": "43.667698",
    "longitude": "-111.943765",
    "mascot": "Trojans",
    "name": "Rigby High School",
    "primary_color": "Maroon",
    "secondary_color": "Gold",
    "state": "ID",
    "timezone": "America/Boise",
    "updated_at": "2012-07-07T23:42:54Z",
    "zip": "83442"
  },
  {
    "address": "1260 E 1500 N",
    "city": "Terreton",
    "county": "Jefferson County",
    "created_at": "2012-01-04T20:14:22Z",
    "id": 7199,
    "latitude": "43.841365",
    "longitude": "-112.442935",
    "mascot": "Panthers",
    "name": "West Jefferson High School",
    "primary_color": "White",
    "secondary_color": "Navy Blue",
    "state": "ID",
    "timezone": "America/Boise",
    "updated_at": "2012-07-07T23:42:54Z",
    "zip": "83450"
  },
  {
    "address": "104 Tiger Dr N",
    "city": "Jerome",
    "county": "Jerome County",
    "created_at": "2012-01-04T20:14:22Z",
    "id": 7200,
    "latitude": "42.724184",
    "longitude": "-114.502031",
    "mascot": "Tigers",
    "name": "Jerome High School",
    "primary_color": "Orange",
    "secondary_color": "Black",
    "state": "ID",
    "timezone": "America/Boise",
    "updated_at": "2012-07-07T23:42:54Z",
    "zip": "83338"
  },
  {
    "address": "684 Hwy 53",
    "city": "Rathdrum",
    "county": "Kootenai County",
    "created_at": "2012-01-04T20:14:22Z",
    "id": 7201,
    "latitude": "47.819334",
    "longitude": "-116.795314",
    "mascot": "Hawks",
    "name": "Lakeland High School",
    "primary_color": "Kelly Green",
    "secondary_color": "Gold",
    "state": "ID",
    "timezone": "America/Los_Angeles",
    "updated_at": "2012-07-07T23:42:55Z",
    "zip": "83858"
  },
  {
    "address": "2832 E Poleline Ave",
    "city": "Post Falls",
    "county": "Kootenai County",
    "created_at": "2012-01-04T20:14:22Z",
    "id": 7202,
    "latitude": "47.730404",
    "longitude": "-116.909577",
    "mascot": "Trojans",
    "name": "Post Falls High School",
    "primary_color": "Black",
    "secondary_color": "Orange",
    "state": "ID",
    "timezone": "America/Los_Angeles",
    "updated_at": "2012-07-07T23:42:55Z",
    "zip": "83854"
  },
  {
    "address": "N 5530 4th St",
    "city": "Coeur D'Alene",
    "county": "Kootenai County",
    "created_at": "2012-01-04T20:14:22Z",
    "id": 7203,
    "latitude": "47.699425",
    "longitude": "-116.780819",
    "mascot": "Vikings",
    "name": "Coeur D'Alene Senior High School",
    "primary_color": "Royal",
    "secondary_color": "White",
    "state": "ID",
    "timezone": "America/Los_Angeles",
    "updated_at": "2012-07-07T23:42:55Z",
    "zip": "83814"
  },
  {
    "address": "330 W Ash St",
    "city": "Genesee",
    "county": "Latah County",
    "created_at": "2012-01-04T20:14:22Z",
    "id": 7204,
    "latitude": "46.551615",
    "longitude": "-116.929317",
    "mascot": "Bulldogs",
    "name": "Genesee Junior Senior High School",
    "primary_color": "Gold",
    "secondary_color": "Royal",
    "state": "ID",
    "timezone": "America/Los_Angeles",
    "updated_at": "2012-07-07T23:42:55Z",
    "zip": "83832"
  },
  {
    "address": "2001 Hwy 3",
    "city": "Kendrick",
    "county": "Latah County",
    "created_at": "2012-01-04T20:14:23Z",
    "id": 7205,
    "latitude": "46.632893",
    "longitude": "-116.623025",
    "mascot": "Tigers",
    "name": "Kendrick Junior Senior High School",
    "primary_color": "Orange",
    "secondary_color": "Black",
    "state": "ID",
    "timezone": "America/Los_Angeles",
    "updated_at": "2012-07-07T23:42:56Z",
    "zip": "83537"
  },
  {
    "address": "1410 E D St",
    "city": "Moscow",
    "county": "Latah County",
    "created_at": "2012-01-04T20:14:23Z",
    "id": 7206,
    "latitude": "46.737468",
    "longitude": "-116.983382",
    "mascot": "Cubs",
    "name": "Moscow Junior High School",
    "primary_color": "Red",
    "secondary_color": "Black",
    "state": "ID",
    "timezone": "America/Los_Angeles",
    "updated_at": "2012-07-07T23:42:56Z",
    "zip": "83843"
  },
  {
    "address": "130 6th St",
    "city": "Potlatch",
    "county": "Latah County",
    "created_at": "2012-01-04T20:14:23Z",
    "id": 7207,
    "latitude": "46.927178",
    "longitude": "-116.904998",
    "mascot": "Loggers",
    "name": "Potlatch Junior Senior High School",
    "primary_color": "Kelly Green",
    "secondary_color": "Gold",
    "state": "ID",
    "timezone": "America/Los_Angeles",
    "updated_at": "2012-07-07T23:42:56Z",
    "zip": "83855"
  },
  {
    "address": "502 1st Ave",
    "city": "Deary",
    "county": "Latah County",
    "created_at": "2012-01-04T20:14:23Z",
    "id": 7208,
    "latitude": "46.798242",
    "longitude": "-116.558264",
    "mascot": "Mustangs",
    "name": "Deary Elementary High School",
    "primary_color": "Black",
    "secondary_color": "Red",
    "state": "ID",
    "timezone": "America/Los_Angeles",
    "updated_at": "2012-07-07T23:42:56Z",
    "zip": "83823"
  },
  {
    "address": "101 S Main St",
    "city": "Troy",
    "county": "Latah County",
    "created_at": "2012-01-04T20:14:23Z",
    "id": 7209,
    "latitude": "46.736791",
    "longitude": "-116.769574",
    "mascot": "Trojans",
    "name": "Troy Junior Senior High School",
    "primary_color": "Orange",
    "secondary_color": "Black",
    "state": "ID",
    "timezone": "America/Los_Angeles",
    "updated_at": "2012-07-07T23:42:57Z",
    "zip": "83871"
  },
  {
    "address": "3rd St",
    "city": "Leadore",
    "county": "Lemhi County",
    "created_at": "2012-01-04T20:14:23Z",
    "id": 7210,
    "latitude": "44.675795",
    "longitude": "-113.356899",
    "mascot": "Mustangs",
    "name": "Leadore School",
    "primary_color": "Royal",
    "secondary_color": "White",
    "state": "ID",
    "timezone": "America/Boise",
    "updated_at": "2012-07-07T23:42:57Z",
    "zip": "83464"
  },
  {
    "address": "401 S Warpath Ave",
    "city": "Salmon",
    "county": "Lemhi County",
    "created_at": "2012-01-04T20:14:23Z",
    "id": 7211,
    "latitude": "45.170139",
    "longitude": "-113.885144",
    "mascot": "Savages",
    "name": "Salmon High School",
    "primary_color": "Orange",
    "secondary_color": "Black",
    "state": "ID",
    "timezone": "America/Boise",
    "updated_at": "2012-07-07T23:42:57Z",
    "zip": "83467"
  },
  {
    "address": "711 9th St",
    "city": "Kamiah",
    "county": "Lewis County",
    "created_at": "2012-01-04T20:14:23Z",
    "id": 7212,
    "latitude": "46.223612",
    "longitude": "-116.029523",
    "mascot": "Kubs",
    "name": "Kamiah Senior High School",
    "primary_color": "Maroon",
    "secondary_color": "White",
    "state": "ID",
    "timezone": "America/Los_Angeles",
    "updated_at": "2012-07-07T23:42:57Z",
    "zip": "83536"
  },
  {
    "address": "61 E Hwy 24",
    "city": "Shoshone",
    "county": "Lincoln County",
    "created_at": "2012-01-04T20:14:23Z",
    "id": 7213,
    "latitude": "42.929658",
    "longitude": "-114.409771",
    "mascot": "Indians",
    "name": "Shoshone Junior Senior High School",
    "primary_color": "Gray",
    "secondary_color": "Maroon",
    "state": "ID",
    "timezone": "America/Boise",
    "updated_at": "2012-07-07T23:42:58Z",
    "zip": "83352"
  },
  {
    "address": "555 N Tiger Dr",
    "city": "Richfield",
    "county": "Lincoln County",
    "created_at": "2012-01-04T20:14:23Z",
    "id": 7214,
    "latitude": "43.053519",
    "longitude": "-114.156626",
    "mascot": "Tigers",
    "name": "Richfield School",
    "primary_color": "Black",
    "secondary_color": "Red",
    "state": "ID",
    "timezone": "America/Boise",
    "updated_at": "2012-07-07T23:42:59Z",
    "zip": "83349"
  },
  {
    "address": "60 W Main St",
    "city": "Rexburg",
    "county": "Madison County",
    "created_at": "2012-01-04T20:14:23Z",
    "id": 7215,
    "latitude": "43.826098",
    "longitude": "-111.785478",
    "mascot": "Bobcats",
    "name": "Madison Junior High School",
    "primary_color": "Red",
    "secondary_color": "Gray",
    "state": "ID",
    "timezone": "America/Boise",
    "updated_at": "2012-07-07T23:42:59Z",
    "zip": "83440"
  },
  {
    "address": "134 Madison Ave",
    "city": "Rexburg",
    "county": "Madison County",
    "created_at": "2012-01-04T20:14:23Z",
    "id": 7216,
    "latitude": "43.829221",
    "longitude": "-111.770774",
    "mascot": "Bobcats",
    "name": "Madison High School",
    "primary_color": "Red",
    "secondary_color": "Gray",
    "state": "ID",
    "timezone": "America/Boise",
    "updated_at": "2012-07-07T23:42:59Z",
    "zip": "83440"
  },
  {
    "address": "1 Digger Dr",
    "city": "Sugar City",
    "county": "Madison County",
    "created_at": "2012-01-04T20:14:23Z",
    "id": 7217,
    "latitude": "43.872207",
    "longitude": "-111.737965",
    "mascot": "Diggers",
    "name": "Sugar-Salem High School",
    "primary_color": "Royal",
    "secondary_color": "White",
    "state": "ID",
    "timezone": "America/Boise",
    "updated_at": "2012-07-07T23:42:59Z",
    "zip": "83448"
  },
  {
    "address": "10th & D St",
    "city": "Rupert",
    "county": "Minidoka County",
    "created_at": "2012-01-04T20:14:23Z",
    "id": 7218,
    "latitude": "42.621740",
    "longitude": "-113.672169",
    "mascot": "Little Cubs",
    "name": "Memorial High School",
    "primary_color": "Red",
    "secondary_color": "White",
    "state": "ID",
    "timezone": "America/Boise",
    "updated_at": "2012-07-07T23:43:00Z",
    "zip": "83350"
  },
  {
    "address": "1805 H St",
    "city": "Rupert",
    "county": "Minidoka County",
    "created_at": "2012-01-04T20:14:23Z",
    "id": 7219,
    "latitude": "42.630724",
    "longitude": "-113.677797",
    "mascot": "Pirates",
    "name": "East Minico Junior High School",
    "primary_color": "Purple",
    "secondary_color": "Gold",
    "state": "ID",
    "timezone": "America/Boise",
    "updated_at": "2012-07-07T23:43:00Z",
    "zip": "83350"
  },
  {
    "address": "600 Culdesac Ave",
    "city": "Culdesac",
    "county": "Nez Perce County",
    "created_at": "2012-01-04T20:14:23Z",
    "id": 7220,
    "latitude": "46.375511",
    "longitude": "-116.672198",
    "mascot": "Wolves",
    "name": "Culdesac School",
    "primary_color": "Gold",
    "secondary_color": "Hunter Green",
    "state": "ID",
    "timezone": "America/Los_Angeles",
    "updated_at": "2012-07-07T23:43:00Z",
    "zip": "83524"
  },
  {
    "address": "404 S Main St",
    "city": "Lapwai",
    "county": "Nez Perce County",
    "created_at": "2012-01-04T20:14:23Z",
    "id": 7221,
    "latitude": "46.402190",
    "longitude": "-116.804868",
    "mascot": "Wildcats",
    "name": "Lapwai Junior Senior High School",
    "primary_color": "Royal",
    "secondary_color": "White",
    "state": "ID",
    "timezone": "America/Los_Angeles",
    "updated_at": "2012-07-07T23:43:01Z",
    "zip": "83540"
  },
  {
    "address": "1114 9th Ave",
    "city": "Lewiston",
    "county": "Nez Perce County",
    "created_at": "2012-01-04T20:14:23Z",
    "id": 7222,
    "latitude": "46.411382",
    "longitude": "-117.016620",
    "mascot": "Bengals",
    "name": "Lewiston Senior High School",
    "primary_color": "Gold",
    "secondary_color": "Purple",
    "state": "ID",
    "timezone": "America/Los_Angeles",
    "updated_at": "2012-07-07T23:43:01Z",
    "zip": "83501"
  },
  {
    "address": "181 Jenkins Ave",
    "city": "Malad City",
    "county": "Oneida County",
    "created_at": "2012-01-04T20:14:23Z",
    "id": 7223,
    "latitude": "42.178750",
    "longitude": "-112.242351",
    "mascot": "Dragons",
    "name": "Malad High School",
    "primary_color": "Orange",
    "secondary_color": "Black",
    "state": "ID",
    "timezone": "America/Boise",
    "updated_at": "2012-07-07T23:43:01Z",
    "zip": "83252"
  },
  {
    "address": "HC 85 Box 184A & Hwy 78",
    "city": "Bruneau",
    "county": "Elmore County",
    "created_at": "2012-01-04T20:14:23Z",
    "id": 7224,
    "latitude": "42.945160",
    "longitude": "-115.466148",
    "mascot": "Raiders",
    "name": "Rimrock Junior Senior High School",
    "primary_color": "Gold",
    "secondary_color": "Kelly Green",
    "state": "ID",
    "timezone": "America/Boise",
    "updated_at": "2012-07-07T23:43:03Z",
    "zip": "83604"
  },
  {
    "address": "203 E Idaho Ave",
    "city": "Homedale",
    "county": "Owyhee County",
    "created_at": "2012-01-04T20:14:23Z",
    "id": 7225,
    "latitude": "43.617778",
    "longitude": "-116.930509",
    "mascot": "Trojans",
    "name": "Homedale High School",
    "primary_color": "Red",
    "secondary_color": "White",
    "state": "ID",
    "timezone": "America/Boise",
    "updated_at": "2012-07-07T23:43:04Z",
    "zip": "83628"
  },
  {
    "address": "301 8th Avenue West",
    "city": "Marsing",
    "county": "Owyhee County",
    "created_at": "2012-01-04T20:14:23Z",
    "id": 7226,
    "latitude": "43.541840",
    "longitude": "-116.812119",
    "mascot": "Huskies",
    "name": "Marsing Senior High School",
    "primary_color": "Gold",
    "secondary_color": "Royal",
    "state": "ID",
    "timezone": "America/Boise",
    "updated_at": "2012-07-07T23:43:04Z",
    "zip": "83639"
  },
  {
    "address": "501 Iowa St",
    "city": "Fruitland",
    "county": "Payette County",
    "created_at": "2012-01-04T20:14:23Z",
    "id": 7227,
    "latitude": "44.006208",
    "longitude": "-116.916570",
    "mascot": "Grizzlies",
    "name": "Fruitland High School",
    "primary_color": "Orange",
    "secondary_color": "Black",
    "state": "ID",
    "timezone": "America/Boise",
    "updated_at": "2012-07-07T23:43:04Z",
    "zip": "83619"
  },
  {
    "address": "1500 6th Ave S",
    "city": "Payette",
    "county": "Payette County",
    "created_at": "2012-01-04T20:14:23Z",
    "id": 7228,
    "latitude": "44.067702",
    "longitude": "-116.924677",
    "mascot": "Pirates",
    "name": "Payette High School",
    "primary_color": "Red",
    "secondary_color": "Black",
    "state": "ID",
    "timezone": "America/Boise",
    "updated_at": "2012-07-07T23:43:04Z",
    "zip": "83661"
  },
  {
    "address": "321 E Center St",
    "city": "Rockland",
    "county": "Power County",
    "created_at": "2012-01-04T20:14:23Z",
    "id": 7229,
    "latitude": "42.573977",
    "longitude": "-112.872463",
    "mascot": "Bulldogs",
    "name": "Rockland School",
    "primary_color": "Royal",
    "secondary_color": "White",
    "state": "ID",
    "timezone": "America/Boise",
    "updated_at": "2012-07-07T23:43:05Z",
    "zip": "83271"
  },
  {
    "address": "2 Jacobs Gulch",
    "city": "Kellogg",
    "county": "Shoshone County",
    "created_at": "2012-01-04T20:14:23Z",
    "id": 7230,
    "latitude": "47.548942",
    "longitude": "-116.130106",
    "mascot": "Wildcats",
    "name": "Kellogg Senior High School",
    "primary_color": "Gold",
    "secondary_color": "Purple",
    "state": "ID",
    "timezone": "America/Los_Angeles",
    "updated_at": "2012-07-07T23:43:05Z",
    "zip": "83837"
  },
  {
    "address": "Number 1 Miner Alley",
    "city": "Wallace",
    "county": "Shoshone County",
    "created_at": "2012-01-04T20:14:23Z",
    "id": 7231,
    "latitude": "47.471375",
    "longitude": "-115.931469",
    "mascot": "Miners",
    "name": "Wallace Junior Senior High School",
    "primary_color": "Red",
    "secondary_color": "Black",
    "state": "ID",
    "timezone": "America/Los_Angeles",
    "updated_at": "2012-07-07T23:43:05Z",
    "zip": "83873"
  },
  {
    "address": "550 S Main St",
    "city": "Hansen",
    "county": "Twin Falls County",
    "created_at": "2012-01-04T20:14:23Z",
    "id": 7232,
    "latitude": "42.528087",
    "longitude": "-114.301052",
    "mascot": "Huskies",
    "name": "Hansen Junior Senior High School",
    "primary_color": "Kelly Green",
    "secondary_color": "Black",
    "state": "ID",
    "timezone": "America/Boise",
    "updated_at": "2012-07-07T23:43:06Z",
    "zip": "83334"
  },
  {
    "address": "885 Center St W",
    "city": "Kimberly",
    "county": "Twin Falls County",
    "created_at": "2012-01-04T20:14:23Z",
    "id": 7233,
    "latitude": "42.533698",
    "longitude": "-114.373200",
    "mascot": "Bulldogs",
    "name": "Kimberly High School",
    "primary_color": "Red",
    "secondary_color": "Black",
    "state": "ID",
    "timezone": "America/Boise",
    "updated_at": "2012-07-07T23:43:06Z",
    "zip": "83341"
  },
  {
    "address": "3915 N Wild Cat Way",
    "city": "Filer",
    "county": "Twin Falls County",
    "created_at": "2012-01-04T20:14:23Z",
    "id": 7234,
    "latitude": "42.569740",
    "longitude": "-114.612342",
    "mascot": "Wildcats",
    "name": "Filer High School",
    "primary_color": "Red",
    "secondary_color": "White",
    "state": "ID",
    "timezone": "America/Boise",
    "updated_at": "2012-07-07T23:43:06Z",
    "zip": "83328"
  },
  {
    "address": "2350 Elizabeth Blvd",
    "city": "Twin Falls",
    "county": "Twin Falls County",
    "created_at": "2012-01-04T20:14:23Z",
    "id": 7235,
    "latitude": "42.555742",
    "longitude": "-114.436121",
    "mascot": "Cubs",
    "name": "Vera C O'Leary Junior High School",
    "primary_color": "Red",
    "secondary_color": "Black",
    "state": "ID",
    "timezone": "America/Boise",
    "updated_at": "2012-07-07T23:43:06Z",
    "zip": "83301"
  },
  {
    "address": "1615 Filer Ave E",
    "city": "Twin Falls",
    "county": "Twin Falls County",
    "created_at": "2012-01-04T20:14:23Z",
    "id": 7236,
    "latitude": "42.570426",
    "longitude": "-114.452677",
    "mascot": "Bruins",
    "name": "Twin Falls Senior High School",
    "primary_color": "Royal",
    "secondary_color": "White",
    "state": "ID",
    "timezone": "America/Boise",
    "updated_at": "2012-07-07T23:43:07Z",
    "zip": "83301"
  },
  {
    "address": "401 N Mission St",
    "city": "McCall",
    "county": "Valley County",
    "created_at": "2012-01-04T20:14:23Z",
    "id": 7237,
    "latitude": "44.904705",
    "longitude": "-116.105949",
    "mascot": "Vandals",
    "name": "McCall-Donnelly High School",
    "primary_color": "Red",
    "secondary_color": "White",
    "state": "ID",
    "timezone": "America/Boise",
    "updated_at": "2012-07-07T23:43:07Z",
    "zip": "83638"
  },
  {
    "address": "40 N 4th St",
    "city": "Cambridge",
    "county": "Washington County",
    "created_at": "2012-01-04T20:14:23Z",
    "id": 7238,
    "latitude": "44.575695",
    "longitude": "-116.679539",
    "mascot": "Bulldogs",
    "name": "Cambridge Junior Senior High School",
    "primary_color": "Orange",
    "secondary_color": "Black",
    "state": "ID",
    "timezone": "America/Boise",
    "updated_at": "2012-07-07T23:43:07Z",
    "zip": "83610"
  },
  {
    "address": "Bridge & School Rd",
    "city": "Midvale",
    "county": "Washington County",
    "created_at": "2012-01-04T20:14:23Z",
    "id": 7239,
    "latitude": "44.470630",
    "longitude": "-116.729699",
    "mascot": "Rangers",
    "name": "Midvale School",
    "primary_color": "Royal",
    "secondary_color": "White",
    "state": "ID",
    "timezone": "America/Boise",
    "updated_at": "2012-07-07T23:43:08Z",
    "zip": "83645"
  },
  {
    "address": "690 W Indian Head Rd",
    "city": "Weiser",
    "county": "Washington County",
    "created_at": "2012-01-04T20:14:23Z",
    "id": 7240,
    "latitude": "44.260156",
    "longitude": "-116.979195",
    "mascot": "Wolverines",
    "name": "Weiser High School",
    "primary_color": "Red",
    "secondary_color": "White",
    "state": "ID",
    "timezone": "America/Boise",
    "updated_at": "2012-07-07T23:43:08Z",
    "zip": "83672"
  },
  {
    "address": "209 School St",
    "city": "Cascade",
    "county": "Valley County",
    "created_at": "2012-01-04T20:14:23Z",
    "id": 7241,
    "latitude": "44.515788",
    "longitude": "-116.045220",
    "mascot": "Ramblers",
    "name": "Cascade Elementary & High School",
    "primary_color": "Gold",
    "secondary_color": "Purple",
    "state": "ID",
    "timezone": "America/Boise",
    "updated_at": "2012-07-07T23:43:09Z",
    "zip": "83611"
  },
  {
    "address": "151 E 2nd St S",
    "city": "Preston",
    "county": "Franklin County",
    "created_at": "2012-01-04T20:14:23Z",
    "id": 7242,
    "latitude": "42.092093",
    "longitude": "-111.872557",
    "mascot": "Indians",
    "name": "Preston High School",
    "primary_color": "Royal",
    "secondary_color": "White",
    "state": "ID",
    "timezone": "America/Boise",
    "updated_at": "2012-07-07T23:43:09Z",
    "zip": "83263"
  },
  {
    "address": "2311 E Lanark",
    "city": "Meridian",
    "county": "Ada County",
    "created_at": "2012-01-04T20:14:23Z",
    "id": 7243,
    "latitude": "43.606925",
    "longitude": "-116.365938",
    "mascot": "Panthers",
    "name": "Meridian Academy",
    "primary_color": "Red",
    "secondary_color": "Black",
    "state": "ID",
    "timezone": "America/Boise",
    "updated_at": "2012-07-07T23:43:09Z",
    "zip": "83642"
  },
  {
    "address": "20 N 12th St",
    "city": "Payette",
    "county": "Payette County",
    "created_at": "2012-01-04T20:14:23Z",
    "id": 7244,
    "latitude": "44.075141",
    "longitude": "-116.928971",
    "mascot": null,
    "name": "Payette Alternative School",
    "primary_color": null,
    "secondary_color": null,
    "state": "ID",
    "timezone": "America/Boise",
    "updated_at": "2012-07-07T23:43:09Z",
    "zip": "83661"
  },
  {
    "address": "208 Oregon St",
    "city": "Kellogg",
    "county": "Shoshone County",
    "created_at": "2012-01-04T20:14:23Z",
    "id": 7245,
    "latitude": "47.542704",
    "longitude": "-116.127162",
    "mascot": "Panthers",
    "name": "Silver Valley Youth Works",
    "primary_color": "Teal",
    "secondary_color": "Black",
    "state": "ID",
    "timezone": "America/Los_Angeles",
    "updated_at": "2012-07-07T23:43:10Z",
    "zip": "83837"
  },
  {
    "address": "1005 N Boyer",
    "city": "Sandpoint",
    "county": "Bonner County",
    "created_at": "2012-01-04T20:14:23Z",
    "id": 7246,
    "latitude": "48.282414",
    "longitude": "-116.557037",
    "mascot": "Panthers",
    "name": "Lake Pend Orielle High School",
    "primary_color": "Purple",
    "secondary_color": "Gray",
    "state": "ID",
    "timezone": "America/Los_Angeles",
    "updated_at": "2012-07-07T23:43:10Z",
    "zip": "83864"
  },
  {
    "address": "614 E 5th",
    "city": "Post Falls",
    "county": "Kootenai County",
    "created_at": "2012-01-04T20:14:23Z",
    "id": 7247,
    "latitude": "47.712070",
    "longitude": "-116.939979",
    "mascot": "Shields",
    "name": "Immaculate Conception Academy",
    "primary_color": "Kelly Green",
    "secondary_color": "White",
    "state": "ID",
    "timezone": "America/Los_Angeles",
    "updated_at": "2012-07-07T23:43:10Z",
    "zip": "83854"
  },
  {
    "address": "500 W Boyd St",
    "city": "Murtaugh",
    "county": "Twin Falls County",
    "created_at": "2012-01-04T20:14:23Z",
    "id": 7248,
    "latitude": "42.492195",
    "longitude": "-114.159822",
    "mascot": "Red Devils",
    "name": "Murtaugh High School",
    "primary_color": "Red",
    "secondary_color": "Black",
    "state": "ID",
    "timezone": "America/Boise",
    "updated_at": "2012-07-07T23:43:10Z",
    "zip": "83344"
  },
  {
    "address": "911 Mountain Cove Rd",
    "city": "Boise",
    "county": "Ada County",
    "created_at": "2012-01-04T20:14:23Z",
    "id": 7249,
    "latitude": "43.619842",
    "longitude": "-116.185351",
    "mascot": "Cougars",
    "name": "Mountain Cove High School",
    "primary_color": "Black",
    "secondary_color": "Red",
    "state": "ID",
    "timezone": "America/Boise",
    "updated_at": "2012-07-07T23:43:11Z",
    "zip": "83702"
  },
  {
    "address": "4150 E. Grand Forest Dr",
    "city": "Boise",
    "county": "Ada County",
    "created_at": "2012-01-04T20:14:23Z",
    "id": 7250,
    "latitude": "43.546485",
    "longitude": "-116.133933",
    "mascot": "Trailblazers",
    "name": "Les Bois Junior High School",
    "primary_color": "Hunter Green",
    "secondary_color": "Navy",
    "state": "ID",
    "timezone": "America/Boise",
    "updated_at": "2012-07-07T23:43:11Z",
    "zip": "83716"
  },
  {
    "address": "155 E Francis",
    "city": "Blackfoot",
    "county": "Bingham County",
    "created_at": "2012-01-04T20:14:23Z",
    "id": 7251,
    "latitude": "43.189973",
    "longitude": "-112.339293",
    "mascot": "Mavericks",
    "name": "Independence Alternative High School",
    "primary_color": "Teal",
    "secondary_color": "Black",
    "state": "ID",
    "timezone": "America/Boise",
    "updated_at": "2012-07-07T23:43:11Z",
    "zip": "83221"
  },
  {
    "address": "200 E Fir St",
    "city": "Shelley",
    "county": "Bingham County",
    "created_at": "2012-01-04T20:14:23Z",
    "id": 7252,
    "latitude": "43.374292",
    "longitude": "-112.120832",
    "mascot": "Spudnicks",
    "name": "Shelley Junior High School",
    "primary_color": "Red",
    "secondary_color": "Black",
    "state": "ID",
    "timezone": "America/Boise",
    "updated_at": "2012-07-07T23:43:11Z",
    "zip": "83274"
  },
  {
    "address": "2800 Owen St",
    "city": "Idaho Falls",
    "county": "Bonneville County",
    "created_at": "2012-01-04T20:14:23Z",
    "id": 7253,
    "latitude": "43.471879",
    "longitude": "-111.976677",
    "mascot": "Knights",
    "name": "Hillcrest High School",
    "primary_color": "Red",
    "secondary_color": "Black",
    "state": "ID",
    "timezone": "America/Boise",
    "updated_at": "2012-07-07T23:43:12Z",
    "zip": "83406"
  },
  {
    "address": "350 Castlerock Ln",
    "city": "Idaho Falls",
    "county": "Bonneville County",
    "created_at": "2012-01-04T20:14:23Z",
    "id": 7254,
    "latitude": "43.460902",
    "longitude": "-112.027695",
    "mascot": "Wolverines",
    "name": "Taylorview Junior High School",
    "primary_color": "Orange",
    "secondary_color": "Royal",
    "state": "ID",
    "timezone": "America/Boise",
    "updated_at": "2012-07-07T23:43:12Z",
    "zip": "83404"
  },
  {
    "address": "1767 Blue Sky Dr",
    "city": "Idaho Falls",
    "county": "Bonneville County",
    "created_at": "2012-01-04T20:14:23Z",
    "id": 7255,
    "latitude": "43.487562",
    "longitude": "-112.068445",
    "mascot": "Wolves",
    "name": "West View High School",
    "primary_color": "Maroon",
    "secondary_color": "White",
    "state": "ID",
    "timezone": "America/Boise",
    "updated_at": "2012-07-07T23:43:12Z",
    "zip": "83402"
  },
  {
    "address": "844 Deerborn",
    "city": "Nampa",
    "county": "Canyon County",
    "created_at": "2012-01-04T20:14:23Z",
    "id": 7256,
    "latitude": "43.454910",
    "longitude": "-116.613079",
    "mascot": "Bulldogs",
    "name": "Teen Parent High School",
    "primary_color": "Red",
    "secondary_color": "Royal",
    "state": "ID",
    "timezone": "America/Boise",
    "updated_at": "2012-07-07T23:43:12Z",
    "zip": "83686"
  },
  {
    "address": "470 N 3rd E St",
    "city": "Mountain Home",
    "county": "Elmore County",
    "created_at": "2012-01-04T20:14:23Z",
    "id": 7257,
    "latitude": "43.155952",
    "longitude": "-115.697433",
    "mascot": null,
    "name": "Richard McKenna High School",
    "primary_color": "Royal",
    "secondary_color": "White",
    "state": "ID",
    "timezone": "America/Boise",
    "updated_at": "2012-07-07T23:43:15Z",
    "zip": "83647"
  },
  {
    "address": "315 S John's St",
    "city": "Emmett",
    "county": "Gem County",
    "created_at": "2012-01-04T20:14:23Z",
    "id": 7258,
    "latitude": "43.873427",
    "longitude": "-116.492757",
    "mascot": null,
    "name": "Black Canyon High School",
    "primary_color": null,
    "secondary_color": null,
    "state": "ID",
    "timezone": "America/Boise",
    "updated_at": "2012-07-07T23:43:15Z",
    "zip": "83617"
  },
  {
    "address": "750 E Main St",
    "city": "Wendell",
    "county": "Gooding County",
    "created_at": "2012-01-04T20:14:23Z",
    "id": 7259,
    "latitude": "42.775397",
    "longitude": "-114.691965",
    "mascot": "Trojans",
    "name": "Wendell High School",
    "primary_color": "Gold",
    "secondary_color": "Navy",
    "state": "ID",
    "timezone": "America/Boise",
    "updated_at": "2012-07-07T23:43:15Z",
    "zip": "83355"
  },
  {
    "address": "6101 Ramsey Rd",
    "city": "Coeur D'Alene",
    "county": "Kootenai County",
    "created_at": "2012-01-04T20:14:23Z",
    "id": 7260,
    "latitude": "47.726486",
    "longitude": "-116.808359",
    "mascot": "Timberwolves",
    "name": "Lake City High School",
    "primary_color": "Teal",
    "secondary_color": "Navy",
    "state": "ID",
    "timezone": "America/Los_Angeles",
    "updated_at": "2012-07-07T23:43:15Z",
    "zip": "83814"
  },
  {
    "address": "379 S 2nd St E",
    "city": "Rexburg",
    "county": "Madison County",
    "created_at": "2012-01-04T20:14:23Z",
    "id": 7261,
    "latitude": "43.818257",
    "longitude": "-111.778081",
    "mascot": null,
    "name": "Central High School",
    "primary_color": "Gray",
    "secondary_color": "Hunter Green",
    "state": "ID",
    "timezone": "America/Boise",
    "updated_at": "2012-07-07T23:43:16Z",
    "zip": "83440"
  },
  {
    "address": "1201 D St",
    "city": "Rupert",
    "county": "Minidoka County",
    "created_at": "2012-01-04T20:14:23Z",
    "id": 7262,
    "latitude": "42.624564",
    "longitude": "-113.672876",
    "mascot": "Bulldogs",
    "name": "Mini Cassia Opportunity Center",
    "primary_color": "Red",
    "secondary_color": "Black",
    "state": "ID",
    "timezone": "America/Boise",
    "updated_at": "2012-07-07T23:43:16Z",
    "zip": "83350"
  },
  {
    "address": "3317 12th St",
    "city": "Lewiston",
    "county": "Nez Perce County",
    "created_at": "2012-01-04T20:14:23Z",
    "id": 7263,
    "latitude": "46.382605",
    "longitude": "-116.970353",
    "mascot": null,
    "name": "Alternative High School",
    "primary_color": null,
    "secondary_color": null,
    "state": "ID",
    "timezone": "America/Los_Angeles",
    "updated_at": "2012-07-07T23:43:16Z",
    "zip": "83501"
  },
  {
    "address": "512 Main Ave N",
    "city": "Twin Falls",
    "county": "Twin Falls County",
    "created_at": "2012-01-04T20:14:23Z",
    "id": 7264,
    "latitude": "42.558788",
    "longitude": "-114.474081",
    "mascot": "Ocelots",
    "name": "Magic Valley High School",
    "primary_color": "Maroon",
    "secondary_color": "White",
    "state": "ID",
    "timezone": "America/Boise",
    "updated_at": "2012-07-07T23:43:16Z",
    "zip": "83301"
  },
  {
    "address": "RR 1 Box 511",
    "city": "Bonners Ferry",
    "county": "Boundary County",
    "created_at": "2012-01-04T20:14:23Z",
    "id": 7265,
    "latitude": "48.745964",
    "longitude": "-116.307059",
    "mascot": "Eagles",
    "name": "Rocky Mountain Academy",
    "primary_color": "Gold",
    "secondary_color": "Royal",
    "state": "ID",
    "timezone": "America/Los_Angeles",
    "updated_at": "2012-07-07T23:43:17Z",
    "zip": "83805"
  },
  {
    "address": "100 Centerville Rd",
    "city": "Idaho City",
    "county": "Boise County",
    "created_at": "2012-01-04T20:14:23Z",
    "id": 7266,
    "latitude": "43.830652",
    "longitude": "-115.833412",
    "mascot": "Wildcats",
    "name": "Idaho City High School",
    "primary_color": "Gold",
    "secondary_color": "Royal",
    "state": "ID",
    "timezone": "America/Boise",
    "updated_at": "2012-07-07T23:43:17Z",
    "zip": "83631"
  },
  {
    "address": "574 N Park Ln",
    "city": "Eagle",
    "county": "Ada County",
    "created_at": "2012-01-04T20:14:23Z",
    "id": 7267,
    "latitude": "43.700430",
    "longitude": "-116.403645",
    "mascot": "Mustangs",
    "name": "Eagle High School",
    "primary_color": "Gray",
    "secondary_color": "Hunter Green",
    "state": "ID",
    "timezone": "America/Boise",
    "updated_at": "2012-07-07T23:43:17Z",
    "zip": "83616"
  },
  {
    "address": "207 SW Plymouth Ave",
    "city": "New Plymouth",
    "county": "Payette County",
    "created_at": "2012-01-04T20:14:23Z",
    "id": 7268,
    "latitude": "43.971756",
    "longitude": "-116.819735",
    "mascot": "Pilgrims",
    "name": "New Plymouth High School",
    "primary_color": "Navy",
    "secondary_color": "White",
    "state": "ID",
    "timezone": "America/Boise",
    "updated_at": "2012-07-07T23:43:18Z",
    "zip": "83655"
  },
  {
    "address": "114 McKinley Ave.",
    "city": "Kellogg",
    "county": "Shoshone County",
    "created_at": "2012-01-04T20:14:23Z",
    "id": 7269,
    "latitude": "47.535405",
    "longitude": "-116.122975",
    "mascot": "Miners",
    "name": "Silver Valley Alternative School",
    "primary_color": "Gray",
    "secondary_color": "Royal",
    "state": "ID",
    "timezone": "America/Los_Angeles",
    "updated_at": "2012-07-07T23:43:18Z",
    "zip": "83837"
  },
  {
    "address": "10714 N Fairgrounds",
    "city": "Pocatello",
    "county": "Bannock County",
    "created_at": "2012-01-04T20:14:23Z",
    "id": 7270,
    "latitude": "42.912925",
    "longitude": "-112.431945",
    "mascot": null,
    "name": "New Horizon High School",
    "primary_color": "Gray",
    "secondary_color": "Kelly Green",
    "state": "ID",
    "timezone": "America/Boise",
    "updated_at": "2012-07-07T23:43:18Z",
    "zip": "83204"
  },
  {
    "address": "505 E Main St",
    "city": "Declo",
    "county": "Cassia County",
    "created_at": "2012-01-04T20:14:23Z",
    "id": 7271,
    "latitude": "42.518125",
    "longitude": "-113.627459",
    "mascot": "Hornets",
    "name": "Declo High School",
    "primary_color": "Orange",
    "secondary_color": "Black",
    "state": "ID",
    "timezone": "America/Boise",
    "updated_at": "2012-07-07T23:43:18Z",
    "zip": "83323"
  },
  {
    "address": "201 Idaho Ave",
    "city": "Rigby",
    "county": "Jefferson County",
    "created_at": "2012-01-04T20:14:23Z",
    "id": 7272,
    "latitude": "43.675367",
    "longitude": "-111.911811",
    "mascot": null,
    "name": "Jefferson High School",
    "primary_color": "Royal",
    "secondary_color": "Black",
    "state": "ID",
    "timezone": "America/Boise",
    "updated_at": "2012-07-07T23:43:19Z",
    "zip": "83442"
  },
  {
    "address": "3175 E Lincoln St",
    "city": "Idaho Falls",
    "county": "Bonneville County",
    "created_at": "2012-01-04T20:14:23Z",
    "id": 7273,
    "latitude": "43.511360",
    "longitude": "-111.968331",
    "mascot": "Phoenix",
    "name": "Lincoln High School",
    "primary_color": "Teal",
    "secondary_color": "Black",
    "state": "ID",
    "timezone": "America/Boise",
    "updated_at": "2012-07-07T23:43:19Z",
    "zip": "83401"
  },
  {
    "address": "598 Lincoln St",
    "city": "American Falls",
    "county": "Power County",
    "created_at": "2012-01-04T20:14:23Z",
    "id": 7274,
    "latitude": "42.779243",
    "longitude": "-112.859038",
    "mascot": "Wizard",
    "name": "American Falls Academy",
    "primary_color": "Royal",
    "secondary_color": "Gray",
    "state": "ID",
    "timezone": "America/Boise",
    "updated_at": "2012-07-07T23:43:19Z",
    "zip": "83211"
  },
  {
    "address": "7801 Diamond Back Dr",
    "city": "Pocatello",
    "county": "Bannock County",
    "created_at": "2012-01-04T20:14:23Z",
    "id": 7275,
    "latitude": "42.808407",
    "longitude": "-112.372099",
    "mascot": "Diamondbacks",
    "name": "Century High School",
    "primary_color": "Gold",
    "secondary_color": "Teal",
    "state": "ID",
    "timezone": "America/Boise",
    "updated_at": "2012-07-07T23:43:19Z",
    "zip": "83204"
  },
  {
    "address": "1273 W Shoreline Dr",
    "city": "Boise",
    "county": "Ada County",
    "created_at": "2012-01-04T20:14:23Z",
    "id": 7276,
    "latitude": "43.613639",
    "longitude": "-116.218111",
    "mascot": null,
    "name": "The Sheridan Academy",
    "primary_color": "Gray",
    "secondary_color": "Hunter Green",
    "state": "ID",
    "timezone": "America/Boise",
    "updated_at": "2012-07-07T23:43:20Z",
    "zip": "83702"
  },
  {
    "address": "201 W Mullin",
    "city": "Post Falls",
    "county": "Kootenai County",
    "created_at": "2012-01-04T20:14:23Z",
    "id": 7277,
    "latitude": "47.716063",
    "longitude": "-116.949871",
    "mascot": "Sting Rays",
    "name": "New Vision Alternative School",
    "primary_color": "Teal",
    "secondary_color": "Black",
    "state": "ID",
    "timezone": "America/Los_Angeles",
    "updated_at": "2012-07-07T23:43:20Z",
    "zip": "83854"
  },
  {
    "address": "301 S Olive",
    "city": "Sandpoint",
    "county": "Bonner County",
    "created_at": "2012-01-04T20:14:23Z",
    "id": 7278,
    "latitude": "48.270969",
    "longitude": "-116.563871",
    "mascot": "Eagles",
    "name": "Faith Christian Academy",
    "primary_color": "Royal",
    "secondary_color": "Gold",
    "state": "ID",
    "timezone": "America/Los_Angeles",
    "updated_at": "2012-07-07T23:43:20Z",
    "zip": "83864"
  },
  {
    "address": "1631 Granview Dr N",
    "city": "Twin Falls",
    "county": "Twin Falls County",
    "created_at": "2012-01-04T20:14:23Z",
    "id": 7279,
    "latitude": "42.589547",
    "longitude": "-114.499387",
    "mascot": "Conquerors",
    "name": "Magic Valley Christian School",
    "primary_color": "Gold",
    "secondary_color": "Purple",
    "state": "ID",
    "timezone": "America/Boise",
    "updated_at": "2012-07-07T23:43:21Z",
    "zip": "83303"
  },
  {
    "address": "701 E Boise Ave",
    "city": "Boise",
    "county": "Ada County",
    "created_at": "2012-01-04T20:14:23Z",
    "id": 7280,
    "latitude": "43.578804",
    "longitude": "-116.174680",
    "mascot": "Wolves",
    "name": "Timberline High School",
    "primary_color": "Royal",
    "secondary_color": "Gray",
    "state": "ID",
    "timezone": "America/Boise",
    "updated_at": "2012-07-07T23:43:21Z",
    "zip": "83702"
  },
  {
    "address": "100 S Academy Ave",
    "city": "Eagle",
    "county": "Ada County",
    "created_at": "2012-01-04T20:14:23Z",
    "id": 7281,
    "latitude": "43.693740",
    "longitude": "-116.337461",
    "mascot": "Jaguars",
    "name": "Eagle Academy",
    "primary_color": "Maroon",
    "secondary_color": "Gray",
    "state": "ID",
    "timezone": "America/Boise",
    "updated_at": "2012-07-07T23:43:21Z",
    "zip": "83616"
  },
  {
    "address": "124 Idaho St",
    "city": "McCall",
    "county": "Valley County",
    "created_at": "2012-01-04T20:14:23Z",
    "id": 7282,
    "latitude": "44.907633",
    "longitude": "-116.105005",
    "mascot": "Eagles",
    "name": "Heartland High School",
    "primary_color": "Kelly Green",
    "secondary_color": "Black",
    "state": "ID",
    "timezone": "America/Boise",
    "updated_at": "2012-07-07T23:43:21Z",
    "zip": "83638"
  },
  {
    "address": "107 Poplar St",
    "city": "Caldwell",
    "county": "Canyon County",
    "created_at": "2012-01-04T20:14:23Z",
    "id": 7283,
    "latitude": "43.644916",
    "longitude": "-116.697881",
    "mascot": null,
    "name": "Canyon Springs High School",
    "primary_color": null,
    "secondary_color": null,
    "state": "ID",
    "timezone": "America/Boise",
    "updated_at": "2012-07-07T23:43:22Z",
    "zip": "83605"
  },
  {
    "address": "1303 E Greenhurst",
    "city": "Nampa",
    "county": "Canyon County",
    "created_at": "2012-01-04T20:14:23Z",
    "id": 7284,
    "latitude": "43.546982",
    "longitude": "-116.556030",
    "mascot": "Hawks",
    "name": "Skyview High School",
    "primary_color": "Royal",
    "secondary_color": "Gray",
    "state": "ID",
    "timezone": "America/Boise",
    "updated_at": "2012-07-07T23:43:22Z",
    "zip": "83686"
  },
  {
    "address": "3201 Ridgecrest Dr",
    "city": "Nampa",
    "county": "Canyon County",
    "created_at": "2012-01-04T20:14:23Z",
    "id": 7285,
    "latitude": "43.601318",
    "longitude": "-116.513796",
    "mascot": "Eagles",
    "name": "Ridgecrest High School",
    "primary_color": "Red",
    "secondary_color": "Black",
    "state": "ID",
    "timezone": "America/Boise",
    "updated_at": "2012-07-07T23:43:22Z",
    "zip": "83687"
  },
  {
    "address": "900 N Lincoln",
    "city": "Jerome",
    "county": "Jerome County",
    "created_at": "2012-01-04T20:14:23Z",
    "id": 7286,
    "latitude": "42.731582",
    "longitude": "-114.518481",
    "mascot": null,
    "name": "Lighthouse Christian School",
    "primary_color": null,
    "secondary_color": null,
    "state": "ID",
    "timezone": "America/Boise",
    "updated_at": "2012-07-07T23:43:22Z",
    "zip": "83338"
  },
  {
    "address": "1063 E Lewis Ln",
    "city": "Nampa",
    "county": "Canyon County",
    "created_at": "2012-01-04T20:14:23Z",
    "id": 7287,
    "latitude": "43.517346",
    "longitude": "-116.558237",
    "mascot": null,
    "name": "Liberty Charter School",
    "primary_color": null,
    "secondary_color": null,
    "state": "ID",
    "timezone": "America/Boise",
    "updated_at": "2012-07-07T23:43:23Z",
    "zip": "83686"
  },
  {
    "address": "2000 S Millenium Way",
    "city": "Meridian",
    "county": "Ada County",
    "created_at": "2012-01-04T20:14:23Z",
    "id": 7288,
    "latitude": "43.587220",
    "longitude": "-116.368371",
    "mascot": "Mavericks",
    "name": "Mountain View High School",
    "primary_color": "Navy ",
    "secondary_color": "Kelly Green",
    "state": "ID",
    "timezone": "America/Boise",
    "updated_at": "2012-07-07T23:43:23Z",
    "zip": "83642"
  },
  {
    "address": "3639 W Prairie Ave",
    "city": "Hayden",
    "county": "Kootenai County",
    "created_at": "2012-01-04T20:14:23Z",
    "id": 7289,
    "latitude": "47.744700",
    "longitude": "-116.835291",
    "mascot": null,
    "name": "Christian Central School",
    "primary_color": null,
    "secondary_color": null,
    "state": "ID",
    "timezone": "America/Los_Angeles",
    "updated_at": "2012-07-07T23:43:23Z",
    "zip": "83835"
  },
  {
    "address": "3866 E Menan Lorenzo Hwy",
    "city": "Rigby",
    "county": "Jefferson County",
    "created_at": "2012-01-04T20:14:23Z",
    "id": 7290,
    "latitude": "43.728062",
    "longitude": "-111.930475",
    "mascot": null,
    "name": "Jefferson Montessori School",
    "primary_color": null,
    "secondary_color": null,
    "state": "ID",
    "timezone": "America/Boise",
    "updated_at": "2012-07-07T23:43:23Z",
    "zip": "83442"
  },
  {
    "address": "2281 west Seltice Way",
    "city": "Post Falls",
    "county": "Kootenai County",
    "created_at": "2012-01-04T20:14:23Z",
    "id": 7291,
    "latitude": "47.716118",
    "longitude": "-116.978585",
    "mascot": null,
    "name": "Classical Christian Academy",
    "primary_color": "Red",
    "secondary_color": "Khaki",
    "state": "ID",
    "timezone": "America/Los_Angeles",
    "updated_at": "2012-07-07T23:43:24Z",
    "zip": "83854"
  },
  {
    "address": "202 E 42nd St",
    "city": "Garden",
    "county": "Ada County",
    "created_at": "2012-01-04T20:14:23Z",
    "id": 7292,
    "latitude": "43.632497",
    "longitude": "-116.249735",
    "mascot": "Archer",
    "name": "Foundation Academy",
    "primary_color": "Blue",
    "secondary_color": "White",
    "state": "ID",
    "timezone": "America/Boise",
    "updated_at": "2012-07-07T23:43:24Z",
    "zip": "83714"
  },
  {
    "address": "882 Valley Rd S",
    "city": "Hazelton",
    "county": "Jerome County",
    "created_at": "2012-01-04T20:14:23Z",
    "id": 7293,
    "latitude": "42.592668",
    "longitude": "-114.171229",
    "mascot": "Vikings",
    "name": "Valley School",
    "primary_color": "Royal",
    "secondary_color": "White",
    "state": "ID",
    "timezone": "America/Boise",
    "updated_at": "2012-07-07T23:43:24Z",
    "zip": "83335"
  }
]