[
  {
    "address": "649 Old Mill Rd",
    "city": "Millersville",
    "county": "Anne Arundel County",
    "created_at": "2012-01-04T20:15:04Z",
    "id": 10781,
    "latitude": "39.117738",
    "longitude": "-76.630718",
    "mascot": null,
    "name": "Churh On The Rock Christian Academy",
    "primary_color": "Royal",
    "secondary_color": "White",
    "state": "MD",
    "timezone": "America/New_York",
    "updated_at": "2012-07-08T00:04:25Z",
    "zip": "21108"
  },
  {
    "address": "7823 Oakwood Rd",
    "city": "Glen Burnie",
    "county": "Anne Arundel County",
    "created_at": "2012-01-04T20:15:04Z",
    "id": 10782,
    "latitude": "39.142495",
    "longitude": "-76.618468",
    "mascot": "Braves",
    "name": "Granite Baptist Church School",
    "primary_color": "Maroon",
    "secondary_color": "Gray",
    "state": "MD",
    "timezone": "America/New_York",
    "updated_at": "2012-07-08T00:04:25Z",
    "zip": "21061"
  },
  {
    "address": "13321 Cearfoss Pike",
    "city": "Hagerstown",
    "county": "Washington County",
    "created_at": "2012-01-04T20:15:04Z",
    "id": 10783,
    "latitude": "39.677746",
    "longitude": "-77.755168",
    "mascot": "Trojans",
    "name": "Grace Academy",
    "primary_color": "Red",
    "secondary_color": "Royal",
    "state": "MD",
    "timezone": "America/New_York",
    "updated_at": "2012-07-08T00:04:26Z",
    "zip": "21740"
  },
  {
    "address": "289 W Main St",
    "city": "Hancock",
    "county": "Washington County",
    "created_at": "2012-01-04T20:15:04Z",
    "id": 10784,
    "latitude": "39.698177",
    "longitude": "-78.195143",
    "mascot": "Panthers",
    "name": "Hancock Middle Senior High School",
    "primary_color": "Royal",
    "secondary_color": "White",
    "state": "MD",
    "timezone": "America/New_York",
    "updated_at": "2012-07-08T00:04:26Z",
    "zip": "21750"
  },
  {
    "address": "10902 Old Princess Anne Rd",
    "city": "Princess Anne",
    "county": "Somerset County",
    "created_at": "2012-01-04T20:15:04Z",
    "id": 10785,
    "latitude": "38.180759",
    "longitude": "-75.685798",
    "mascot": "Jaguars",
    "name": "Washington High School",
    "primary_color": "Gold",
    "secondary_color": "Maroon",
    "state": "MD",
    "timezone": "America/New_York",
    "updated_at": "2012-07-08T00:04:26Z",
    "zip": "21853"
  },
  {
    "address": "13300 Arctic Ave",
    "city": "Rockville",
    "county": "Montgomery County",
    "created_at": "2012-01-04T20:15:04Z",
    "id": 10786,
    "latitude": "39.073956",
    "longitude": "-77.099327",
    "mascot": "Cougars",
    "name": "Melvin J Berman Hebrew Academy",
    "primary_color": "Gold",
    "secondary_color": "Royal",
    "state": "MD",
    "timezone": "America/New_York",
    "updated_at": "2012-07-08T00:04:26Z",
    "zip": "20853"
  },
  {
    "address": "6501 Surratts Rd",
    "city": "Clinton",
    "county": "Prince George's County",
    "created_at": "2012-01-04T20:15:04Z",
    "id": 10787,
    "latitude": "38.756683",
    "longitude": "-76.894679",
    "mascot": "Eagles",
    "name": "Grace Brethren Christian School",
    "primary_color": "Orange",
    "secondary_color": "Royal",
    "state": "MD",
    "timezone": "America/New_York",
    "updated_at": "2012-07-08T00:04:26Z",
    "zip": "20735"
  },
  {
    "address": "12215 Walnut Point W",
    "city": "Hagerstown",
    "county": "Washington County",
    "created_at": "2012-01-04T20:15:04Z",
    "id": 10788,
    "latitude": "39.648299",
    "longitude": "-77.827903",
    "mascot": "Eagles",
    "name": "Heritage Academy",
    "primary_color": "Red",
    "secondary_color": "White",
    "state": "MD",
    "timezone": "America/New_York",
    "updated_at": "2012-07-08T00:04:27Z",
    "zip": "21740"
  },
  {
    "address": "807 Parker Rd",
    "city": "Salisbury",
    "county": "Wicomico County",
    "created_at": "2012-01-04T20:15:04Z",
    "id": 10789,
    "latitude": "38.389645",
    "longitude": "-75.550313",
    "mascot": "Jaguars",
    "name": "Salisbury Christian School",
    "primary_color": "Kelly Green",
    "secondary_color": "Maroon",
    "state": "MD",
    "timezone": "America/New_York",
    "updated_at": "2012-07-08T00:04:27Z",
    "zip": "21804"
  },
  {
    "address": "15930 Good Hope Rd",
    "city": "Silver Spring",
    "county": "Montgomery County",
    "created_at": "2012-01-04T20:15:04Z",
    "id": 10790,
    "latitude": "39.117169",
    "longitude": "-76.976812",
    "mascot": "Hornets",
    "name": "Spencerville Adventist Academy",
    "primary_color": "Gold",
    "secondary_color": "Royal",
    "state": "MD",
    "timezone": "America/New_York",
    "updated_at": "2012-07-08T00:04:27Z",
    "zip": "20905"
  },
  {
    "address": "144 Appleton Rd",
    "city": "Elkton",
    "county": "Cecil County",
    "created_at": "2012-01-04T20:15:04Z",
    "id": 10791,
    "latitude": "39.625338",
    "longitude": "-75.824603",
    "mascot": "Crusaders",
    "name": "Elkton Christian Academy",
    "primary_color": "Black",
    "secondary_color": "White",
    "state": "MD",
    "timezone": "America/New_York",
    "updated_at": "2012-07-08T00:04:27Z",
    "zip": "21921"
  },
  {
    "address": "581 S Maryland Ave",
    "city": "North East",
    "county": "Cecil County",
    "created_at": "2012-01-04T20:15:04Z",
    "id": 10792,
    "latitude": "39.593589",
    "longitude": "-75.938251",
    "mascot": "Trojans",
    "name": "The Tome School",
    "primary_color": "Royal",
    "secondary_color": "White",
    "state": "MD",
    "timezone": "America/New_York",
    "updated_at": "2012-07-08T00:04:28Z",
    "zip": "21901"
  },
  {
    "address": "13201 New School Rd NW",
    "city": "Mount Savage",
    "county": "Allegany County",
    "created_at": "2012-01-04T20:15:04Z",
    "id": 10793,
    "latitude": "39.700380",
    "longitude": "-78.879242",
    "mascot": "Indians",
    "name": "Mount Savage School",
    "primary_color": "Gold",
    "secondary_color": "Kelly Green",
    "state": "MD",
    "timezone": "America/New_York",
    "updated_at": "2012-07-08T00:04:28Z",
    "zip": "21545"
  },
  {
    "address": "3919 Schroeder Ave",
    "city": "Perry Hall",
    "county": "Baltimore County",
    "created_at": "2012-01-04T20:15:04Z",
    "id": 10794,
    "latitude": "39.421742",
    "longitude": "-76.462540",
    "mascot": "Panthers",
    "name": "Perry Hall Christian School",
    "primary_color": "Gold",
    "secondary_color": "Royal",
    "state": "MD",
    "timezone": "America/New_York",
    "updated_at": "2012-07-08T00:04:28Z",
    "zip": "21128"
  },
  {
    "address": "3300 Old Court Rd",
    "city": "Baltimore",
    "county": "Baltimore County",
    "created_at": "2012-01-04T20:15:04Z",
    "id": 10795,
    "latitude": "39.386207",
    "longitude": "-76.704829",
    "mascot": null,
    "name": "Beth Tfiloh School",
    "primary_color": "Navy",
    "secondary_color": "White",
    "state": "MD",
    "timezone": "America/New_York",
    "updated_at": "2012-07-08T00:04:29Z",
    "zip": "21208"
  },
  {
    "address": "3030 N Rolling Rd",
    "city": "Baltimore",
    "county": "Baltimore County",
    "created_at": "2012-01-04T20:15:04Z",
    "id": 10796,
    "latitude": "39.339758",
    "longitude": "-76.761464",
    "mascot": "Eagles",
    "name": "Arlington Baptist School",
    "primary_color": "Yellow",
    "secondary_color": "Kelly Green",
    "state": "MD",
    "timezone": "America/New_York",
    "updated_at": "2012-07-08T00:04:29Z",
    "zip": "21244"
  },
  {
    "address": "550 Baltimore Blvd",
    "city": "Westminster",
    "county": "Carroll County",
    "created_at": "2012-01-04T20:15:04Z",
    "id": 10797,
    "latitude": "39.567365",
    "longitude": "-76.978461",
    "mascot": "Patriots",
    "name": "Carroll Christian School",
    "primary_color": "Red",
    "secondary_color": "White",
    "state": "MD",
    "timezone": "America/New_York",
    "updated_at": "2012-07-08T00:04:29Z",
    "zip": "21157"
  },
  {
    "address": "8120 Carroll Ave",
    "city": "Takoma Park",
    "county": "Montgomery County",
    "created_at": "2012-01-04T20:15:04Z",
    "id": 10798,
    "latitude": "38.990672",
    "longitude": "-76.993360",
    "mascot": "Tigers",
    "name": "Takoma Academy",
    "primary_color": "Maroon",
    "secondary_color": "White",
    "state": "MD",
    "timezone": "America/New_York",
    "updated_at": "2012-07-08T00:04:30Z",
    "zip": "20912"
  },
  {
    "address": "610 Largo Rd",
    "city": "Upper Marlboro",
    "county": "Prince George's County",
    "created_at": "2012-01-04T20:15:04Z",
    "id": 10799,
    "latitude": "38.884162",
    "longitude": "-76.814181",
    "mascot": "Indians",
    "name": "Capitol Christian Academy",
    "primary_color": "Ash Grey",
    "secondary_color": "Maroon",
    "state": "MD",
    "timezone": "America/New_York",
    "updated_at": "2012-07-08T00:04:30Z",
    "zip": "20774"
  },
  {
    "address": "6707 Woodyard Rd",
    "city": "Upper Marlboro",
    "county": "Prince George's County",
    "created_at": "2012-01-04T20:15:04Z",
    "id": 10800,
    "latitude": "38.797145",
    "longitude": "-76.832188",
    "mascot": "Eagles",
    "name": "Clinton Christian School",
    "primary_color": "Gold",
    "secondary_color": "Kelly Green",
    "state": "MD",
    "timezone": "America/New_York",
    "updated_at": "2012-07-08T00:04:30Z",
    "zip": "20772"
  },
  {
    "address": "1133 Largo Rd",
    "city": "Upper Marlboro",
    "county": "Prince George's County",
    "created_at": "2012-01-04T20:15:04Z",
    "id": 10801,
    "latitude": "38.874381",
    "longitude": "-76.788763",
    "mascot": "Crusaders",
    "name": "Riverdale Baptist School",
    "primary_color": "Royal",
    "secondary_color": "Gold",
    "state": "MD",
    "timezone": "America/New_York",
    "updated_at": "2012-07-08T00:04:30Z",
    "zip": "20774"
  },
  {
    "address": "700 Bishop Walsh Rd",
    "city": "Cumberland",
    "county": "Allegany County",
    "created_at": "2012-01-04T20:15:04Z",
    "id": 10802,
    "latitude": "39.660787",
    "longitude": "-78.791426",
    "mascot": "Spartans",
    "name": "Bishop Walsh School",
    "primary_color": "Maroon",
    "secondary_color": "White",
    "state": "MD",
    "timezone": "America/New_York",
    "updated_at": "2012-07-08T00:04:31Z",
    "zip": "21502"
  },
  {
    "address": "113 Duke Of Glousester St",
    "city": "Annapolis",
    "county": "Anne Arundel County",
    "created_at": "2012-01-04T20:15:04Z",
    "id": 10803,
    "latitude": "38.975401",
    "longitude": "-76.487955",
    "mascot": "Saints",
    "name": "Saint Mary's High School",
    "primary_color": "Royal",
    "secondary_color": "White",
    "state": "MD",
    "timezone": "America/New_York",
    "updated_at": "2012-07-08T00:04:31Z",
    "zip": "21401"
  },
  {
    "address": "201 S Conkling St",
    "city": "Baltimore",
    "county": "Baltimore County",
    "created_at": "2012-01-04T20:15:04Z",
    "id": 10804,
    "latitude": "39.290160",
    "longitude": "-76.567356",
    "mascot": "Lions",
    "name": "Arch Bishop Borders School",
    "primary_color": "Royal",
    "secondary_color": "Gold",
    "state": "MD",
    "timezone": "America/New_York",
    "updated_at": "2012-07-08T00:04:31Z",
    "zip": "21224"
  },
  {
    "address": "6800 Marlboro Pk",
    "city": "Forestville",
    "county": "Prince George's County",
    "created_at": "2012-01-04T20:15:04Z",
    "id": 10805,
    "latitude": "38.851260",
    "longitude": "-76.889701",
    "mascot": "Mustangs",
    "name": "Bishop McNamara High School",
    "primary_color": "Maroon",
    "secondary_color": "Gold",
    "state": "MD",
    "timezone": "America/New_York",
    "updated_at": "2012-07-08T00:04:31Z",
    "zip": "20747"
  },
  {
    "address": "500 Greenway Ave",
    "city": "Cumberland",
    "county": "Allegany County",
    "created_at": "2012-01-04T20:15:04Z",
    "id": 10806,
    "latitude": "39.644368",
    "longitude": "-78.749214",
    "mascot": "Sentinels",
    "name": "Fort Hill High School",
    "primary_color": "Red",
    "secondary_color": "White",
    "state": "MD",
    "timezone": "America/New_York",
    "updated_at": "2012-07-08T00:04:32Z",
    "zip": "21502"
  },
  {
    "address": "16915 Lower Georges Creek Rd",
    "city": "Lonaconing",
    "county": "Allegany County",
    "created_at": "2012-01-04T20:15:04Z",
    "id": 10807,
    "latitude": "39.560348",
    "longitude": "-78.987356",
    "mascot": "Wildcats",
    "name": "Westmar High School",
    "primary_color": "Gray",
    "secondary_color": "Red",
    "state": "MD",
    "timezone": "America/New_York",
    "updated_at": "2012-07-08T00:04:32Z",
    "zip": "21539"
  },
  {
    "address": "501 Stemmers Run Rd",
    "city": "Baltimore",
    "county": "Baltimore County",
    "created_at": "2012-01-04T20:15:04Z",
    "id": 10808,
    "latitude": "39.326211",
    "longitude": "-76.461548",
    "mascot": "Blue Birds",
    "name": "Kenwood High School",
    "primary_color": "Royal",
    "secondary_color": "White",
    "state": "MD",
    "timezone": "America/New_York",
    "updated_at": "2012-07-08T00:04:32Z",
    "zip": "21221"
  },
  {
    "address": "124 S Tollgate Rd",
    "city": "Owings Mills",
    "county": "Baltimore County",
    "created_at": "2012-01-04T20:15:04Z",
    "id": 10809,
    "latitude": "39.422336",
    "longitude": "-76.793678",
    "mascot": "Eagles",
    "name": "Owings Mills High School",
    "primary_color": "Gold",
    "secondary_color": "Brown",
    "state": "MD",
    "timezone": "America/New_York",
    "updated_at": "2012-07-08T00:04:32Z",
    "zip": "21117"
  },
  {
    "address": "8100 Wise Ave",
    "city": "Baltimore",
    "county": "Baltimore County",
    "created_at": "2012-01-04T20:15:04Z",
    "id": 10810,
    "latitude": "39.264718",
    "longitude": "-76.489602",
    "mascot": "Patriots",
    "name": "Patapsco High School & Center For Arts",
    "primary_color": "Red",
    "secondary_color": "White",
    "state": "MD",
    "timezone": "America/New_York",
    "updated_at": "2012-07-08T00:04:33Z",
    "zip": "21222"
  },
  {
    "address": "100 Kane St",
    "city": "Baltimore",
    "county": "Baltimore County",
    "created_at": "2012-01-04T20:15:04Z",
    "id": 10811,
    "latitude": "39.294842",
    "longitude": "-76.533529",
    "mascot": "Clippers",
    "name": "Patterson High School",
    "primary_color": "Royal",
    "secondary_color": "White",
    "state": "MD",
    "timezone": "America/New_York",
    "updated_at": "2012-07-08T00:04:33Z",
    "zip": "21224"
  },
  {
    "address": "2301 Gwynns Falls Pky",
    "city": "Baltimore",
    "county": "Baltimore County",
    "created_at": "2012-01-04T20:15:04Z",
    "id": 10812,
    "latitude": "39.315539",
    "longitude": "-76.654771",
    "mascot": "Ducks",
    "name": "Frederick Douglass High School",
    "primary_color": "Navy",
    "secondary_color": "Orange",
    "state": "MD",
    "timezone": "America/New_York",
    "updated_at": "2012-07-08T00:04:33Z",
    "zip": "21217"
  },
  {
    "address": "6900 Park Heights Ave",
    "city": "Baltimore",
    "county": "Baltimore County",
    "created_at": "2012-01-04T20:15:04Z",
    "id": 10813,
    "latitude": "39.364852",
    "longitude": "-76.702875",
    "mascot": "Wildcats",
    "name": "Northwestern Senior High School",
    "primary_color": "Navy",
    "secondary_color": "White",
    "state": "MD",
    "timezone": "America/New_York",
    "updated_at": "2012-07-08T00:04:33Z",
    "zip": "21215"
  },
  {
    "address": "2755 Augustine Herman Hwy",
    "city": "Chesapeake City",
    "county": "Cecil County",
    "created_at": "2012-01-04T20:15:04Z",
    "id": 10814,
    "latitude": "39.511987",
    "longitude": "-75.828332",
    "mascot": "Eagles",
    "name": "Bohemia Manor High School",
    "primary_color": "Red",
    "secondary_color": "Black",
    "state": "MD",
    "timezone": "America/New_York",
    "updated_at": "2012-07-08T00:04:34Z",
    "zip": "21915"
  },
  {
    "address": "3785 Leonardtown Rd",
    "city": "Waldorf",
    "county": "Charles County",
    "created_at": "2012-01-04T20:15:04Z",
    "id": 10815,
    "latitude": "38.616517",
    "longitude": "-76.886976",
    "mascot": "Cougars",
    "name": "Thomas Stone High School",
    "primary_color": "Gold",
    "secondary_color": "Royal",
    "state": "MD",
    "timezone": "America/New_York",
    "updated_at": "2012-07-08T00:04:34Z",
    "zip": "20601"
  },
  {
    "address": "5875 Cloverdale Rd",
    "city": "Hurlock",
    "county": "Dorchester County",
    "created_at": "2012-01-04T20:15:04Z",
    "id": 10816,
    "latitude": "38.580060",
    "longitude": "-75.879347",
    "mascot": "Eagles",
    "name": "North Dorchester High School",
    "primary_color": "Red",
    "secondary_color": "White",
    "state": "MD",
    "timezone": "America/New_York",
    "updated_at": "2012-07-08T00:04:34Z",
    "zip": "21643"
  },
  {
    "address": "86 Pride Pky",
    "city": "Accident",
    "county": "Garrett County",
    "created_at": "2012-01-04T20:15:05Z",
    "id": 10817,
    "latitude": "39.663432",
    "longitude": "-79.297599",
    "mascot": "Huskies",
    "name": "Northern Garrett High School",
    "primary_color": "Gold",
    "secondary_color": "Royal",
    "state": "MD",
    "timezone": "America/New_York",
    "updated_at": "2012-07-08T00:04:34Z",
    "zip": "21520"
  },
  {
    "address": "345 Oakland Dr",
    "city": "Oakland",
    "county": "Garrett County",
    "created_at": "2012-01-04T20:15:05Z",
    "id": 10818,
    "latitude": "39.403109",
    "longitude": "-79.390872",
    "mascot": "Rams",
    "name": "Southern Garrett High School",
    "primary_color": "Red",
    "secondary_color": "White",
    "state": "MD",
    "timezone": "America/New_York",
    "updated_at": "2012-07-08T00:04:35Z",
    "zip": "21550"
  },
  {
    "address": "6520 Freetown Rd",
    "city": "Columbia",
    "county": "Howard County",
    "created_at": "2012-01-04T20:15:05Z",
    "id": 10819,
    "latitude": "39.192343",
    "longitude": "-76.880855",
    "mascot": "Raiders",
    "name": "Atholton High School",
    "primary_color": "Kelly Green",
    "secondary_color": "White",
    "state": "MD",
    "timezone": "America/New_York",
    "updated_at": "2012-07-08T00:04:35Z",
    "zip": "21044"
  },
  {
    "address": "9410 Kilimanjaro Rd",
    "city": "Columbia",
    "county": "Howard County",
    "created_at": "2012-01-04T20:15:05Z",
    "id": 10820,
    "latitude": "39.208090",
    "longitude": "-76.838165",
    "mascot": "Scorpions",
    "name": "Oakland Mills High School",
    "primary_color": "Orange",
    "secondary_color": "Black",
    "state": "MD",
    "timezone": "America/New_York",
    "updated_at": "2012-07-08T00:04:35Z",
    "zip": "21045"
  },
  {
    "address": "8800 Guilford Rd",
    "city": "Columbia",
    "county": "Howard County",
    "created_at": "2012-01-04T20:15:05Z",
    "id": 10821,
    "latitude": "39.168442",
    "longitude": "-76.859207",
    "mascot": "Golden Bears",
    "name": "Hammond High School",
    "primary_color": "Gold",
    "secondary_color": "Brown",
    "state": "MD",
    "timezone": "America/New_York",
    "updated_at": "2012-07-08T00:04:35Z",
    "zip": "21046"
  },
  {
    "address": "51 E University Blvd",
    "city": "Silver Spring",
    "county": "Montgomery County",
    "created_at": "2012-01-04T20:15:05Z",
    "id": 10822,
    "latitude": "39.019105",
    "longitude": "-77.010520",
    "mascot": "Blazers",
    "name": "Montgomery Blair High School",
    "primary_color": "Red",
    "secondary_color": "White",
    "state": "MD",
    "timezone": "America/New_York",
    "updated_at": "2012-07-08T00:04:36Z",
    "zip": "20901"
  },
  {
    "address": "4301 E West Hwy",
    "city": "Bethesda",
    "county": "Montgomery County",
    "created_at": "2012-01-04T20:15:05Z",
    "id": 10823,
    "latitude": "38.985722",
    "longitude": "-77.087634",
    "mascot": "Barons",
    "name": "Bethesda-Chevy Chase High School",
    "primary_color": "Gold",
    "secondary_color": "Royal",
    "state": "MD",
    "timezone": "America/New_York",
    "updated_at": "2012-07-08T00:04:36Z",
    "zip": "20814"
  },
  {
    "address": "7100 Whittier Blvd",
    "city": "Bethesda",
    "county": "Montgomery County",
    "created_at": "2012-01-04T20:15:05Z",
    "id": 10824,
    "latitude": "38.981478",
    "longitude": "-77.125732",
    "mascot": "Vikings",
    "name": "Walt Whitman High School",
    "primary_color": "Black",
    "secondary_color": "White",
    "state": "MD",
    "timezone": "America/New_York",
    "updated_at": "2012-07-08T00:04:36Z",
    "zip": "20817"
  },
  {
    "address": "314 S Frederick Ave",
    "city": "Gaithersburg",
    "county": "Montgomery County",
    "created_at": "2012-01-04T20:15:05Z",
    "id": 10825,
    "latitude": "39.137637",
    "longitude": "-77.193803",
    "mascot": "Trojans",
    "name": "Gaithersburg High School",
    "primary_color": "Gold",
    "secondary_color": "Royal",
    "state": "MD",
    "timezone": "America/New_York",
    "updated_at": "2012-07-08T00:04:36Z",
    "zip": "20877"
  },
  {
    "address": "17501 Willard Rd",
    "city": "Poolesville",
    "county": "Montgomery County",
    "created_at": "2012-01-04T20:15:05Z",
    "id": 10826,
    "latitude": "39.141763",
    "longitude": "-77.421195",
    "mascot": "Falcans",
    "name": "Poolesville High School",
    "primary_color": "Gold",
    "secondary_color": "Black",
    "state": "MD",
    "timezone": "America/New_York",
    "updated_at": "2012-07-08T00:04:36Z",
    "zip": "20837"
  },
  {
    "address": "12700 Middlebrook Rd",
    "city": "Germantown",
    "county": "Montgomery County",
    "created_at": "2012-01-04T20:15:05Z",
    "id": 10827,
    "latitude": "39.175057",
    "longitude": "-77.261848",
    "mascot": "Screaming Eagles",
    "name": "Seneca Valley High School",
    "primary_color": "Yellow",
    "secondary_color": "Kelly Green",
    "state": "MD",
    "timezone": "America/New_York",
    "updated_at": "2012-07-08T00:04:37Z",
    "zip": "20874"
  },
  {
    "address": "3601 Powder Mill Rd",
    "city": "Beltsville",
    "county": "Prince George's County",
    "created_at": "2012-01-04T20:15:05Z",
    "id": 10828,
    "latitude": "39.043700",
    "longitude": "-76.943305",
    "mascot": "Eagles",
    "name": "High Point High School",
    "primary_color": "Royal",
    "secondary_color": "Gold",
    "state": "MD",
    "timezone": "America/New_York",
    "updated_at": "2012-07-08T00:04:37Z",
    "zip": "20705"
  },
  {
    "address": "13800 Brandywine Rd",
    "city": "Brandywine",
    "county": "Prince George's County",
    "created_at": "2012-01-04T20:15:05Z",
    "id": 10829,
    "latitude": "38.701183",
    "longitude": "-76.872804",
    "mascot": "Yellow Jackets",
    "name": "Gwynn Park High School",
    "primary_color": "Gold",
    "secondary_color": "Black",
    "state": "MD",
    "timezone": "America/New_York",
    "updated_at": "2012-07-08T00:04:37Z",
    "zip": "20613"
  },
  {
    "address": "200 Cabin Branch Rd",
    "city": "Capital Heights",
    "county": "Prince George's County",
    "created_at": "2012-01-04T20:15:05Z",
    "id": 10830,
    "latitude": "38.885388",
    "longitude": "-76.891755",
    "mascot": "Falcons",
    "name": "Central High School",
    "primary_color": "Navy",
    "secondary_color": "White",
    "state": "MD",
    "timezone": "America/New_York",
    "updated_at": "2012-07-08T00:04:38Z",
    "zip": "20743"
  },
  {
    "address": "5200 Silver Hill Rd",
    "city": "Forestville",
    "county": "Prince George's County",
    "created_at": "2012-01-04T20:15:05Z",
    "id": 10831,
    "latitude": "38.852190",
    "longitude": "-76.917274",
    "mascot": "Rams",
    "name": "Suitland High School",
    "primary_color": "Red",
    "secondary_color": "White",
    "state": "MD",
    "timezone": "America/New_York",
    "updated_at": "2012-07-08T00:04:38Z",
    "zip": "20747"
  },
  {
    "address": "10000 Allentown Rd",
    "city": "Fort Washington",
    "county": "Prince George's County",
    "created_at": "2012-01-04T20:15:05Z",
    "id": 10832,
    "latitude": "38.751880",
    "longitude": "-76.970535",
    "mascot": "Patriots",
    "name": "Friendly High School",
    "primary_color": "Columbia Blue",
    "secondary_color": "White",
    "state": "MD",
    "timezone": "America/New_York",
    "updated_at": "2012-07-08T00:04:38Z",
    "zip": "20744"
  },
  {
    "address": "5211 Boydell Ave",
    "city": "Oxon Hill",
    "county": "Prince George's County",
    "created_at": "2012-01-04T20:15:05Z",
    "id": 10833,
    "latitude": "38.822397",
    "longitude": "-76.977463",
    "mascot": "Wolverines",
    "name": "Potomac High School",
    "primary_color": "Gold",
    "secondary_color": "Navy",
    "state": "MD",
    "timezone": "America/New_York",
    "updated_at": "2012-07-08T00:04:38Z",
    "zip": "20745"
  },
  {
    "address": "125 Ruthsburg Rd",
    "city": "Centreville",
    "county": "Queen Anne's County",
    "created_at": "2012-01-04T20:15:05Z",
    "id": 10834,
    "latitude": "39.036430",
    "longitude": "-76.054678",
    "mascot": "Lions",
    "name": "Queen Annes County High School",
    "primary_color": "Kelly Green",
    "secondary_color": "Gold",
    "state": "MD",
    "timezone": "America/New_York",
    "updated_at": "2012-07-08T00:04:39Z",
    "zip": "21617"
  },
  {
    "address": "21130 Great Mills Rd",
    "city": "Great Mills",
    "county": "St. Mary's County",
    "created_at": "2012-01-04T20:15:05Z",
    "id": 10835,
    "latitude": "38.240190",
    "longitude": "-76.494079",
    "mascot": "Hornets",
    "name": "Great Mills High School",
    "primary_color": "Kelly Green",
    "secondary_color": "Gold",
    "state": "MD",
    "timezone": "America/New_York",
    "updated_at": "2012-07-08T00:04:39Z",
    "zip": "20634"
  },
  {
    "address": "13535 Broadfording Church Rd",
    "city": "Hagerstown",
    "county": "Washington County",
    "created_at": "2012-01-04T20:15:05Z",
    "id": 10836,
    "latitude": "39.686052",
    "longitude": "-77.795715",
    "mascot": "Lions",
    "name": "Broadfording Christian Academy",
    "primary_color": "Gold",
    "secondary_color": "Royal",
    "state": "MD",
    "timezone": "America/New_York",
    "updated_at": "2012-07-08T00:04:39Z",
    "zip": "21740"
  },
  {
    "address": "7317 Mennonite Church Rd",
    "city": "Westover",
    "county": "Somerset County",
    "created_at": "2012-01-04T20:15:05Z",
    "id": 10837,
    "latitude": "38.080974",
    "longitude": "-75.664424",
    "mascot": "Eagles",
    "name": "Holly Grove Christian School",
    "primary_color": "Navy",
    "secondary_color": "White",
    "state": "MD",
    "timezone": "America/New_York",
    "updated_at": "2012-07-08T00:04:39Z",
    "zip": "21871"
  },
  {
    "address": "134 Maryland Ave",
    "city": "Crisfield",
    "county": "Somerset County",
    "created_at": "2012-01-04T20:15:05Z",
    "id": 10838,
    "latitude": "37.985632",
    "longitude": "-75.852126",
    "mascot": "Lions",
    "name": "Crisfield Christian Academy",
    "primary_color": "Navy",
    "secondary_color": "White",
    "state": "MD",
    "timezone": "America/New_York",
    "updated_at": "2012-07-08T00:04:40Z",
    "zip": "21817"
  },
  {
    "address": "14517 McMullen Hwy",
    "city": "Cresaptown",
    "county": "Allegany County",
    "created_at": "2012-01-04T20:15:05Z",
    "id": 10839,
    "latitude": "39.595941",
    "longitude": "-78.828216",
    "mascot": "Eagles",
    "name": "Calvary Christian Academy",
    "primary_color": "Navy Blue",
    "secondary_color": "Columbia Blue",
    "state": "MD",
    "timezone": "America/New_York",
    "updated_at": "2012-07-08T00:04:40Z",
    "zip": "21502"
  },
  {
    "address": "3141 Old Elk Neck Rd",
    "city": "Elkton",
    "county": "Cecil County",
    "created_at": "2012-01-04T20:15:05Z",
    "id": 10840,
    "latitude": "39.593201",
    "longitude": "-75.864197",
    "mascot": "Knights",
    "name": "Maranatha Baptist Church Academy",
    "primary_color": "Kelly Green",
    "secondary_color": "White",
    "state": "MD",
    "timezone": "America/New_York",
    "updated_at": "2012-07-08T00:04:40Z",
    "zip": "21921"
  },
  {
    "address": "711 Pershing Dr",
    "city": "Silver Spring",
    "county": "Montgomery County",
    "created_at": "2012-01-04T20:15:05Z",
    "id": 10841,
    "latitude": "38.999292",
    "longitude": "-77.022158",
    "mascot": "Knights",
    "name": "The Chelsea School",
    "primary_color": "Royal",
    "secondary_color": "White",
    "state": "MD",
    "timezone": "America/New_York",
    "updated_at": "2012-07-08T00:04:40Z",
    "zip": "20910"
  },
  {
    "address": "6520 Martin Rd",
    "city": "Columbia",
    "county": "Howard County",
    "created_at": "2012-01-04T20:15:05Z",
    "id": 10842,
    "latitude": "39.192451",
    "longitude": "-76.870544",
    "mascot": null,
    "name": "Atholton Adventist Academy",
    "primary_color": "Gold",
    "secondary_color": "Navy",
    "state": "MD",
    "timezone": "America/New_York",
    "updated_at": "2012-07-08T00:04:41Z",
    "zip": "21044"
  },
  {
    "address": "860 Swift Rd",
    "city": "Pasadena",
    "county": "Anne Arundel County",
    "created_at": "2012-01-04T20:15:05Z",
    "id": 10843,
    "latitude": "39.102398",
    "longitude": "-76.504229",
    "mascot": "Falcons",
    "name": "Lake Shore Christian Academy",
    "primary_color": "Gold",
    "secondary_color": "Black",
    "state": "MD",
    "timezone": "America/New_York",
    "updated_at": "2012-07-08T00:04:41Z",
    "zip": "21122"
  },
  {
    "address": "13421 Georgia Avenue",
    "city": "Silver Spring",
    "county": "Montgomery County",
    "created_at": "2012-01-04T20:15:05Z",
    "id": 10844,
    "latitude": "39.076457",
    "longitude": "-77.069301",
    "mascot": "Wildcats",
    "name": "Washington Christian Academy",
    "primary_color": "Royal",
    "secondary_color": "White",
    "state": "MD",
    "timezone": "America/New_York",
    "updated_at": "2012-07-08T00:04:41Z",
    "zip": "20906"
  },
  {
    "address": "8080 New Cut Rd",
    "city": "Severn",
    "county": "Anne Arundel County",
    "created_at": "2012-01-04T20:15:05Z",
    "id": 10845,
    "latitude": "39.122432",
    "longitude": "-76.644506",
    "mascot": "Cavaliers",
    "name": "Archbishop Spalding High School",
    "primary_color": "Red",
    "secondary_color": "White",
    "state": "MD",
    "timezone": "America/New_York",
    "updated_at": "2012-07-08T00:04:41Z",
    "zip": "21144"
  },
  {
    "address": "11300 Falls Rd",
    "city": "Brooklandville",
    "county": "Baltimore County",
    "created_at": "2012-01-04T20:15:05Z",
    "id": 10846,
    "latitude": "39.397580",
    "longitude": "-76.684509",
    "mascot": "Lions",
    "name": "Maryvale Preparatory School",
    "primary_color": "Red",
    "secondary_color": "Gray",
    "state": "MD",
    "timezone": "America/New_York",
    "updated_at": "2012-07-08T00:04:42Z",
    "zip": "21022"
  },
  {
    "address": "1706 Old Eastern Ave",
    "city": "Baltimore",
    "county": "Baltimore County",
    "created_at": "2012-01-04T20:15:05Z",
    "id": 10847,
    "latitude": "39.319562",
    "longitude": "-76.448057",
    "mascot": "Cougars",
    "name": "Our Lady Of Mount Carmel High School",
    "primary_color": "Royal",
    "secondary_color": "Gold",
    "state": "MD",
    "timezone": "America/New_York",
    "updated_at": "2012-07-08T00:04:42Z",
    "zip": "21221"
  },
  {
    "address": "8102 LaSalle Rd",
    "city": "Baltimore",
    "county": "Baltimore County",
    "created_at": "2012-01-04T20:15:05Z",
    "id": 10848,
    "latitude": "39.389307",
    "longitude": "-76.581113",
    "mascot": "Cardinals",
    "name": "Calvert Hall College High School",
    "primary_color": "Red",
    "secondary_color": "Gold",
    "state": "MD",
    "timezone": "America/New_York",
    "updated_at": "2012-07-08T00:04:42Z",
    "zip": "21286"
  },
  {
    "address": "500 Chestnut Ave",
    "city": "Towson",
    "county": "Baltimore County",
    "created_at": "2012-01-04T20:15:05Z",
    "id": 10849,
    "latitude": "39.402046",
    "longitude": "-76.625762",
    "mascot": "Loyola Dons",
    "name": "Loyola Blakefield High School",
    "primary_color": "Gold",
    "secondary_color": "Royal",
    "state": "MD",
    "timezone": "America/New_York",
    "updated_at": "2012-07-08T00:04:43Z",
    "zip": "21204"
  },
  {
    "address": "114 Ware Ave",
    "city": "Towson",
    "county": "Baltimore County",
    "created_at": "2012-01-04T20:15:05Z",
    "id": 10850,
    "latitude": "39.403067",
    "longitude": "-76.604701",
    "mascot": "Owls",
    "name": "Towson Catholic High School",
    "primary_color": "Royal",
    "secondary_color": "Gold",
    "state": "MD",
    "timezone": "America/New_York",
    "updated_at": "2012-07-08T00:04:43Z",
    "zip": "21204"
  },
  {
    "address": "815 Hampton Ln",
    "city": "Towson",
    "county": "Baltimore County",
    "created_at": "2012-01-04T20:15:05Z",
    "id": 10851,
    "latitude": "39.416762",
    "longitude": "-76.578254",
    "mascot": "Blazers",
    "name": "Notre Dame Preparatory School",
    "primary_color": "Navy",
    "secondary_color": "White",
    "state": "MD",
    "timezone": "America/New_York",
    "updated_at": "2012-07-08T00:04:43Z",
    "zip": "21286"
  },
  {
    "address": "700 Academy Rd",
    "city": "Catonsville",
    "county": "Baltimore County",
    "created_at": "2012-01-04T20:15:05Z",
    "id": 10852,
    "latitude": "39.285822",
    "longitude": "-76.719812",
    "mascot": "Sailors",
    "name": "Mount De Sales Academy - All Girls",
    "primary_color": "Royal",
    "secondary_color": "White",
    "state": "MD",
    "timezone": "America/New_York",
    "updated_at": "2012-07-08T00:04:43Z",
    "zip": "21228"
  },
  {
    "address": "3701 Sinclair Ln",
    "city": "Baltimore",
    "county": "Baltimore County",
    "created_at": "2012-01-04T20:15:05Z",
    "id": 10853,
    "latitude": "39.313546",
    "longitude": "-76.566239",
    "mascot": "Friars",
    "name": "Archbishop Curley High School",
    "primary_color": "Red",
    "secondary_color": "White",
    "state": "MD",
    "timezone": "America/New_York",
    "updated_at": "2012-07-08T00:04:43Z",
    "zip": "21213"
  },
  {
    "address": "1201 S Caton Ave",
    "city": "Baltimore",
    "county": "Baltimore County",
    "created_at": "2012-01-04T20:15:05Z",
    "id": 10854,
    "latitude": "39.269262",
    "longitude": "-76.668704",
    "mascot": "Gators",
    "name": "The Seton Keough High School",
    "primary_color": "Gray",
    "secondary_color": "Kelly Green",
    "state": "MD",
    "timezone": "America/New_York",
    "updated_at": "2012-07-08T00:04:44Z",
    "zip": "21227"
  },
  {
    "address": "3225 Wilkens Ave",
    "city": "Baltimore",
    "county": "Baltimore County",
    "created_at": "2012-01-04T20:15:05Z",
    "id": 10855,
    "latitude": "39.274660",
    "longitude": "-76.669015",
    "mascot": "Crusaders",
    "name": "The Cardinal Gibbons School",
    "primary_color": "Red",
    "secondary_color": "White",
    "state": "MD",
    "timezone": "America/New_York",
    "updated_at": "2012-07-08T00:04:44Z",
    "zip": "21229"
  },
  {
    "address": "2800 Edison Hwy",
    "city": "Baltimore",
    "county": "Baltimore County",
    "created_at": "2012-01-04T20:15:05Z",
    "id": 10856,
    "latitude": "39.316362",
    "longitude": "-76.573002",
    "mascot": "Cubs",
    "name": "Catholic High School",
    "primary_color": "Kelly Green",
    "secondary_color": "Gold",
    "state": "MD",
    "timezone": "America/New_York",
    "updated_at": "2012-07-08T00:04:44Z",
    "zip": "21213"
  },
  {
    "address": "901 Aisquith St",
    "city": "Baltimore",
    "county": "Baltimore County",
    "created_at": "2012-01-04T20:15:05Z",
    "id": 10857,
    "latitude": "39.300255",
    "longitude": "-76.601963",
    "mascot": "Winnie The Penguin",
    "name": "Institute Of Notre Dame",
    "primary_color": "Navy",
    "secondary_color": "White",
    "state": "MD",
    "timezone": "America/New_York",
    "updated_at": "2012-07-08T00:04:44Z",
    "zip": "21202"
  },
  {
    "address": "1300 E Northern Pky",
    "city": "Baltimore",
    "county": "Baltimore County",
    "created_at": "2012-01-04T20:15:05Z",
    "id": 10858,
    "latitude": "39.366340",
    "longitude": "-76.589005",
    "mascot": "Mercy Magic",
    "name": "Mercy High School",
    "primary_color": "Red",
    "secondary_color": "White",
    "state": "MD",
    "timezone": "America/New_York",
    "updated_at": "2012-07-08T00:04:45Z",
    "zip": "21239"
  },
  {
    "address": "4403 Frederick Ave",
    "city": "Baltimore",
    "county": "Baltimore County",
    "created_at": "2012-01-04T20:15:05Z",
    "id": 10859,
    "latitude": "39.281564",
    "longitude": "-76.688787",
    "mascot": "Gaels",
    "name": "Mount Saint Joseph High School",
    "primary_color": "Beige",
    "secondary_color": "Purple",
    "state": "MD",
    "timezone": "America/New_York",
    "updated_at": "2012-07-08T00:04:45Z",
    "zip": "21229"
  },
  {
    "address": "501 E Chase St",
    "city": "Baltimore",
    "county": "Baltimore County",
    "created_at": "2012-01-04T20:15:05Z",
    "id": 10860,
    "latitude": "39.302644",
    "longitude": "-76.609105",
    "mascot": "Panthers",
    "name": "Saint Frances Academy",
    "primary_color": "Black",
    "secondary_color": "Gold",
    "state": "MD",
    "timezone": "America/New_York",
    "updated_at": "2012-07-08T00:04:45Z",
    "zip": "21202"
  },
  {
    "address": "14299 Benedictine Ln",
    "city": "Ridgely",
    "county": "Caroline County",
    "created_at": "2012-01-04T20:15:05Z",
    "id": 10861,
    "latitude": "38.998957",
    "longitude": "-75.882080",
    "mascot": "Knights",
    "name": "Benedictine Programs And Services",
    "primary_color": "Royal",
    "secondary_color": "White",
    "state": "MD",
    "timezone": "America/New_York",
    "updated_at": "2012-07-08T00:04:45Z",
    "zip": "21660"
  },
  {
    "address": "889 Butterfly Ln",
    "city": "Frederick",
    "county": "Frederick County",
    "created_at": "2012-01-04T20:15:05Z",
    "id": 10862,
    "latitude": "39.404420",
    "longitude": "-77.443165",
    "mascot": "Vikings",
    "name": "Saint John's At Prospect Hall",
    "primary_color": "Gold",
    "secondary_color": "Hunter Green",
    "state": "MD",
    "timezone": "America/New_York",
    "updated_at": "2012-07-08T00:04:46Z",
    "zip": "21703"
  },
  {
    "address": "703 Churchville Rd",
    "city": "Bel Air",
    "county": "Harford County",
    "created_at": "2012-01-04T20:15:05Z",
    "id": 10863,
    "latitude": "39.539777",
    "longitude": "-76.334122",
    "mascot": "Patriots",
    "name": "John Carroll High School",
    "primary_color": "Gold",
    "secondary_color": "Black",
    "state": "MD",
    "timezone": "America/New_York",
    "updated_at": "2012-07-08T00:04:46Z",
    "zip": "21014"
  },
  {
    "address": "4920 Strathmore Ave",
    "city": "Kensington",
    "county": "Montgomery County",
    "created_at": "2012-01-04T20:15:05Z",
    "id": 10864,
    "latitude": "39.034667",
    "longitude": "-77.098438",
    "mascot": "Tartans",
    "name": "Academy Of The Holy Cross School",
    "primary_color": "Purple",
    "secondary_color": "White",
    "state": "MD",
    "timezone": "America/New_York",
    "updated_at": "2012-07-08T00:04:46Z",
    "zip": "20895"
  },
  {
    "address": "9101 Rockville Pike",
    "city": "Bethesda",
    "county": "Montgomery County",
    "created_at": "2012-01-04T20:15:05Z",
    "id": 10865,
    "latitude": "39.005627",
    "longitude": "-77.097427",
    "mascot": "Gators",
    "name": "Stone Ridge Country Day School",
    "primary_color": "Gold",
    "secondary_color": "Royal",
    "state": "MD",
    "timezone": "America/New_York",
    "updated_at": "2012-07-08T00:04:46Z",
    "zip": "20814"
  },
  {
    "address": "11601 Georgia Ave",
    "city": "Wheaton",
    "county": "Montgomery County",
    "created_at": "2012-01-04T20:15:05Z",
    "id": 10866,
    "latitude": "39.045744",
    "longitude": "-77.052117",
    "mascot": "Falcons",
    "name": "Our Lady Of Good Counsel High School",
    "primary_color": "Gold",
    "secondary_color": "Royal",
    "state": "MD",
    "timezone": "America/New_York",
    "updated_at": "2012-07-08T00:04:47Z",
    "zip": "20902"
  },
  {
    "address": "10400 Seven Locks Rd",
    "city": "Potomac",
    "county": "Montgomery County",
    "created_at": "2012-01-04T20:15:05Z",
    "id": 10867,
    "latitude": "39.027170",
    "longitude": "-77.161866",
    "mascot": "Cavaliers",
    "name": "The Heights School",
    "primary_color": "Red",
    "secondary_color": "White",
    "state": "MD",
    "timezone": "America/New_York",
    "updated_at": "2012-07-08T00:04:47Z",
    "zip": "20854"
  },
  {
    "address": "5715 Emerson St",
    "city": "Bladensburg",
    "county": "Prince George's County",
    "created_at": "2012-01-04T20:15:05Z",
    "id": 10868,
    "latitude": "38.947353",
    "longitude": "-76.913910",
    "mascot": "Roadrunners",
    "name": "Elizabeth Seton High School",
    "primary_color": "Gold",
    "secondary_color": "Red",
    "state": "MD",
    "timezone": "America/New_York",
    "updated_at": "2012-07-08T00:04:47Z",
    "zip": "20710"
  },
  {
    "address": "4313 Madison St",
    "city": "Hyattsville",
    "county": "Prince George's County",
    "created_at": "2012-01-04T20:15:05Z",
    "id": 10869,
    "latitude": "38.958196",
    "longitude": "-76.941715",
    "mascot": "Stags",
    "name": "De Matha Catholic High School",
    "primary_color": "Red",
    "secondary_color": "White",
    "state": "MD",
    "timezone": "America/New_York",
    "updated_at": "2012-07-08T00:04:47Z",
    "zip": "20781"
  },
  {
    "address": "113 Saint Mary's Pl",
    "city": "Laurel",
    "county": "Prince George's County",
    "created_at": "2012-01-04T20:15:05Z",
    "id": 10870,
    "latitude": "39.108903",
    "longitude": "-76.856092",
    "mascot": "Panthers",
    "name": "Pallotti High School",
    "primary_color": "Royal",
    "secondary_color": "White",
    "state": "MD",
    "timezone": "America/New_York",
    "updated_at": "2012-07-08T00:04:48Z",
    "zip": "20707"
  },
  {
    "address": "22600 Camp Calvert Rd",
    "city": "Leonardtown",
    "county": "St. Mary's County",
    "created_at": "2012-01-04T20:15:05Z",
    "id": 10871,
    "latitude": "38.287794",
    "longitude": "-76.627064",
    "mascot": "Knights",
    "name": "Saint Mary's Ryken High School",
    "primary_color": "Kelly Green",
    "secondary_color": "Royal",
    "state": "MD",
    "timezone": "America/New_York",
    "updated_at": "2012-07-08T00:04:48Z",
    "zip": "20650"
  },
  {
    "address": "41740 Baldridge St",
    "city": "Leonardtown",
    "county": "St. Mary's County",
    "created_at": "2012-01-04T20:15:05Z",
    "id": 10872,
    "latitude": "38.301590",
    "longitude": "-76.629269",
    "mascot": "Eagles",
    "name": "Leonard Hall Junior Naval Academy",
    "primary_color": "Black",
    "secondary_color": "White",
    "state": "MD",
    "timezone": "America/New_York",
    "updated_at": "2012-07-08T00:04:48Z",
    "zip": "20650"
  },
  {
    "address": "1535 Oak Hill Ave",
    "city": "Hagerstown",
    "county": "Washington County",
    "created_at": "2012-01-04T20:15:05Z",
    "id": 10873,
    "latitude": "39.663683",
    "longitude": "-77.704085",
    "mascot": "Gaels",
    "name": "Saint Maria Goretti High School",
    "primary_color": "Royal",
    "secondary_color": "Gold",
    "state": "MD",
    "timezone": "America/New_York",
    "updated_at": "2012-07-08T00:04:49Z",
    "zip": "21742"
  },
  {
    "address": "2400 Cub Hill Rd",
    "city": "Baltimore",
    "county": "Baltimore County",
    "created_at": "2012-01-04T20:15:05Z",
    "id": 10874,
    "latitude": "39.425118",
    "longitude": "-76.528603",
    "mascot": "Bears",
    "name": "Charles H Hickey Junior School",
    "primary_color": "Royal",
    "secondary_color": "White",
    "state": "MD",
    "timezone": "America/New_York",
    "updated_at": "2012-07-08T00:04:49Z",
    "zip": "21234"
  },
  {
    "address": "534 Hillsmere Dr",
    "city": "Annapolis",
    "county": "Anne Arundel County",
    "created_at": "2012-01-04T20:15:05Z",
    "id": 10875,
    "latitude": "38.931437",
    "longitude": "-76.493916",
    "mascot": "Obezags",
    "name": "Key School",
    "primary_color": "Royal",
    "secondary_color": "White",
    "state": "MD",
    "timezone": "America/New_York",
    "updated_at": "2012-07-08T00:04:49Z",
    "zip": "21403"
  },
  {
    "address": "300 Calverton School Rd",
    "city": "Huntingtown",
    "county": "Calvert County",
    "created_at": "2012-01-04T20:15:05Z",
    "id": 10876,
    "latitude": "38.588981",
    "longitude": "-76.610205",
    "mascot": "Cougars",
    "name": "The Calverton School",
    "primary_color": "Gray",
    "secondary_color": "Royal",
    "state": "MD",
    "timezone": "America/New_York",
    "updated_at": "2012-07-08T00:04:50Z",
    "zip": "20639"
  },
  {
    "address": "6642 Carpenter Rd",
    "city": "Frederick",
    "county": "Frederick County",
    "created_at": "2012-01-04T20:15:05Z",
    "id": 10877,
    "latitude": "39.413781",
    "longitude": "-77.475626",
    "mascot": "Defenders",
    "name": "Frederick Christian Academy",
    "primary_color": "Red",
    "secondary_color": "White",
    "state": "MD",
    "timezone": "America/New_York",
    "updated_at": "2012-07-08T00:04:50Z",
    "zip": "21703"
  },
  {
    "address": "12793 Folly Quarter Rd",
    "city": "Ellicott City",
    "county": "Howard County",
    "created_at": "2012-01-04T20:15:05Z",
    "id": 10878,
    "latitude": "39.256793",
    "longitude": "-76.955255",
    "mascot": "Dragons",
    "name": "Glenelg Country School",
    "primary_color": "Kelly Green",
    "secondary_color": "White",
    "state": "MD",
    "timezone": "America/New_York",
    "updated_at": "2012-07-08T00:04:50Z",
    "zip": "21042"
  },
  {
    "address": "911 Gunston Rd",
    "city": "Centreville",
    "county": "Queen Anne's County",
    "created_at": "2012-01-04T20:15:05Z",
    "id": 10879,
    "latitude": "39.071328",
    "longitude": "-76.094756",
    "mascot": "Blue Herrons",
    "name": "Gunston Day School",
    "primary_color": "Royal",
    "secondary_color": "Kelly Green",
    "state": "MD",
    "timezone": "America/New_York",
    "updated_at": "2012-07-08T00:04:50Z",
    "zip": "21617"
  },
  {
    "address": "10100 Academy Dr",
    "city": "Hagerstown",
    "county": "Washington County",
    "created_at": "2012-01-04T20:15:05Z",
    "id": 10880,
    "latitude": "39.592560",
    "longitude": "-77.614011",
    "mascot": null,
    "name": "Highland View Academy",
    "primary_color": "Gold",
    "secondary_color": "Royal",
    "state": "MD",
    "timezone": "America/New_York",
    "updated_at": "2012-07-08T00:04:51Z",
    "zip": "21740"
  },
  {
    "address": "17641 College Rd",
    "city": "Saint James",
    "county": "Washington County",
    "created_at": "2012-01-04T20:15:05Z",
    "id": 10881,
    "latitude": "39.564798",
    "longitude": "-77.755920",
    "mascot": "Saints",
    "name": "Saint James School",
    "primary_color": "Maroon",
    "secondary_color": "White",
    "state": "MD",
    "timezone": "America/New_York",
    "updated_at": "2012-07-08T00:04:51Z",
    "zip": "21781"
  },
  {
    "address": "201 Water St",
    "city": "Severna Park",
    "county": "Anne Arundel County",
    "created_at": "2012-01-04T20:15:05Z",
    "id": 10882,
    "latitude": "39.068829",
    "longitude": "-76.546570",
    "mascot": "Admirals",
    "name": "Severn School",
    "primary_color": "Maroon",
    "secondary_color": "White",
    "state": "MD",
    "timezone": "America/New_York",
    "updated_at": "2012-07-08T00:04:51Z",
    "zip": "21146"
  },
  {
    "address": "1535 Ritchie Hwy",
    "city": "Arnold",
    "county": "Anne Arundel County",
    "created_at": "2012-01-04T20:15:05Z",
    "id": 10883,
    "latitude": "39.024561",
    "longitude": "-76.500096",
    "mascot": "Eagles",
    "name": "Antioch Christian School",
    "primary_color": "Gold",
    "secondary_color": "Navy",
    "state": "MD",
    "timezone": "America/New_York",
    "updated_at": "2012-07-08T00:04:52Z",
    "zip": "21012"
  },
  {
    "address": "407 Marley Station Rd",
    "city": "Glen Burnie",
    "county": "Anne Arundel County",
    "created_at": "2012-01-04T20:15:05Z",
    "id": 10884,
    "latitude": "39.143660",
    "longitude": "-76.599868",
    "mascot": "Knights",
    "name": "Calvary Baptist Church Academy",
    "primary_color": "Royal",
    "secondary_color": "White",
    "state": "MD",
    "timezone": "America/New_York",
    "updated_at": "2012-07-08T00:04:52Z",
    "zip": "21060"
  },
  {
    "address": "8410 Piney Orchard Pky",
    "city": "Odenton",
    "county": "Anne Arundel County",
    "created_at": "2012-01-04T20:15:05Z",
    "id": 10885,
    "latitude": "39.083440",
    "longitude": "-76.700548",
    "mascot": "Eagles",
    "name": "Odenton Christian School",
    "primary_color": "Royal Blue",
    "secondary_color": "Gold",
    "state": "MD",
    "timezone": "America/New_York",
    "updated_at": "2012-07-08T00:04:52Z",
    "zip": "21113"
  },
  {
    "address": "1277 Green Holly Dr",
    "city": "Annapolis",
    "county": "Anne Arundel County",
    "created_at": "2012-01-04T20:15:05Z",
    "id": 10886,
    "latitude": "39.037388",
    "longitude": "-76.456733",
    "mascot": "Puddin'",
    "name": "The Harbour School",
    "primary_color": "Columbia Blue",
    "secondary_color": "White",
    "state": "MD",
    "timezone": "America/New_York",
    "updated_at": "2012-07-08T00:04:53Z",
    "zip": "21401"
  },
  {
    "address": "2425 Old Court Rd",
    "city": "Baltimore",
    "county": "Baltimore County",
    "created_at": "2012-01-04T20:15:05Z",
    "id": 10887,
    "latitude": "39.396326",
    "longitude": "-76.673360",
    "mascot": "Bears",
    "name": "The Park School",
    "primary_color": "Brown",
    "secondary_color": "White",
    "state": "MD",
    "timezone": "America/New_York",
    "updated_at": "2012-07-08T00:04:53Z",
    "zip": "21208"
  },
  {
    "address": "300 Garrison Forest Rd",
    "city": "Owings Mills",
    "county": "Baltimore County",
    "created_at": "2012-01-04T20:15:05Z",
    "id": 10888,
    "latitude": "39.411419",
    "longitude": "-76.758139",
    "mascot": "Grizzlies",
    "name": "Garrison Forest School",
    "primary_color": "Royal",
    "secondary_color": "Navy",
    "state": "MD",
    "timezone": "America/New_York",
    "updated_at": "2012-07-08T00:04:53Z",
    "zip": "21117"
  },
  {
    "address": "8600 McDonough Rd",
    "city": "Owings Mills",
    "county": "Baltimore County",
    "created_at": "2012-01-04T20:15:05Z",
    "id": 10889,
    "latitude": "39.396890",
    "longitude": "-76.749729",
    "mascot": "Eagles",
    "name": "McDonough School",
    "primary_color": "Black",
    "secondary_color": "Orange",
    "state": "MD",
    "timezone": "America/New_York",
    "updated_at": "2012-07-08T00:04:54Z",
    "zip": "21117"
  },
  {
    "address": "8400 Greenspring Ave",
    "city": "Stevenson",
    "county": "Baltimore County",
    "created_at": "2012-01-04T20:15:05Z",
    "id": 10890,
    "latitude": "39.407581",
    "longitude": "-76.685541",
    "mascot": null,
    "name": "Saint Timothy's School For Girls",
    "primary_color": "Columbia Blue",
    "secondary_color": "White",
    "state": "MD",
    "timezone": "America/New_York",
    "updated_at": "2012-07-08T00:04:54Z",
    "zip": "21153"
  },
  {
    "address": "1145 Concordia Dr",
    "city": "Towson",
    "county": "Baltimore County",
    "created_at": "2012-01-04T20:15:05Z",
    "id": 10891,
    "latitude": "39.406262",
    "longitude": "-76.569775",
    "mascot": "Saints",
    "name": "Baltimore Lutheran School",
    "primary_color": "Red",
    "secondary_color": "White",
    "state": "MD",
    "timezone": "America/New_York",
    "updated_at": "2012-07-08T00:04:54Z",
    "zip": "21286"
  },
  {
    "address": "6501 N Charles St",
    "city": "Baltimore",
    "county": "Baltimore County",
    "created_at": "2012-01-04T20:15:05Z",
    "id": 10892,
    "latitude": "39.387255",
    "longitude": "-76.624076",
    "mascot": "Falcons",
    "name": "The Forbush School",
    "primary_color": "Hunter Green",
    "secondary_color": "White",
    "state": "MD",
    "timezone": "America/New_York",
    "updated_at": "2012-07-08T00:04:54Z",
    "zip": "21285"
  },
  {
    "address": "11111 Park Heights Ave",
    "city": "Owings Mills",
    "county": "Baltimore County",
    "created_at": "2012-01-04T20:15:05Z",
    "id": 10893,
    "latitude": "39.428559",
    "longitude": "-76.728265",
    "mascot": null,
    "name": "Bais Yaakov School For Girls",
    "primary_color": null,
    "secondary_color": null,
    "state": "MD",
    "timezone": "America/New_York",
    "updated_at": "2012-07-08T00:04:55Z",
    "zip": "21117"
  },
  {
    "address": "400 Mount Wilson Ln",
    "city": "Baltimore",
    "county": "Baltimore County",
    "created_at": "2012-01-04T20:15:05Z",
    "id": 10894,
    "latitude": "39.386760",
    "longitude": "-76.752337",
    "mascot": null,
    "name": "Mechina High School",
    "primary_color": null,
    "secondary_color": null,
    "state": "MD",
    "timezone": "America/New_York",
    "updated_at": "2012-07-08T00:04:55Z",
    "zip": "21208"
  },
  {
    "address": "4100 Maple Ave",
    "city": "Baltimore",
    "county": "Baltimore County",
    "created_at": "2012-01-04T20:15:05Z",
    "id": 10895,
    "latitude": "39.243018",
    "longitude": "-76.682967",
    "mascot": null,
    "name": "Good Shepherd School",
    "primary_color": "Gold",
    "secondary_color": "Hunter Green",
    "state": "MD",
    "timezone": "America/New_York",
    "updated_at": "2012-07-08T00:04:56Z",
    "zip": "21227"
  },
  {
    "address": "822 W Lake Ave",
    "city": "Baltimore",
    "county": "Baltimore County",
    "created_at": "2012-01-04T20:15:05Z",
    "id": 10896,
    "latitude": "39.370376",
    "longitude": "-76.636084",
    "mascot": "Lakers",
    "name": "Boys Latin School Of Maryland",
    "primary_color": "Maroon",
    "secondary_color": "White",
    "state": "MD",
    "timezone": "America/New_York",
    "updated_at": "2012-07-08T00:04:56Z",
    "zip": "21210"
  },
  {
    "address": "5810 Timberview Dr",
    "city": "Elkridge",
    "county": "Howard County",
    "created_at": "2012-01-04T20:15:05Z",
    "id": 10897,
    "latitude": "39.210596",
    "longitude": "-76.749187",
    "mascot": "Conquerors",
    "name": "Faith Bible Church Academy",
    "primary_color": "Gray",
    "secondary_color": "Maroon",
    "state": "MD",
    "timezone": "America/New_York",
    "updated_at": "2012-07-08T00:04:56Z",
    "zip": "21227"
  },
  {
    "address": "1111 E Coldspring Ln",
    "city": "Baltimore",
    "county": "Baltimore County",
    "created_at": "2012-01-04T20:15:05Z",
    "id": 10898,
    "latitude": "39.345106",
    "longitude": "-76.599442",
    "mascot": null,
    "name": "Coldspring Development Center",
    "primary_color": "Royal",
    "secondary_color": "White",
    "state": "MD",
    "timezone": "America/New_York",
    "updated_at": "2012-07-08T00:04:56Z",
    "zip": "21239"
  },
  {
    "address": "1201 Maple Ave",
    "city": "Baltimore",
    "county": "Baltimore County",
    "created_at": "2012-01-04T20:15:05Z",
    "id": 10899,
    "latitude": "39.253371",
    "longitude": "-76.700900",
    "mascot": null,
    "name": "United Cerebral Palsey Arbutus",
    "primary_color": null,
    "secondary_color": null,
    "state": "MD",
    "timezone": "America/New_York",
    "updated_at": "2012-07-08T00:04:57Z",
    "zip": "21227"
  },
  {
    "address": "6135 Old Washington Rd",
    "city": "Elkridge",
    "county": "Howard County",
    "created_at": "2012-01-04T20:15:05Z",
    "id": 10900,
    "latitude": "39.208556",
    "longitude": "-76.719760",
    "mascot": "Nighthawks",
    "name": "Norbel School",
    "primary_color": "Royal",
    "secondary_color": "White",
    "state": "MD",
    "timezone": "America/New_York",
    "updated_at": "2012-07-08T00:04:57Z",
    "zip": "21075"
  },
  {
    "address": "1518 N Rolling Rd",
    "city": "Baltimore",
    "county": "Baltimore County",
    "created_at": "2012-01-04T20:15:05Z",
    "id": 10901,
    "latitude": "39.303741",
    "longitude": "-76.754310",
    "mascot": "Crusaders",
    "name": "Grace Bible Baptist",
    "primary_color": "Royal",
    "secondary_color": "White",
    "state": "MD",
    "timezone": "America/New_York",
    "updated_at": "2012-07-08T00:04:58Z",
    "zip": "21228"
  },
  {
    "address": "5114 N Charles St",
    "city": "Baltimore",
    "county": "Baltimore County",
    "created_at": "2012-01-04T20:15:05Z",
    "id": 10902,
    "latitude": "39.357065",
    "longitude": "-76.624339",
    "mascot": "Quakers",
    "name": "Friends School Of Baltimore",
    "primary_color": "Gray",
    "secondary_color": "Red",
    "state": "MD",
    "timezone": "America/New_York",
    "updated_at": "2012-07-08T00:04:58Z",
    "zip": "21210"
  },
  {
    "address": "5407 Roland Ave",
    "city": "Baltimore",
    "county": "Baltimore County",
    "created_at": "2012-01-04T20:15:05Z",
    "id": 10903,
    "latitude": "39.360361",
    "longitude": "-76.635043",
    "mascot": "Greyhounds",
    "name": "Gilman School",
    "primary_color": "Royal",
    "secondary_color": "Gray",
    "state": "MD",
    "timezone": "America/New_York",
    "updated_at": "2012-07-08T00:04:58Z",
    "zip": "21210"
  },
  {
    "address": "5204 Roland Ave",
    "city": "Baltimore",
    "county": "Baltimore County",
    "created_at": "2012-01-04T20:15:05Z",
    "id": 10904,
    "latitude": "39.356732",
    "longitude": "-76.634916",
    "mascot": "Bears",
    "name": "Roland Park Country School",
    "primary_color": "Red",
    "secondary_color": "White",
    "state": "MD",
    "timezone": "America/New_York",
    "updated_at": "2012-07-08T00:04:58Z",
    "zip": "21210"
  },
  {
    "address": "3515 Taylor Ave",
    "city": "Baltimore",
    "county": "Baltimore County",
    "created_at": "2012-01-04T20:15:05Z",
    "id": 10905,
    "latitude": "39.367027",
    "longitude": "-76.535240",
    "mascot": null,
    "name": "The Chimes School",
    "primary_color": "Yellow",
    "secondary_color": "Royal",
    "state": "MD",
    "timezone": "America/New_York",
    "updated_at": "2012-07-08T00:04:59Z",
    "zip": "21236"
  },
  {
    "address": "13 Open Bible Way",
    "city": "Kingsville",
    "county": "Baltimore County",
    "created_at": "2012-01-04T20:15:05Z",
    "id": 10906,
    "latitude": "39.461892",
    "longitude": "-76.414969",
    "mascot": "Eagles",
    "name": "Open Bible Christian Academy",
    "primary_color": "Gray",
    "secondary_color": "Royal",
    "state": "MD",
    "timezone": "America/New_York",
    "updated_at": "2012-07-08T00:04:59Z",
    "zip": "21087"
  },
  {
    "address": "3006 W Coldspring Ln",
    "city": "Baltimore",
    "county": "Baltimore County",
    "created_at": "2012-01-04T20:15:05Z",
    "id": 10907,
    "latitude": "39.337416",
    "longitude": "-76.671835",
    "mascot": "Wildcats",
    "name": "Baltimore Junior Academy",
    "primary_color": "Royal",
    "secondary_color": "White",
    "state": "MD",
    "timezone": "America/New_York",
    "updated_at": "2012-07-08T00:04:59Z",
    "zip": "21215"
  },
  {
    "address": "4801 Tamarind Rd",
    "city": "Baltimore",
    "county": "Baltimore County",
    "created_at": "2012-01-04T20:15:05Z",
    "id": 10908,
    "latitude": "39.346081",
    "longitude": "-76.654891",
    "mascot": null,
    "name": "The Waldorf School Of Baltimore",
    "primary_color": "Royal",
    "secondary_color": "White",
    "state": "MD",
    "timezone": "America/New_York",
    "updated_at": "2012-07-08T00:04:59Z",
    "zip": "21209"
  },
  {
    "address": "11 Celadon Rd",
    "city": "Owings Mills",
    "county": "Baltimore County",
    "created_at": "2012-01-04T20:15:05Z",
    "id": 10909,
    "latitude": "39.418563",
    "longitude": "-76.732543",
    "mascot": null,
    "name": "Jemicy School",
    "primary_color": "Royal",
    "secondary_color": "White",
    "state": "MD",
    "timezone": "America/New_York",
    "updated_at": "2012-07-08T00:05:00Z",
    "zip": "21117"
  },
  {
    "address": "6077 Moravia Park Dr",
    "city": "Baltimore",
    "county": "Baltimore County",
    "created_at": "2012-01-04T20:15:05Z",
    "id": 10910,
    "latitude": "39.315513",
    "longitude": "-76.540919",
    "mascot": "Eagles",
    "name": "Greater Grace Christian Academy",
    "primary_color": "Gray",
    "secondary_color": "Maroon",
    "state": "MD",
    "timezone": "America/New_York",
    "updated_at": "2012-07-08T00:05:00Z",
    "zip": "21206"
  },
  {
    "address": "1214 N Broadway",
    "city": "Baltimore",
    "county": "Baltimore County",
    "created_at": "2012-01-04T20:15:05Z",
    "id": 10911,
    "latitude": "39.304515",
    "longitude": "-76.594770",
    "mascot": null,
    "name": "Sought Out Redeemed Christian School",
    "primary_color": "Maroon",
    "secondary_color": "White",
    "state": "MD",
    "timezone": "America/New_York",
    "updated_at": "2012-07-08T00:05:00Z",
    "zip": "21213"
  },
  {
    "address": "401 Aldersgate Dr",
    "city": "Denton",
    "county": "Caroline County",
    "created_at": "2012-01-04T20:15:05Z",
    "id": 10912,
    "latitude": "38.887974",
    "longitude": "-75.810049",
    "mascot": null,
    "name": "Wesleyan Christian School",
    "primary_color": null,
    "secondary_color": null,
    "state": "MD",
    "timezone": "America/New_York",
    "updated_at": "2012-07-08T00:05:00Z",
    "zip": "21629"
  },
  {
    "address": "613 Uniontown Rd",
    "city": "Westminster",
    "county": "Carroll County",
    "created_at": "2012-01-04T20:15:05Z",
    "id": 10913,
    "latitude": "39.582101",
    "longitude": "-77.018344",
    "mascot": null,
    "name": "Community Baptist Church School",
    "primary_color": "Maroon",
    "secondary_color": "Gray",
    "state": "MD",
    "timezone": "America/New_York",
    "updated_at": "2012-07-08T00:05:01Z",
    "zip": "21157"
  },
  {
    "address": "1079 Firetower Rd",
    "city": "Colora",
    "county": "Cecil County",
    "created_at": "2012-01-04T20:15:05Z",
    "id": 10914,
    "latitude": "39.669272",
    "longitude": "-76.077248",
    "mascot": "Rams",
    "name": "West Nottingham Academy",
    "primary_color": "Maroon",
    "secondary_color": "White",
    "state": "MD",
    "timezone": "America/New_York",
    "updated_at": "2012-07-08T00:05:01Z",
    "zip": "21917"
  },
  {
    "address": "5333 Austin Rd",
    "city": "Cambridge",
    "county": "Dorchester County",
    "created_at": "2012-01-04T20:15:05Z",
    "id": 10915,
    "latitude": "38.546219",
    "longitude": "-76.006935",
    "mascot": "Crusaders",
    "name": "Countryside Christian School",
    "primary_color": "White",
    "secondary_color": "Royal Blue",
    "state": "MD",
    "timezone": "America/New_York",
    "updated_at": "2012-07-08T00:05:01Z",
    "zip": "21613"
  },
  {
    "address": "1619 Race St",
    "city": "Cambridge",
    "county": "Dorchester County",
    "created_at": "2012-01-04T20:15:05Z",
    "id": 10916,
    "latitude": "38.551635",
    "longitude": "-76.083785",
    "mascot": "Patriots",
    "name": "Open Bible Academy",
    "primary_color": "Royal",
    "secondary_color": "White",
    "state": "MD",
    "timezone": "America/New_York",
    "updated_at": "2012-07-08T00:05:02Z",
    "zip": "21613"
  },
  {
    "address": "359 Zion School Rd",
    "city": "Grantsville",
    "county": "Garrett County",
    "created_at": "2012-01-04T20:15:05Z",
    "id": 10917,
    "latitude": "39.693330",
    "longitude": "-79.125991",
    "mascot": null,
    "name": "Zion Christian Academy",
    "primary_color": "Royal",
    "secondary_color": "White",
    "state": "MD",
    "timezone": "America/New_York",
    "updated_at": "2012-07-08T00:05:02Z",
    "zip": "21536"
  },
  {
    "address": "2392 Mason School Rd",
    "city": "Oakland",
    "county": "Garrett County",
    "created_at": "2012-01-04T20:15:05Z",
    "id": 10918,
    "latitude": "39.330309",
    "longitude": "-79.420925",
    "mascot": "Kingfishers",
    "name": "Pleasant Valley Christian Academy",
    "primary_color": "Gray",
    "secondary_color": "Royal",
    "state": "MD",
    "timezone": "America/New_York",
    "updated_at": "2012-07-08T00:05:02Z",
    "zip": "21550"
  },
  {
    "address": "10707 Bittinger Rd",
    "city": "Bittinger",
    "county": "Garrett County",
    "created_at": "2012-01-04T20:15:05Z",
    "id": 10919,
    "latitude": "39.598200",
    "longitude": "-79.226609",
    "mascot": null,
    "name": "Dry Run Mennonite School",
    "primary_color": null,
    "secondary_color": null,
    "state": "MD",
    "timezone": "America/New_York",
    "updated_at": "2012-07-08T00:05:02Z",
    "zip": "21522"
  },
  {
    "address": "1736 Whiteford Rd",
    "city": "Darlington",
    "county": "Harford County",
    "created_at": "2012-01-04T20:15:05Z",
    "id": 10920,
    "latitude": "39.660165",
    "longitude": "-76.278142",
    "mascot": "Eagles",
    "name": "Harford Christian School",
    "primary_color": "Red",
    "secondary_color": "White",
    "state": "MD",
    "timezone": "America/New_York",
    "updated_at": "2012-07-08T00:05:03Z",
    "zip": "21034"
  },
  {
    "address": "1305 Joppa Rd",
    "city": "Joppa",
    "county": "Harford County",
    "created_at": "2012-01-04T20:15:06Z",
    "id": 10921,
    "latitude": "39.433296",
    "longitude": "-76.357577",
    "mascot": null,
    "name": "Faith Baptist Academy",
    "primary_color": null,
    "secondary_color": null,
    "state": "MD",
    "timezone": "America/New_York",
    "updated_at": "2012-07-08T00:05:03Z",
    "zip": "21085"
  },
  {
    "address": "21 N Earlton Rd",
    "city": "Havre De Grace",
    "county": "Harford County",
    "created_at": "2012-01-04T20:15:06Z",
    "id": 10922,
    "latitude": "39.572706",
    "longitude": "-76.148558",
    "mascot": "Crusaders",
    "name": "Bethel Christian Academy",
    "primary_color": "Royal",
    "secondary_color": "White",
    "state": "MD",
    "timezone": "America/New_York",
    "updated_at": "2012-07-08T00:05:03Z",
    "zip": "21078"
  },
  {
    "address": "1010 Old Joppa Rd",
    "city": "Joppa",
    "county": "Harford County",
    "created_at": "2012-01-04T20:15:06Z",
    "id": 10923,
    "latitude": "39.481060",
    "longitude": "-76.374177",
    "mascot": null,
    "name": "Hudson SDA School",
    "primary_color": null,
    "secondary_color": null,
    "state": "MD",
    "timezone": "America/New_York",
    "updated_at": "2012-07-08T00:05:03Z",
    "zip": "21085"
  },
  {
    "address": "900 Trimble Rd",
    "city": "Joppa",
    "county": "Harford County",
    "created_at": "2012-01-04T20:15:06Z",
    "id": 10924,
    "latitude": "39.411900",
    "longitude": "-76.332507",
    "mascot": null,
    "name": "Chesapeake Christian School",
    "primary_color": "Columbia Blue",
    "secondary_color": "Royal",
    "state": "MD",
    "timezone": "America/New_York",
    "updated_at": "2012-07-08T00:05:04Z",
    "zip": "21085"
  },
  {
    "address": "401 Morgnec Rd",
    "city": "Chestertown",
    "county": "Kent County",
    "created_at": "2012-01-04T20:15:06Z",
    "id": 10925,
    "latitude": "39.224694",
    "longitude": "-76.062456",
    "mascot": "Patriots",
    "name": "Chestertown Christian Academy",
    "primary_color": "Navy",
    "secondary_color": "White",
    "state": "MD",
    "timezone": "America/New_York",
    "updated_at": "2012-07-08T00:05:04Z",
    "zip": "21620"
  },
  {
    "address": "8617 Chateau Dr",
    "city": "Potomac",
    "county": "Montgomery County",
    "created_at": "2012-01-04T20:15:06Z",
    "id": 10926,
    "latitude": "39.011205",
    "longitude": "-77.174624",
    "mascot": null,
    "name": "German School",
    "primary_color": "Red",
    "secondary_color": "Black",
    "state": "MD",
    "timezone": "America/New_York",
    "updated_at": "2012-07-08T00:05:04Z",
    "zip": "20854"
  },
  {
    "address": "11710 Hunters Lane",
    "city": "Rockville",
    "county": "Montgomery County",
    "created_at": "2012-01-04T20:15:06Z",
    "id": 10927,
    "latitude": "39.048248",
    "longitude": "-77.098953",
    "mascot": "Lions",
    "name": "Charles E Smith Jewish Day School",
    "primary_color": "Royal",
    "secondary_color": "White",
    "state": "MD",
    "timezone": "America/New_York",
    "updated_at": "2012-07-08T00:05:04Z",
    "zip": "20852"
  },
  {
    "address": "7303 River Rd",
    "city": "Bethesda",
    "county": "Montgomery County",
    "created_at": "2012-01-04T20:15:06Z",
    "id": 10928,
    "latitude": "38.989320",
    "longitude": "-77.149806",
    "mascot": "Panthers",
    "name": "Holton Arms School",
    "primary_color": "Royal",
    "secondary_color": "White",
    "state": "MD",
    "timezone": "America/New_York",
    "updated_at": "2012-07-08T00:05:05Z",
    "zip": "20817"
  },
  {
    "address": "6101 Wilson Ln",
    "city": "Bethesda",
    "county": "Montgomery County",
    "created_at": "2012-01-04T20:15:06Z",
    "id": 10929,
    "latitude": "38.989492",
    "longitude": "-77.123385",
    "mascot": "Bears",
    "name": "Landon School",
    "primary_color": "Brown",
    "secondary_color": "White",
    "state": "MD",
    "timezone": "America/New_York",
    "updated_at": "2012-07-08T00:05:05Z",
    "zip": "20817"
  },
  {
    "address": "16923 Norwood Rd",
    "city": "Sandy Spring",
    "county": "Montgomery County",
    "created_at": "2012-01-04T20:15:06Z",
    "id": 10930,
    "latitude": "39.132117",
    "longitude": "-77.030272",
    "mascot": "Wildebeests",
    "name": "Sandy Spring Friends School",
    "primary_color": "Yellow",
    "secondary_color": "Kelly Green",
    "state": "MD",
    "timezone": "America/New_York",
    "updated_at": "2012-07-08T00:05:05Z",
    "zip": "20860"
  },
  {
    "address": "10601 Falls Rd",
    "city": "Potomac",
    "county": "Montgomery County",
    "created_at": "2012-01-04T20:15:06Z",
    "id": 10931,
    "latitude": "39.028213",
    "longitude": "-77.201798",
    "mascot": "Bulldogs",
    "name": "The Bullis School",
    "primary_color": "Royal",
    "secondary_color": "Gold",
    "state": "MD",
    "timezone": "America/New_York",
    "updated_at": "2012-07-08T00:05:05Z",
    "zip": "20854"
  },
  {
    "address": "8224 Lochinver Ln",
    "city": "Potomac",
    "county": "Montgomery County",
    "created_at": "2012-01-04T20:15:06Z",
    "id": 10932,
    "latitude": "39.039410",
    "longitude": "-77.166354",
    "mascot": "Mustangs",
    "name": "McLean School",
    "primary_color": "Royal",
    "secondary_color": "White",
    "state": "MD",
    "timezone": "America/New_York",
    "updated_at": "2012-07-08T00:05:06Z",
    "zip": "20854"
  },
  {
    "address": "12101 Tech Rd",
    "city": "Silver Spring",
    "county": "Montgomery County",
    "created_at": "2012-01-04T20:15:06Z",
    "id": 10933,
    "latitude": "39.053679",
    "longitude": "-76.968071",
    "mascot": "Tigers",
    "name": "The Newport School",
    "primary_color": "Gray",
    "secondary_color": "Navy",
    "state": "MD",
    "timezone": "America/New_York",
    "updated_at": "2012-07-08T00:05:06Z",
    "zip": "20904"
  },
  {
    "address": "12721 Goodhill Rd",
    "city": "Silver Spring",
    "county": "Montgomery County",
    "created_at": "2012-01-04T20:15:06Z",
    "id": 10934,
    "latitude": "39.064054",
    "longitude": "-77.072329",
    "mascot": null,
    "name": "Yeshiva Of Greater Washington School",
    "primary_color": "Royal",
    "secondary_color": "White",
    "state": "MD",
    "timezone": "America/New_York",
    "updated_at": "2012-07-08T00:05:06Z",
    "zip": "20906"
  },
  {
    "address": "9600 Forest Rd",
    "city": "Bethesda",
    "county": "Montgomery County",
    "created_at": "2012-01-04T20:15:06Z",
    "id": 10935,
    "latitude": "39.012785",
    "longitude": "-77.113416",
    "mascot": null,
    "name": "French International School",
    "primary_color": "Yellow",
    "secondary_color": "Royal",
    "state": "MD",
    "timezone": "America/New_York",
    "updated_at": "2012-07-08T00:05:06Z",
    "zip": "20814"
  },
  {
    "address": "4915 Aspen Hill Rd",
    "city": "Rockville",
    "county": "Montgomery County",
    "created_at": "2012-01-04T20:15:06Z",
    "id": 10936,
    "latitude": "39.071202",
    "longitude": "-77.099517",
    "mascot": "Phoenix",
    "name": "Frost Center",
    "primary_color": "Gray",
    "secondary_color": "Maroon",
    "state": "MD",
    "timezone": "America/New_York",
    "updated_at": "2012-07-08T00:05:07Z",
    "zip": "20853"
  },
  {
    "address": "13925 New Hampshire Ave",
    "city": "Silver Spring",
    "county": "Montgomery County",
    "created_at": "2012-01-04T20:15:06Z",
    "id": 10937,
    "latitude": "39.083373",
    "longitude": "-77.000251",
    "mascot": null,
    "name": "Thornton Friends Upper School",
    "primary_color": "Kelly Green",
    "secondary_color": "White",
    "state": "MD",
    "timezone": "America/New_York",
    "updated_at": "2012-07-08T00:05:07Z",
    "zip": "20904"
  },
  {
    "address": "8804 Postoak Rd",
    "city": "Potomac",
    "county": "Montgomery County",
    "created_at": "2012-01-04T20:15:06Z",
    "id": 10938,
    "latitude": "39.046776",
    "longitude": "-77.178571",
    "mascot": "Lions",
    "name": "Saint Andrew's Episcopal School",
    "primary_color": "Red",
    "secondary_color": "White",
    "state": "MD",
    "timezone": "America/New_York",
    "updated_at": "2012-07-08T00:05:07Z",
    "zip": "20854"
  },
  {
    "address": "4800 Sangamore Rd",
    "city": "Bethesda",
    "county": "Montgomery County",
    "created_at": "2012-01-04T20:15:06Z",
    "id": 10939,
    "latitude": "38.950588",
    "longitude": "-77.120543",
    "mascot": "Knights",
    "name": "Washington Waldorf School",
    "primary_color": "Red",
    "secondary_color": "White",
    "state": "MD",
    "timezone": "America/New_York",
    "updated_at": "2012-07-08T00:05:07Z",
    "zip": "20816"
  },
  {
    "address": "5100 Randolph Rd",
    "city": "Rockville",
    "county": "Montgomery County",
    "created_at": "2012-01-04T20:15:06Z",
    "id": 10940,
    "latitude": "39.053676",
    "longitude": "-77.101171",
    "mascot": "Mustangs",
    "name": "Montrose Christian School",
    "primary_color": "Kelly Green",
    "secondary_color": "White",
    "state": "MD",
    "timezone": "America/New_York",
    "updated_at": "2012-07-08T00:05:08Z",
    "zip": "20852"
  },
  {
    "address": "610 E Diamond Ave Ste E",
    "city": "Gaithersburg",
    "county": "Montgomery County",
    "created_at": "2012-01-04T20:15:06Z",
    "id": 10941,
    "latitude": "39.140036",
    "longitude": "-77.183071",
    "mascot": null,
    "name": "The Lodge School",
    "primary_color": "Red",
    "secondary_color": "White",
    "state": "MD",
    "timezone": "America/New_York",
    "updated_at": "2012-07-08T00:05:08Z",
    "zip": "20877"
  },
  {
    "address": "7501 Muncaster Mill Rd",
    "city": "Gaithersburg",
    "county": "Montgomery County",
    "created_at": "2012-01-04T20:15:06Z",
    "id": 10942,
    "latitude": "39.152988",
    "longitude": "-77.152626",
    "mascot": "Cougars",
    "name": "Covenant Life School",
    "primary_color": "Black",
    "secondary_color": "White",
    "state": "MD",
    "timezone": "America/New_York",
    "updated_at": "2012-07-08T00:05:08Z",
    "zip": "20877"
  },
  {
    "address": "1216 Arcola Ave",
    "city": "Silver Spring",
    "county": "Montgomery County",
    "created_at": "2012-01-04T20:15:06Z",
    "id": 10943,
    "latitude": "39.042454",
    "longitude": "-77.029878",
    "mascot": null,
    "name": "Yeshiva Boys Of Greater Washington",
    "primary_color": null,
    "secondary_color": null,
    "state": "MD",
    "timezone": "America/New_York",
    "updated_at": "2012-07-08T00:05:09Z",
    "zip": "20902"
  },
  {
    "address": "13500 Layhill Rd",
    "city": "Silver Spring",
    "county": "Montgomery County",
    "created_at": "2012-01-04T20:15:06Z",
    "id": 10944,
    "latitude": "39.077554",
    "longitude": "-77.046282",
    "mascot": "Mustangs",
    "name": "Barrie School",
    "primary_color": "Gold",
    "secondary_color": "Royal",
    "state": "MD",
    "timezone": "America/New_York",
    "updated_at": "2012-07-08T00:05:09Z",
    "zip": "20906"
  },
  {
    "address": "7917 Montrose Rd",
    "city": "Potomac",
    "county": "Montgomery County",
    "created_at": "2012-01-04T20:15:06Z",
    "id": 10945,
    "latitude": "39.057145",
    "longitude": "-77.161651",
    "mascot": null,
    "name": "Muslim Community School",
    "primary_color": "Kelly Green",
    "secondary_color": "White",
    "state": "MD",
    "timezone": "America/New_York",
    "updated_at": "2012-07-08T00:05:09Z",
    "zip": "20854"
  },
  {
    "address": "14111 Oak Grove Rd",
    "city": "Upper Marlboro",
    "county": "Prince George's County",
    "created_at": "2012-01-04T20:15:06Z",
    "id": 10946,
    "latitude": "38.875303",
    "longitude": "-76.762585",
    "mascot": "Lions",
    "name": "Queen Anne School",
    "primary_color": "Navy",
    "secondary_color": "Gold",
    "state": "MD",
    "timezone": "America/New_York",
    "updated_at": "2012-07-08T00:05:09Z",
    "zip": "20774"
  },
  {
    "address": "8400 Good Luck Rd",
    "city": "Lanham",
    "county": "Prince George's County",
    "created_at": "2012-01-04T20:15:06Z",
    "id": 10947,
    "latitude": "38.978877",
    "longitude": "-76.862161",
    "mascot": "Lions",
    "name": "Lanham Christian School",
    "primary_color": "Gold",
    "secondary_color": "Maroon",
    "state": "MD",
    "timezone": "America/New_York",
    "updated_at": "2012-07-08T00:05:10Z",
    "zip": "20706"
  },
  {
    "address": "407 Dudley Corners Rd",
    "city": "Sudlersville",
    "county": "Queen Anne's County",
    "created_at": "2012-01-04T20:15:06Z",
    "id": 10948,
    "latitude": "39.191900",
    "longitude": "-75.893815",
    "mascot": "Eagles",
    "name": "Eastern Shore Junior Academy",
    "primary_color": "Gold",
    "secondary_color": "Royal",
    "state": "MD",
    "timezone": "America/New_York",
    "updated_at": "2012-07-08T00:05:10Z",
    "zip": "21668"
  },
  {
    "address": "29855 El Dorado Farm Ln",
    "city": "Charlotte Hall",
    "county": "Charles County",
    "created_at": "2012-01-04T20:15:06Z",
    "id": 10949,
    "latitude": "38.471220",
    "longitude": "-76.828446",
    "mascot": "Eagles",
    "name": "Victory Baptist Academy",
    "primary_color": "Royal",
    "secondary_color": "Red",
    "state": "MD",
    "timezone": "America/New_York",
    "updated_at": "2012-07-08T00:05:10Z",
    "zip": "20622"
  },
  {
    "address": "20738 Point Lookout Rd",
    "city": "Callaway",
    "county": "St. Mary's County",
    "created_at": "2012-01-04T20:15:06Z",
    "id": 10950,
    "latitude": "38.238303",
    "longitude": "-76.516599",
    "mascot": "Eagles",
    "name": "The King's Christian Academy",
    "primary_color": "Royal",
    "secondary_color": "White",
    "state": "MD",
    "timezone": "America/New_York",
    "updated_at": "2012-07-08T00:05:11Z",
    "zip": "20620"
  },
  {
    "address": "12146 Cedar Ridge Rd",
    "city": "Williamsport",
    "county": "Washington County",
    "created_at": "2012-01-04T20:15:06Z",
    "id": 10951,
    "latitude": "39.648239",
    "longitude": "-77.855716",
    "mascot": null,
    "name": "Cedar Ridge Childrens Home & School Inc",
    "primary_color": "Gray",
    "secondary_color": "Maroon",
    "state": "MD",
    "timezone": "America/New_York",
    "updated_at": "2012-07-08T00:05:11Z",
    "zip": "21795"
  },
  {
    "address": "16404 National Pike",
    "city": "Hagerstown",
    "county": "Washington County",
    "created_at": "2012-01-04T20:15:06Z",
    "id": 10952,
    "latitude": "39.651669",
    "longitude": "-77.802752",
    "mascot": null,
    "name": "Huyetts Mennonite School",
    "primary_color": null,
    "secondary_color": null,
    "state": "MD",
    "timezone": "America/New_York",
    "updated_at": "2012-07-08T00:05:11Z",
    "zip": "21740"
  },
  {
    "address": "41 Bryan Cir",
    "city": "Hagerstown",
    "county": "Washington County",
    "created_at": "2012-01-04T20:15:06Z",
    "id": 10953,
    "latitude": "39.649620",
    "longitude": "-77.734679",
    "mascot": null,
    "name": "Truth Christian Academy",
    "primary_color": null,
    "secondary_color": null,
    "state": "MD",
    "timezone": "America/New_York",
    "updated_at": "2012-07-08T00:05:11Z",
    "zip": "21740"
  },
  {
    "address": "19308 Air View Rd",
    "city": "Hagerstown",
    "county": "Washington County",
    "created_at": "2012-01-04T20:15:06Z",
    "id": 10954,
    "latitude": "39.703613",
    "longitude": "-77.698462",
    "mascot": null,
    "name": "Paradise Mennonite School",
    "primary_color": null,
    "secondary_color": null,
    "state": "MD",
    "timezone": "America/New_York",
    "updated_at": "2012-07-08T00:05:12Z",
    "zip": "21742"
  },
  {
    "address": "6413 Hobbs Rd",
    "city": "Salisbury",
    "county": "Wicomico County",
    "created_at": "2012-01-04T20:15:06Z",
    "id": 10955,
    "latitude": "38.367972",
    "longitude": "-75.528770",
    "mascot": "Ambassadors",
    "name": "Salisbury Baptist Academy",
    "primary_color": "Red",
    "secondary_color": "White",
    "state": "MD",
    "timezone": "America/New_York",
    "updated_at": "2012-07-08T00:05:12Z",
    "zip": "21804"
  },
  {
    "address": "30505 Dagsboro Rd",
    "city": "Salisbury",
    "county": "Wicomico County",
    "created_at": "2012-01-04T20:15:06Z",
    "id": 10956,
    "latitude": "38.421155",
    "longitude": "-75.553370",
    "mascot": "Falcons",
    "name": "Faith Baptist Christian School",
    "primary_color": "Gold",
    "secondary_color": "Maroon",
    "state": "MD",
    "timezone": "America/New_York",
    "updated_at": "2012-07-08T00:05:12Z",
    "zip": "21804"
  },
  {
    "address": "616 Sedgwick St",
    "city": "Cumberland",
    "county": "Allegany County",
    "created_at": "2012-01-04T20:15:06Z",
    "id": 10957,
    "latitude": "39.656570",
    "longitude": "-78.774986",
    "mascot": "Campers",
    "name": "Allegany High School",
    "primary_color": "Royal",
    "secondary_color": "White",
    "state": "MD",
    "timezone": "America/New_York",
    "updated_at": "2012-07-08T00:05:12Z",
    "zip": "21502"
  },
  {
    "address": "2700 Riva Rd",
    "city": "Annapolis",
    "county": "Anne Arundel County",
    "created_at": "2012-01-04T20:15:06Z",
    "id": 10958,
    "latitude": "38.972503",
    "longitude": "-76.563072",
    "mascot": "Panthers",
    "name": "Annapolis High School",
    "primary_color": "Maroon",
    "secondary_color": "Navy",
    "state": "MD",
    "timezone": "America/New_York",
    "updated_at": "2012-07-08T00:05:13Z",
    "zip": "21401"
  },
  {
    "address": "1001 Annapolis Rd",
    "city": "Gambrills",
    "county": "Anne Arundel County",
    "created_at": "2012-01-04T20:15:06Z",
    "id": 10959,
    "latitude": "39.074545",
    "longitude": "-76.680684",
    "mascot": "Wildcats",
    "name": "Arundel Senior High School",
    "primary_color": "Kelly Green",
    "secondary_color": "White",
    "state": "MD",
    "timezone": "America/New_York",
    "updated_at": "2012-07-08T00:05:13Z",
    "zip": "21054"
  },
  {
    "address": "648 Old Mill Rd",
    "city": "Millersville",
    "county": "Anne Arundel County",
    "created_at": "2012-01-04T20:15:06Z",
    "id": 10960,
    "latitude": "39.117754",
    "longitude": "-76.630734",
    "mascot": "Shooting Stars",
    "name": "Ruth Parker Eason School",
    "primary_color": "Gold",
    "secondary_color": "Royal",
    "state": "MD",
    "timezone": "America/New_York",
    "updated_at": "2012-07-08T00:05:13Z",
    "zip": "21108"
  },
  {
    "address": "7550 Baltimore-Annapolis Blvd",
    "city": "Glen Burnie",
    "county": "Anne Arundel County",
    "created_at": "2012-01-04T20:15:06Z",
    "id": 10961,
    "latitude": "39.160684",
    "longitude": "-76.616247",
    "mascot": "Gophers",
    "name": "Glen Burnie High School",
    "primary_color": "Red",
    "secondary_color": "White",
    "state": "MD",
    "timezone": "America/New_York",
    "updated_at": "2012-07-08T00:05:13Z",
    "zip": "21060"
  },
  {
    "address": "1121 Duvall Hwy",
    "city": "Pasadena",
    "county": "Anne Arundel County",
    "created_at": "2012-01-04T20:15:06Z",
    "id": 10962,
    "latitude": "39.145744",
    "longitude": "-76.528882",
    "mascot": "Eagles",
    "name": "Northeast High School",
    "primary_color": "Gold",
    "secondary_color": "Black",
    "state": "MD",
    "timezone": "America/New_York",
    "updated_at": "2012-07-08T00:05:13Z",
    "zip": "21122"
  },
  {
    "address": "60 Robinson Rd",
    "city": "Severna Park",
    "county": "Anne Arundel County",
    "created_at": "2012-01-04T20:15:06Z",
    "id": 10963,
    "latitude": "39.076495",
    "longitude": "-76.557048",
    "mascot": "Falcons",
    "name": "Severna Park Senior High School",
    "primary_color": "Gold",
    "secondary_color": "Navy",
    "state": "MD",
    "timezone": "America/New_York",
    "updated_at": "2012-07-08T00:05:14Z",
    "zip": "21146"
  },
  {
    "address": "4400 Solomons Island Rd",
    "city": "Harwood",
    "county": "Anne Arundel County",
    "created_at": "2012-01-04T20:15:06Z",
    "id": 10964,
    "latitude": "38.868641",
    "longitude": "-76.616683",
    "mascot": "Bulldogs",
    "name": "Southern High School",
    "primary_color": "Gold",
    "secondary_color": "Royal",
    "state": "MD",
    "timezone": "America/New_York",
    "updated_at": "2012-07-08T00:05:14Z",
    "zip": "20776"
  },
  {
    "address": "200 Scott Ave",
    "city": "Glen Burnie",
    "county": "Anne Arundel County",
    "created_at": "2012-01-04T20:15:06Z",
    "id": 10965,
    "latitude": "39.143767",
    "longitude": "-76.594720",
    "mascot": "Tigers",
    "name": "Marley Glen School",
    "primary_color": "Royal",
    "secondary_color": "Gold",
    "state": "MD",
    "timezone": "America/New_York",
    "updated_at": "2012-07-08T00:05:14Z",
    "zip": "21060"
  },
  {
    "address": "800 Stevenson Rd",
    "city": "Severn",
    "county": "Anne Arundel County",
    "created_at": "2012-01-04T20:15:06Z",
    "id": 10966,
    "latitude": "39.127888",
    "longitude": "-76.649299",
    "mascot": "Circles",
    "name": "Center Of Applied Technology North",
    "primary_color": "Royal",
    "secondary_color": "White",
    "state": "MD",
    "timezone": "America/New_York",
    "updated_at": "2012-07-08T00:05:15Z",
    "zip": "21144"
  },
  {
    "address": "600 Patriot Ln",
    "city": "Millersville",
    "county": "Anne Arundel County",
    "created_at": "2012-01-04T20:15:06Z",
    "id": 10967,
    "latitude": "39.118280",
    "longitude": "-76.626838",
    "mascot": "Patriots",
    "name": "Old Mill High School",
    "primary_color": "Royal",
    "secondary_color": "Red",
    "state": "MD",
    "timezone": "America/New_York",
    "updated_at": "2012-07-08T00:05:15Z",
    "zip": "21108"
  },
  {
    "address": "4798 Mountain Rd",
    "city": "Pasadena",
    "county": "Anne Arundel County",
    "created_at": "2012-01-04T20:15:06Z",
    "id": 10968,
    "latitude": "39.108668",
    "longitude": "-76.457784",
    "mascot": "Cougars",
    "name": "Chesapeake High School",
    "primary_color": "Royal",
    "secondary_color": "Gold",
    "state": "MD",
    "timezone": "America/New_York",
    "updated_at": "2012-07-08T00:05:15Z",
    "zip": "21122"
  },
  {
    "address": "1100 Clark Rd",
    "city": "Fort Meade",
    "county": "Anne Arundel County",
    "created_at": "2012-01-04T20:15:06Z",
    "id": 10969,
    "latitude": "39.121198",
    "longitude": "-76.738653",
    "mascot": "Mustangs",
    "name": "Meade Senior High School",
    "primary_color": "Gold",
    "secondary_color": "Brown",
    "state": "MD",
    "timezone": "America/New_York",
    "updated_at": "2012-07-08T00:05:15Z",
    "zip": "20755"
  },
  {
    "address": "291 Locust Ave",
    "city": "Annapolis",
    "county": "Anne Arundel County",
    "created_at": "2012-01-04T20:15:06Z",
    "id": 10970,
    "latitude": "38.981827",
    "longitude": "-76.512285",
    "mascot": "Phoenix Fliers",
    "name": "The Phoenix Center",
    "primary_color": "Gold",
    "secondary_color": "Royal",
    "state": "MD",
    "timezone": "America/New_York",
    "updated_at": "2012-07-08T00:05:16Z",
    "zip": "21401"
  },
  {
    "address": "201 Central Ave E",
    "city": "Edgewater",
    "county": "Anne Arundel County",
    "created_at": "2012-01-04T20:15:06Z",
    "id": 10971,
    "latitude": "38.926171",
    "longitude": "-76.563056",
    "mascot": "Seahawks",
    "name": "South River High School",
    "primary_color": "Gray",
    "secondary_color": "Columbia Blue",
    "state": "MD",
    "timezone": "America/New_York",
    "updated_at": "2012-07-08T00:05:16Z",
    "zip": "21037"
  },
  {
    "address": "1265 Green Holly Dr",
    "city": "Annapolis",
    "county": "Anne Arundel County",
    "created_at": "2012-01-04T20:15:06Z",
    "id": 10972,
    "latitude": "39.037847",
    "longitude": "-76.456754",
    "mascot": "Bruins",
    "name": "Broadneck High School",
    "primary_color": "Maroon",
    "secondary_color": "Gray",
    "state": "MD",
    "timezone": "America/New_York",
    "updated_at": "2012-07-08T00:05:16Z",
    "zip": "21401"
  },
  {
    "address": "6916 N Charles St",
    "city": "Towson",
    "county": "Baltimore County",
    "created_at": "2012-01-04T20:15:06Z",
    "id": 10973,
    "latitude": "39.402993",
    "longitude": "-76.631547",
    "mascot": "Rockets",
    "name": "Ridge Ruxton School",
    "primary_color": "Kelly Green",
    "secondary_color": "White",
    "state": "MD",
    "timezone": "America/New_York",
    "updated_at": "2012-07-08T00:05:16Z",
    "zip": "21204"
  },
  {
    "address": "255 E. Padonia Rd.",
    "city": "Timonium",
    "county": "Baltimore County",
    "created_at": "2012-01-04T20:15:06Z",
    "id": 10974,
    "latitude": "39.461402",
    "longitude": "-76.613016",
    "mascot": "Lions",
    "name": "Dulaney High School",
    "primary_color": "Red",
    "secondary_color": "White",
    "state": "MD",
    "timezone": "America/New_York",
    "updated_at": "2012-07-08T00:05:17Z",
    "zip": "21093"
  },
  {
    "address": "1212 Cowpens Ave",
    "city": "Baltimore",
    "county": "Baltimore County",
    "created_at": "2012-01-04T20:15:06Z",
    "id": 10975,
    "latitude": "39.402493",
    "longitude": "-76.622336",
    "mascot": "Pirates",
    "name": "Loch Raven High School",
    "primary_color": "Purple",
    "secondary_color": "Gold",
    "state": "MD",
    "timezone": "America/New_York",
    "updated_at": "2012-07-08T00:05:17Z",
    "zip": "21204"
  },
  {
    "address": "2600 Putty Hill Ave",
    "city": "Baltimore",
    "county": "Baltimore County",
    "created_at": "2012-01-04T20:15:06Z",
    "id": 10976,
    "latitude": "39.388651",
    "longitude": "-76.541074",
    "mascot": "Knights",
    "name": "Parkville High School",
    "primary_color": "Gold",
    "secondary_color": "Black",
    "state": "MD",
    "timezone": "America/New_York",
    "updated_at": "2012-07-08T00:05:18Z",
    "zip": "21234"
  },
  {
    "address": "69 Cedar Ave",
    "city": "Baltimore",
    "county": "Baltimore County",
    "created_at": "2012-01-04T20:15:06Z",
    "id": 10977,
    "latitude": "39.391208",
    "longitude": "-76.601814",
    "mascot": "Generals",
    "name": "Towson High School",
    "primary_color": "Maroon",
    "secondary_color": "White",
    "state": "MD",
    "timezone": "America/New_York",
    "updated_at": "2012-07-08T00:05:18Z",
    "zip": "21286"
  },
  {
    "address": "17301 York Rd",
    "city": "Parkton",
    "county": "Baltimore County",
    "created_at": "2012-01-04T20:15:06Z",
    "id": 10978,
    "latitude": "39.597534",
    "longitude": "-76.661434",
    "mascot": "Bulls",
    "name": "Hereford High School",
    "primary_color": "Maroon",
    "secondary_color": "White",
    "state": "MD",
    "timezone": "America/New_York",
    "updated_at": "2012-07-08T00:05:18Z",
    "zip": "21120"
  },
  {
    "address": "8200 Old Philadelphia Rd",
    "city": "Baltimore",
    "county": "Baltimore County",
    "created_at": "2012-01-04T20:15:06Z",
    "id": 10979,
    "latitude": "39.323375",
    "longitude": "-76.505115",
    "mascot": null,
    "name": "Rosedale Center For Alternative Studies",
    "primary_color": "Red",
    "secondary_color": "White",
    "state": "MD",
    "timezone": "America/New_York",
    "updated_at": "2012-07-08T00:05:18Z",
    "zip": "21237"
  },
  {
    "address": "5401 Kenwood Ave",
    "city": "Baltimore",
    "county": "Baltimore County",
    "created_at": "2012-01-04T20:15:06Z",
    "id": 10980,
    "latitude": "39.350547",
    "longitude": "-76.510489",
    "mascot": "Falcons",
    "name": "Overlea High School",
    "primary_color": "Royal",
    "secondary_color": "Orange",
    "state": "MD",
    "timezone": "America/New_York",
    "updated_at": "2012-07-08T00:05:19Z",
    "zip": "21206"
  },
  {
    "address": "4601 Ebenezer Rd",
    "city": "Baltimore",
    "county": "Baltimore County",
    "created_at": "2012-01-04T20:15:06Z",
    "id": 10981,
    "latitude": "39.394130",
    "longitude": "-76.465144",
    "mascot": "Gators",
    "name": "Perry Hall High School",
    "primary_color": "Gold",
    "secondary_color": "Navy",
    "state": "MD",
    "timezone": "America/New_York",
    "updated_at": "2012-07-08T00:05:19Z",
    "zip": "21236"
  },
  {
    "address": "3800 Washington Ave",
    "city": "Baltimore",
    "county": "Baltimore County",
    "created_at": "2012-01-04T20:15:06Z",
    "id": 10982,
    "latitude": "39.356921",
    "longitude": "-76.748998",
    "mascot": "Beavers",
    "name": "Milford Mill Academy",
    "primary_color": "Hunter Green",
    "secondary_color": "White",
    "state": "MD",
    "timezone": "America/New_York",
    "updated_at": "2012-07-08T00:05:19Z",
    "zip": "21244"
  },
  {
    "address": "7621 Labyrinth Rd",
    "city": "Baltimore",
    "county": "Baltimore County",
    "created_at": "2012-01-04T20:15:06Z",
    "id": 10983,
    "latitude": "39.376382",
    "longitude": "-76.700524",
    "mascot": "Panthers",
    "name": "Pikesville High School",
    "primary_color": "Purple",
    "secondary_color": "White",
    "state": "MD",
    "timezone": "America/New_York",
    "updated_at": "2012-07-08T00:05:20Z",
    "zip": "21208"
  },
  {
    "address": "4000 Offutt Rd",
    "city": "Randallstown",
    "county": "Baltimore County",
    "created_at": "2012-01-04T20:15:06Z",
    "id": 10984,
    "latitude": "39.380456",
    "longitude": "-76.796363",
    "mascot": "Rams",
    "name": "Randallstown High School",
    "primary_color": "Black",
    "secondary_color": "Gold",
    "state": "MD",
    "timezone": "America/New_York",
    "updated_at": "2012-07-08T00:05:20Z",
    "zip": "21133"
  },
  {
    "address": "1901 Delvale Ave",
    "city": "Baltimore",
    "county": "Baltimore County",
    "created_at": "2012-01-04T20:15:06Z",
    "id": 10985,
    "latitude": "39.268204",
    "longitude": "-76.517375",
    "mascot": "Owls",
    "name": "Dundalk High School",
    "primary_color": "Kelly Green",
    "secondary_color": "Gold",
    "state": "MD",
    "timezone": "America/New_York",
    "updated_at": "2012-07-08T00:05:20Z",
    "zip": "21222"
  },
  {
    "address": "1801 Turkey Point Rd",
    "city": "Baltimore",
    "county": "Baltimore County",
    "created_at": "2012-01-04T20:15:06Z",
    "id": 10986,
    "latitude": "39.293669",
    "longitude": "-76.422687",
    "mascot": "Bayhawks",
    "name": "Chesapeake High School",
    "primary_color": "Royal",
    "secondary_color": "Navy",
    "state": "MD",
    "timezone": "America/New_York",
    "updated_at": "2012-07-08T00:05:20Z",
    "zip": "21221"
  },
  {
    "address": "7400 N Point Rd",
    "city": "Baltimore",
    "county": "Baltimore County",
    "created_at": "2012-01-04T20:15:06Z",
    "id": 10987,
    "latitude": "39.238080",
    "longitude": "-76.443389",
    "mascot": "Pointer Pups",
    "name": "Sparrows Point High School",
    "primary_color": "Gray",
    "secondary_color": "Royal",
    "state": "MD",
    "timezone": "America/New_York",
    "updated_at": "2012-07-08T00:05:21Z",
    "zip": "21219"
  },
  {
    "address": "901 S Rolling Rd",
    "city": "Baltimore",
    "county": "Baltimore County",
    "created_at": "2012-01-04T20:15:06Z",
    "id": 10988,
    "latitude": "39.252126",
    "longitude": "-76.725704",
    "mascot": null,
    "name": "Catonsville Center For Alt Study",
    "primary_color": "Royal",
    "secondary_color": "White",
    "state": "MD",
    "timezone": "America/New_York",
    "updated_at": "2012-07-08T00:05:21Z",
    "zip": "21228"
  },
  {
    "address": "4901 Shelbourne Rd",
    "city": "Baltimore",
    "county": "Baltimore County",
    "created_at": "2012-01-04T20:15:06Z",
    "id": 10989,
    "latitude": "39.258308",
    "longitude": "-76.696386",
    "mascot": "Comets",
    "name": "Maiden Choice School",
    "primary_color": "Yellow",
    "secondary_color": "Kelly Green",
    "state": "MD",
    "timezone": "America/New_York",
    "updated_at": "2012-07-08T00:05:22Z",
    "zip": "21227"
  },
  {
    "address": "421 Bloomsbury Ave",
    "city": "Catonsville",
    "county": "Baltimore County",
    "created_at": "2012-01-04T20:15:06Z",
    "id": 10990,
    "latitude": "39.261080",
    "longitude": "-76.731659",
    "mascot": "Comets",
    "name": "Catonsville High School",
    "primary_color": "Gold",
    "secondary_color": "Navy",
    "state": "MD",
    "timezone": "America/New_York",
    "updated_at": "2012-07-08T00:05:22Z",
    "zip": "21228"
  },
  {
    "address": "3800 Hollins Ferry Rd",
    "city": "Baltimore",
    "county": "Baltimore County",
    "created_at": "2012-01-04T20:15:06Z",
    "id": 10991,
    "latitude": "39.245077",
    "longitude": "-76.648431",
    "mascot": "Vikings",
    "name": "Lansdowne High School",
    "primary_color": "Red",
    "secondary_color": "Royal",
    "state": "MD",
    "timezone": "America/New_York",
    "updated_at": "2012-07-08T00:05:22Z",
    "zip": "21227"
  },
  {
    "address": "1801 Woodlawn Dr",
    "city": "Baltimore",
    "county": "Baltimore County",
    "created_at": "2012-01-04T20:15:06Z",
    "id": 10992,
    "latitude": "39.317047",
    "longitude": "-76.737265",
    "mascot": "Warriors",
    "name": "Woodlawn High School",
    "primary_color": "Red",
    "secondary_color": "Black",
    "state": "MD",
    "timezone": "America/New_York",
    "updated_at": "2012-07-08T00:05:23Z",
    "zip": "21207"
  },
  {
    "address": "712 Cathedral St",
    "city": "Baltimore",
    "county": "Baltimore County",
    "created_at": "2012-01-04T20:15:06Z",
    "id": 10993,
    "latitude": "39.298257",
    "longitude": "-76.617058",
    "mascot": null,
    "name": "Baltimore School For The Arts #415",
    "primary_color": null,
    "secondary_color": null,
    "state": "MD",
    "timezone": "America/New_York",
    "updated_at": "2012-07-08T00:05:23Z",
    "zip": "21201"
  },
  {
    "address": "200 Font Hill Ave",
    "city": "Baltimore",
    "county": "Baltimore County",
    "created_at": "2012-01-04T20:15:06Z",
    "id": 10994,
    "latitude": "39.283421",
    "longitude": "-76.662582",
    "mascot": "Sabers",
    "name": "Southwestern Senior High School #412",
    "primary_color": "Gold",
    "secondary_color": "Purple",
    "state": "MD",
    "timezone": "America/New_York",
    "updated_at": "2012-07-08T00:05:23Z",
    "zip": "21223"
  },
  {
    "address": "1400 Orleans St",
    "city": "Baltimore",
    "county": "Baltimore County",
    "created_at": "2012-01-04T20:15:06Z",
    "id": 10995,
    "latitude": "39.295135",
    "longitude": "-76.598589",
    "mascot": "Owls",
    "name": "Paul L Dunbar Community School",
    "primary_color": "Maroon",
    "secondary_color": "Gold",
    "state": "MD",
    "timezone": "America/New_York",
    "updated_at": "2012-07-08T00:05:23Z",
    "zip": "21231"
  },
  {
    "address": "1100 Covington St",
    "city": "Baltimore",
    "county": "Baltimore County",
    "created_at": "2012-01-04T20:15:06Z",
    "id": 10996,
    "latitude": "39.277338",
    "longitude": "-76.607012",
    "mascot": "Bulldogs",
    "name": "Southern Senior High School #70",
    "primary_color": "Maroon",
    "secondary_color": "Gold",
    "state": "MD",
    "timezone": "America/New_York",
    "updated_at": "2012-07-08T00:05:24Z",
    "zip": "21230"
  },
  {
    "address": "2801 Saint Lo Dr",
    "city": "Baltimore",
    "county": "Baltimore County",
    "created_at": "2012-01-04T20:15:06Z",
    "id": 10997,
    "latitude": "39.316355",
    "longitude": "-76.589570",
    "mascot": "Dolphins",
    "name": "Heritage High School",
    "primary_color": "Gold",
    "secondary_color": "Royal",
    "state": "MD",
    "timezone": "America/New_York",
    "updated_at": "2012-07-08T00:05:24Z",
    "zip": "21213"
  },
  {
    "address": "2201 Pinewood Ave",
    "city": "Baltimore",
    "county": "Baltimore County",
    "created_at": "2012-01-04T20:15:06Z",
    "id": 10998,
    "latitude": "39.366349",
    "longitude": "-76.570685",
    "mascot": "Vikings",
    "name": "DuDois Senior High School",
    "primary_color": "Hunter Green",
    "secondary_color": "White",
    "state": "MD",
    "timezone": "America/New_York",
    "updated_at": "2012-07-08T00:05:24Z",
    "zip": "21214"
  },
  {
    "address": "1400 West Cold Spring Lane",
    "city": "Baltimore",
    "county": "Baltimore County",
    "created_at": "2012-01-04T20:15:06Z",
    "id": 10999,
    "latitude": "39.345022",
    "longitude": "-76.642988",
    "mascot": "Parrots",
    "name": "Baltimore Polytechnic Institute 403",
    "primary_color": "Orange",
    "secondary_color": "Royal",
    "state": "MD",
    "timezone": "America/New_York",
    "updated_at": "2012-07-08T00:05:25Z",
    "zip": "21209"
  },
  {
    "address": "3701 Eldorado Ave",
    "city": "Baltimore",
    "county": "Baltimore County",
    "created_at": "2012-01-04T20:15:06Z",
    "id": 11000,
    "latitude": "39.331785",
    "longitude": "-76.690423",
    "mascot": "Foresters",
    "name": "Forest Park Senior High School",
    "primary_color": "Kelly Green",
    "secondary_color": "Gray",
    "state": "MD",
    "timezone": "America/New_York",
    "updated_at": "2012-07-08T00:05:25Z",
    "zip": "21207"
  },
  {
    "address": "2000 Edgewood St",
    "city": "Baltimore",
    "county": "Baltimore County",
    "created_at": "2012-01-04T20:15:06Z",
    "id": 11001,
    "latitude": "39.309974",
    "longitude": "-76.675963",
    "mascot": "Warriors",
    "name": "Walbrook Senior High School #411",
    "primary_color": "Gray",
    "secondary_color": "Red",
    "state": "MD",
    "timezone": "America/New_York",
    "updated_at": "2012-07-08T00:05:26Z",
    "zip": "21216"
  },
  {
    "address": "4600 Falls Rd",
    "city": "Baltimore",
    "county": "Baltimore County",
    "created_at": "2012-01-04T20:15:06Z",
    "id": 11002,
    "latitude": "39.346148",
    "longitude": "-76.641166",
    "mascot": "Doves",
    "name": "Western Senior High School 407",
    "primary_color": "Red",
    "secondary_color": "Black",
    "state": "MD",
    "timezone": "America/New_York",
    "updated_at": "2012-07-08T00:05:26Z",
    "zip": "21209"
  },
  {
    "address": "3220 The Alameda",
    "city": "Baltimore",
    "county": "Baltimore County",
    "created_at": "2012-01-04T20:15:06Z",
    "id": 11003,
    "latitude": "39.327308",
    "longitude": "-76.594865",
    "mascot": "Knights",
    "name": "Baltimore City College High School 480",
    "primary_color": "Orange",
    "secondary_color": "Black",
    "state": "MD",
    "timezone": "America/New_York",
    "updated_at": "2012-07-08T00:05:26Z",
    "zip": "21218"
  },
  {
    "address": "1001 W Saratoga St",
    "city": "Baltimore",
    "county": "Baltimore County",
    "created_at": "2012-01-04T20:15:06Z",
    "id": 11004,
    "latitude": "39.292436",
    "longitude": "-76.634134",
    "mascot": "Pirates",
    "name": "Harbor City High School #413",
    "primary_color": "Royal",
    "secondary_color": "White",
    "state": "MD",
    "timezone": "America/New_York",
    "updated_at": "2012-07-08T00:05:26Z",
    "zip": "21223"
  },
  {
    "address": "100 N Calhoun St",
    "city": "Baltimore",
    "county": "Baltimore County",
    "created_at": "2012-01-04T20:15:06Z",
    "id": 11005,
    "latitude": "39.290309",
    "longitude": "-76.639650",
    "mascot": "Tweedy Bird",
    "name": "Francis M Wood Alternative High School",
    "primary_color": "Maroon",
    "secondary_color": "Gray",
    "state": "MD",
    "timezone": "America/New_York",
    "updated_at": "2012-07-08T00:05:27Z",
    "zip": "21223"
  },
  {
    "address": "2555 Harford Rd",
    "city": "Baltimore",
    "county": "Baltimore County",
    "created_at": "2012-01-04T20:15:06Z",
    "id": 11006,
    "latitude": "39.318808",
    "longitude": "-76.593081",
    "mascot": "Eagles",
    "name": "Fairmount Harford High School",
    "primary_color": "Royal",
    "secondary_color": "Gold",
    "state": "MD",
    "timezone": "America/New_York",
    "updated_at": "2012-07-08T00:05:27Z",
    "zip": "21218"
  },
  {
    "address": "501 Athol Ave",
    "city": "Baltimore",
    "county": "Baltimore County",
    "created_at": "2012-01-04T20:15:06Z",
    "id": 11007,
    "latitude": "39.291912",
    "longitude": "-76.689275",
    "mascot": "Red Storms",
    "name": "Edmondson Westside High School",
    "primary_color": "Red",
    "secondary_color": "White",
    "state": "MD",
    "timezone": "America/New_York",
    "updated_at": "2012-07-08T00:05:27Z",
    "zip": "21229"
  },
  {
    "address": "2200 Sinclair Ln",
    "city": "Baltimore",
    "county": "Baltimore County",
    "created_at": "2012-01-04T20:15:06Z",
    "id": 11008,
    "latitude": "39.314318",
    "longitude": "-76.587489",
    "mascot": "Babies",
    "name": "Laurence G Paquin Middle Secondary",
    "primary_color": "Gold",
    "secondary_color": "Columbia Blue",
    "state": "MD",
    "timezone": "America/New_York",
    "updated_at": "2012-07-08T00:05:28Z",
    "zip": "21213"
  },
  {
    "address": "4411 Garrison Blvd",
    "city": "Baltimore",
    "county": "Baltimore County",
    "created_at": "2012-01-04T20:15:06Z",
    "id": 11009,
    "latitude": "39.337115",
    "longitude": "-76.684736",
    "mascot": "Owls",
    "name": "George W F McMechen School",
    "primary_color": "Red",
    "secondary_color": "White",
    "state": "MD",
    "timezone": "America/New_York",
    "updated_at": "2012-07-08T00:05:28Z",
    "zip": "21215"
  },
  {
    "address": "900 Druid Hill Ave",
    "city": "Baltimore",
    "county": "Baltimore County",
    "created_at": "2012-01-04T20:15:06Z",
    "id": 11010,
    "latitude": "39.298595",
    "longitude": "-76.624367",
    "mascot": "Panthers",
    "name": "Joseph C Briscoe Senior High School",
    "primary_color": "Gold",
    "secondary_color": "Black",
    "state": "MD",
    "timezone": "America/New_York",
    "updated_at": "2012-07-08T00:05:28Z",
    "zip": "21201"
  },
  {
    "address": "600 Dares Beach Rd",
    "city": "Prince Frederick",
    "county": "Calvert County",
    "created_at": "2012-01-04T20:15:06Z",
    "id": 11011,
    "latitude": "38.551896",
    "longitude": "-76.581358",
    "mascot": "Cavaliers",
    "name": "Calvert High School",
    "primary_color": "Gold",
    "secondary_color": "Royal",
    "state": "MD",
    "timezone": "America/New_York",
    "updated_at": "2012-07-08T00:05:28Z",
    "zip": "20678"
  },
  {
    "address": "2950 Chaneyville Rd",
    "city": "Owings",
    "county": "Calvert County",
    "created_at": "2012-01-04T20:15:06Z",
    "id": 11012,
    "latitude": "38.686694",
    "longitude": "-76.653441",
    "mascot": "Patriots",
    "name": "Northern High School",
    "primary_color": "Royal",
    "secondary_color": "Red",
    "state": "MD",
    "timezone": "America/New_York",
    "updated_at": "2012-07-08T00:05:28Z",
    "zip": "20736"
  },
  {
    "address": "25320 Richardson Rd",
    "city": "Federalsburg",
    "county": "Caroline County",
    "created_at": "2012-01-04T20:15:06Z",
    "id": 11013,
    "latitude": "38.753768",
    "longitude": "-75.829131",
    "mascot": "Gryphons",
    "name": "Colonel Richardson High School",
    "primary_color": "Black",
    "secondary_color": "Red",
    "state": "MD",
    "timezone": "America/New_York",
    "updated_at": "2012-07-08T00:05:29Z",
    "zip": "21632"
  },
  {
    "address": "10990 River Rd",
    "city": "Ridgely",
    "county": "Caroline County",
    "created_at": "2012-01-04T20:15:06Z",
    "id": 11014,
    "latitude": "38.910077",
    "longitude": "-75.839603",
    "mascot": "Bulldawgs",
    "name": "North Caroline High School",
    "primary_color": "Royal",
    "secondary_color": "White",
    "state": "MD",
    "timezone": "America/New_York",
    "updated_at": "2012-07-08T00:05:29Z",
    "zip": "21660"
  },
  {
    "address": "3825 Bark Hill Rd",
    "city": "Union Bridge",
    "county": "Carroll County",
    "created_at": "2012-01-04T20:15:06Z",
    "id": 11015,
    "latitude": "39.593339",
    "longitude": "-77.132467",
    "mascot": "Eagles",
    "name": "Francis Scott Key High School",
    "primary_color": "Red",
    "secondary_color": "White",
    "state": "MD",
    "timezone": "America/New_York",
    "updated_at": "2012-07-08T00:05:30Z",
    "zip": "21791"
  },
  {
    "address": "1225 Washington Rd",
    "city": "Westminster",
    "county": "Carroll County",
    "created_at": "2012-01-04T20:15:06Z",
    "id": 11016,
    "latitude": "39.540708",
    "longitude": "-76.994090",
    "mascot": "Owls",
    "name": "Westminster High School",
    "primary_color": "Columbia Blue",
    "secondary_color": "Black",
    "state": "MD",
    "timezone": "America/New_York",
    "updated_at": "2012-07-08T00:05:30Z",
    "zip": "21157"
  },
  {
    "address": "495 S Center St",
    "city": "Westminster",
    "county": "Carroll County",
    "created_at": "2012-01-04T20:15:06Z",
    "id": 11017,
    "latitude": "39.559377",
    "longitude": "-76.992508",
    "mascot": "Kangaroo",
    "name": "Carroll Springs School",
    "primary_color": "Teal",
    "secondary_color": "White",
    "state": "MD",
    "timezone": "America/New_York",
    "updated_at": "2012-07-08T00:05:30Z",
    "zip": "21157"
  },
  {
    "address": "1400 Panther Dr",
    "city": "Hampstead",
    "county": "Carroll County",
    "created_at": "2012-01-04T20:15:06Z",
    "id": 11018,
    "latitude": "39.608936",
    "longitude": "-76.860837",
    "mascot": "Panthers",
    "name": "North Carroll High School",
    "primary_color": "Red",
    "secondary_color": "Black",
    "state": "MD",
    "timezone": "America/New_York",
    "updated_at": "2012-07-08T00:05:30Z",
    "zip": "21074"
  },
  {
    "address": "1300 W Old Liberty Rd",
    "city": "Sykesville",
    "county": "Carroll County",
    "created_at": "2012-01-04T20:15:06Z",
    "id": 11019,
    "latitude": "39.442269",
    "longitude": "-77.042255",
    "mascot": "Cavaliers",
    "name": "South Carroll High School",
    "primary_color": "Black",
    "secondary_color": "Gold",
    "state": "MD",
    "timezone": "America/New_York",
    "updated_at": "2012-07-08T00:05:31Z",
    "zip": "21784"
  },
  {
    "address": "5855 Bartholow Rd",
    "city": "Eldersburg",
    "county": "Howard County",
    "created_at": "2012-01-04T20:15:06Z",
    "id": 11020,
    "latitude": "39.412587",
    "longitude": "-76.953410",
    "mascot": "Lions",
    "name": "Liberty High School",
    "primary_color": "Royal",
    "secondary_color": "Gold",
    "state": "MD",
    "timezone": "America/New_York",
    "updated_at": "2012-07-08T00:05:31Z",
    "zip": "21784"
  },
  {
    "address": "110 James St",
    "city": "Elkton",
    "county": "Cecil County",
    "created_at": "2012-01-04T20:15:06Z",
    "id": 11021,
    "latitude": "39.621537",
    "longitude": "-75.833451",
    "mascot": "Golden Elks",
    "name": "Elkton High School",
    "primary_color": "Gold",
    "secondary_color": "Purple",
    "state": "MD",
    "timezone": "America/New_York",
    "updated_at": "2012-07-08T00:05:31Z",
    "zip": "21921"
  },
  {
    "address": "300 Irishtown Rd",
    "city": "North East",
    "county": "Cecil County",
    "created_at": "2012-01-04T20:15:06Z",
    "id": 11022,
    "latitude": "39.585178",
    "longitude": "-75.931371",
    "mascot": "Indians",
    "name": "North East High School",
    "primary_color": "Royal",
    "secondary_color": "White",
    "state": "MD",
    "timezone": "America/New_York",
    "updated_at": "2012-07-08T00:05:31Z",
    "zip": "21901"
  },
  {
    "address": "1696 Perryville Rd",
    "city": "Perryville",
    "county": "Cecil County",
    "created_at": "2012-01-04T20:15:06Z",
    "id": 11023,
    "latitude": "39.582405",
    "longitude": "-76.066913",
    "mascot": "Panthers",
    "name": "Perryville High School",
    "primary_color": "Gold",
    "secondary_color": "Navy",
    "state": "MD",
    "timezone": "America/New_York",
    "updated_at": "2012-07-08T00:05:32Z",
    "zip": "21903"
  },
  {
    "address": "6035 Radio Station Rd",
    "city": "La Plata",
    "county": "Charles County",
    "created_at": "2012-01-04T20:15:06Z",
    "id": 11024,
    "latitude": "38.547032",
    "longitude": "-76.948430",
    "mascot": "Warriors",
    "name": "La Plata High School",
    "primary_color": "Navy",
    "secondary_color": "White",
    "state": "MD",
    "timezone": "America/New_York",
    "updated_at": "2012-07-08T00:05:32Z",
    "zip": "20646"
  },
  {
    "address": "3000 Chichamuxen Rd",
    "city": "Indian Head",
    "county": "Charles County",
    "created_at": "2012-01-04T20:15:06Z",
    "id": 11025,
    "latitude": "38.580629",
    "longitude": "-77.132190",
    "mascot": "Chargers",
    "name": "Lackey High School",
    "primary_color": "Gray",
    "secondary_color": "Royal",
    "state": "MD",
    "timezone": "America/New_York",
    "updated_at": "2012-07-08T00:05:32Z",
    "zip": "20640"
  },
  {
    "address": "7165 Marshall Corner Rd",
    "city": "Pomfret",
    "county": "Charles County",
    "created_at": "2012-01-04T20:15:06Z",
    "id": 11026,
    "latitude": "38.554219",
    "longitude": "-77.037960",
    "mascot": "Rams",
    "name": "Maurice McDonough High School",
    "primary_color": "Purple",
    "secondary_color": "Orange",
    "state": "MD",
    "timezone": "America/New_York",
    "updated_at": "2012-07-08T00:05:32Z",
    "zip": "20675"
  },
  {
    "address": "2475 Cambridge Bypass",
    "city": "Cambridge",
    "county": "Dorchester County",
    "created_at": "2012-01-04T20:15:06Z",
    "id": 11027,
    "latitude": "38.546126",
    "longitude": "-76.090106",
    "mascot": "Vikings",
    "name": "Cambridge-South Dorchester High School",
    "primary_color": "Royal",
    "secondary_color": "Gold",
    "state": "MD",
    "timezone": "America/New_York",
    "updated_at": "2012-07-08T00:05:33Z",
    "zip": "21613"
  },
  {
    "address": "101 Cummings Dr",
    "city": "Brunswick",
    "county": "Frederick County",
    "created_at": "2012-01-04T20:15:06Z",
    "id": 11028,
    "latitude": "39.317139",
    "longitude": "-77.611276",
    "mascot": "Railroaders",
    "name": "Brunswick High School",
    "primary_color": "Gold",
    "secondary_color": "Maroon",
    "state": "MD",
    "timezone": "America/New_York",
    "updated_at": "2012-07-08T00:05:33Z",
    "zip": "21716"
  },
  {
    "address": "650 Carroll Pky",
    "city": "Frederick",
    "county": "Frederick County",
    "created_at": "2012-01-04T20:15:06Z",
    "id": 11029,
    "latitude": "39.418298",
    "longitude": "-77.426255",
    "mascot": "Cadets",
    "name": "Frederick High School",
    "primary_color": "Gold",
    "secondary_color": "Black",
    "state": "MD",
    "timezone": "America/New_York",
    "updated_at": "2012-07-08T00:05:33Z",
    "zip": "21701"
  },
  {
    "address": "1501 N Market St",
    "city": "Frederick",
    "county": "Frederick County",
    "created_at": "2012-01-04T20:15:06Z",
    "id": 11030,
    "latitude": "39.432830",
    "longitude": "-77.404841",
    "mascot": "Patriots",
    "name": "Governor Thomas Johnson High School",
    "primary_color": "Royal",
    "secondary_color": "Red",
    "state": "MD",
    "timezone": "America/New_York",
    "updated_at": "2012-07-08T00:05:33Z",
    "zip": "21701"
  },
  {
    "address": "200 School House Dr",
    "city": "Middletown",
    "county": "Frederick County",
    "created_at": "2012-01-04T20:15:06Z",
    "id": 11031,
    "latitude": "39.443836",
    "longitude": "-77.540189",
    "mascot": "Knights",
    "name": "Middletown High School",
    "primary_color": "Orange",
    "secondary_color": "Black",
    "state": "MD",
    "timezone": "America/New_York",
    "updated_at": "2012-07-08T00:05:34Z",
    "zip": "21769"
  },
  {
    "address": "12013 Old Anapolis Rd",
    "city": "Frederick",
    "county": "Frederick County",
    "created_at": "2012-01-04T20:15:06Z",
    "id": 11032,
    "latitude": "39.434487",
    "longitude": "-77.247911",
    "mascot": "Lancers",
    "name": "Linganore High School",
    "primary_color": "Red",
    "secondary_color": "Black",
    "state": "MD",
    "timezone": "America/New_York",
    "updated_at": "2012-07-08T00:05:34Z",
    "zip": "21701"
  },
  {
    "address": "81 Frederick St",
    "city": "Walkersville",
    "county": "Frederick County",
    "created_at": "2012-01-04T20:15:06Z",
    "id": 11033,
    "latitude": "39.484351",
    "longitude": "-77.345143",
    "mascot": "Lions",
    "name": "Walkersville High School",
    "primary_color": "Gold",
    "secondary_color": "Royal",
    "state": "MD",
    "timezone": "America/New_York",
    "updated_at": "2012-07-08T00:05:34Z",
    "zip": "21793"
  },
  {
    "address": "14745 Sabillasville Rd",
    "city": "Thurmont",
    "county": "Frederick County",
    "created_at": "2012-01-04T20:15:06Z",
    "id": 11034,
    "latitude": "39.637562",
    "longitude": "-77.410639",
    "mascot": "Cougars",
    "name": "Catoctin High School",
    "primary_color": "Columbia Blue",
    "secondary_color": "Navy",
    "state": "MD",
    "timezone": "America/New_York",
    "updated_at": "2012-07-08T00:05:34Z",
    "zip": "21788"
  },
  {
    "address": "191 Waverley Dr",
    "city": "Frederick",
    "county": "Frederick County",
    "created_at": "2012-01-04T20:15:06Z",
    "id": 11035,
    "latitude": "39.427458",
    "longitude": "-77.460535",
    "mascot": null,
    "name": "Rock Creek School",
    "primary_color": "Red",
    "secondary_color": "White",
    "state": "MD",
    "timezone": "America/New_York",
    "updated_at": "2012-07-08T00:05:35Z",
    "zip": "21702"
  },
  {
    "address": "1445 Taney Ave",
    "city": "Frederick",
    "county": "Frederick County",
    "created_at": "2012-01-04T20:15:06Z",
    "id": 11036,
    "latitude": "39.438241",
    "longitude": "-77.412699",
    "mascot": null,
    "name": "Heather Ridge School",
    "primary_color": null,
    "secondary_color": null,
    "state": "MD",
    "timezone": "America/New_York",
    "updated_at": "2012-07-08T00:05:35Z",
    "zip": "21702"
  },
  {
    "address": "251 Paradise Rd",
    "city": "Aberdeen",
    "county": "Harford County",
    "created_at": "2012-01-04T20:15:06Z",
    "id": 11037,
    "latitude": "39.517792",
    "longitude": "-76.171591",
    "mascot": "Eagles",
    "name": "Aberdeen High School",
    "primary_color": "Gold",
    "secondary_color": "Royal",
    "state": "MD",
    "timezone": "America/New_York",
    "updated_at": "2012-07-08T00:05:35Z",
    "zip": "21001"
  },
  {
    "address": "100 Heighe St",
    "city": "Bel Air",
    "county": "Harford County",
    "created_at": "2012-01-04T20:15:07Z",
    "id": 11038,
    "latitude": "39.530820",
    "longitude": "-76.345543",
    "mascot": "Bobcats",
    "name": "Bel Air High School",
    "primary_color": "Navy",
    "secondary_color": "White",
    "state": "MD",
    "timezone": "America/New_York",
    "updated_at": "2012-07-08T00:05:36Z",
    "zip": "21014"
  },
  {
    "address": "2415 Willoughby Beach Rd",
    "city": "Edgewood",
    "county": "Harford County",
    "created_at": "2012-01-04T20:15:07Z",
    "id": 11039,
    "latitude": "39.423930",
    "longitude": "-76.290039",
    "mascot": "Rams",
    "name": "Edgewood High School",
    "primary_color": "Red",
    "secondary_color": "White",
    "state": "MD",
    "timezone": "America/New_York",
    "updated_at": "2012-07-08T00:05:36Z",
    "zip": "21040"
  },
  {
    "address": "700 Congress Ave",
    "city": "Havre De Grace",
    "county": "Harford County",
    "created_at": "2012-01-04T20:15:07Z",
    "id": 11040,
    "latitude": "39.547659",
    "longitude": "-76.095397",
    "mascot": "Warriors",
    "name": "Havre De Grace High School",
    "primary_color": "Gold",
    "secondary_color": "White",
    "state": "MD",
    "timezone": "America/New_York",
    "updated_at": "2012-07-08T00:05:36Z",
    "zip": "21078"
  },
  {
    "address": "211 Pylesville Rd",
    "city": "Pylesville",
    "county": "Harford County",
    "created_at": "2012-01-04T20:15:07Z",
    "id": 11041,
    "latitude": "39.676278",
    "longitude": "-76.401885",
    "mascot": "Hawks",
    "name": "North Harford High School",
    "primary_color": "Gold",
    "secondary_color": "Kelly Green",
    "state": "MD",
    "timezone": "America/New_York",
    "updated_at": "2012-07-08T00:05:36Z",
    "zip": "21132"
  },
  {
    "address": "100 Thomas Run Rd",
    "city": "Bel Air",
    "county": "Harford County",
    "created_at": "2012-01-04T20:15:07Z",
    "id": 11042,
    "latitude": "39.555182",
    "longitude": "-76.286531",
    "mascot": "Eagles",
    "name": "John Archer School",
    "primary_color": "Royal",
    "secondary_color": "Red",
    "state": "MD",
    "timezone": "America/New_York",
    "updated_at": "2012-07-08T00:05:37Z",
    "zip": "21015"
  },
  {
    "address": "555 Joppa Farm Rd",
    "city": "Joppa",
    "county": "Harford County",
    "created_at": "2012-01-04T20:15:07Z",
    "id": 11043,
    "latitude": "39.411899",
    "longitude": "-76.352309",
    "mascot": "Mariners",
    "name": "Joppatowne High School",
    "primary_color": "Purple",
    "secondary_color": "White",
    "state": "MD",
    "timezone": "America/New_York",
    "updated_at": "2012-07-08T00:05:37Z",
    "zip": "21085"
  },
  {
    "address": "2301 Carrs Mill Rd",
    "city": "Fallston",
    "county": "Harford County",
    "created_at": "2012-01-04T20:15:07Z",
    "id": 11044,
    "latitude": "39.522497",
    "longitude": "-76.414961",
    "mascot": "Cougars",
    "name": "Fallston High School",
    "primary_color": "Orange",
    "secondary_color": "Brown",
    "state": "MD",
    "timezone": "America/New_York",
    "updated_at": "2012-07-08T00:05:37Z",
    "zip": "21047"
  },
  {
    "address": "1301 N Fountain Green Rd",
    "city": "Bel Air",
    "county": "Harford County",
    "created_at": "2012-01-04T20:15:07Z",
    "id": 11045,
    "latitude": "39.562469",
    "longitude": "-76.332997",
    "mascot": "Mustangs",
    "name": "C Milton Wright High School",
    "primary_color": "Columbia Blue",
    "secondary_color": "White",
    "state": "MD",
    "timezone": "America/New_York",
    "updated_at": "2012-07-08T00:05:37Z",
    "zip": "21015"
  },
  {
    "address": "14025 Burnt Woods Rd",
    "city": "Glenelg",
    "county": "Howard County",
    "created_at": "2012-01-04T20:15:07Z",
    "id": 11046,
    "latitude": "39.275788",
    "longitude": "-77.000598",
    "mascot": "Gladiators",
    "name": "Glenelg High School",
    "primary_color": "Gray",
    "secondary_color": "Red",
    "state": "MD",
    "timezone": "America/New_York",
    "updated_at": "2012-07-08T00:05:38Z",
    "zip": "21737"
  },
  {
    "address": "8700 Old Annapolis Rd",
    "city": "Ellicott City",
    "county": "Howard County",
    "created_at": "2012-01-04T20:15:07Z",
    "id": 11047,
    "latitude": "39.240720",
    "longitude": "-76.839599",
    "mascot": "Lions",
    "name": "Howard High School",
    "primary_color": "Navy",
    "secondary_color": "White",
    "state": "MD",
    "timezone": "America/New_York",
    "updated_at": "2012-07-08T00:05:39Z",
    "zip": "21043"
  },
  {
    "address": "9440 Route 99 ",
    "city": "Ellicott City",
    "county": "Howard County",
    "created_at": "2012-01-04T20:15:07Z",
    "id": 11048,
    "latitude": "39.297523",
    "longitude": "-76.838800",
    "mascot": "Vikings",
    "name": "Mount Hebron High School",
    "primary_color": "Gold",
    "secondary_color": "Black",
    "state": "MD",
    "timezone": "America/New_York",
    "updated_at": "2012-07-08T00:05:39Z",
    "zip": "21042"
  },
  {
    "address": "12101 Rt 108",
    "city": "Clarksville",
    "county": "Howard County",
    "created_at": "2012-01-04T20:15:07Z",
    "id": 11049,
    "latitude": "39.217834",
    "longitude": "-76.931195",
    "mascot": "Hawks",
    "name": "River Hill High School",
    "primary_color": "Gold",
    "secondary_color": "Columbia Blue",
    "state": "MD",
    "timezone": "America/New_York",
    "updated_at": "2012-07-08T00:05:39Z",
    "zip": "21029"
  },
  {
    "address": "4300 Centennial Ln",
    "city": "Ellicott City",
    "county": "Howard County",
    "created_at": "2012-01-04T20:15:07Z",
    "id": 11050,
    "latitude": "39.252704",
    "longitude": "-76.867241",
    "mascot": "Eagles",
    "name": "Centennial High School",
    "primary_color": "Red",
    "secondary_color": "White",
    "state": "MD",
    "timezone": "America/New_York",
    "updated_at": "2012-07-08T00:05:39Z",
    "zip": "21042"
  },
  {
    "address": "12240 Rt 108",
    "city": "Clarksville",
    "county": "Howard County",
    "created_at": "2012-01-04T20:15:07Z",
    "id": 11051,
    "latitude": "39.210052",
    "longitude": "-76.939300",
    "mascot": null,
    "name": "Howard County Gateway School",
    "primary_color": null,
    "secondary_color": null,
    "state": "MD",
    "timezone": "America/New_York",
    "updated_at": "2012-07-08T00:05:39Z",
    "zip": "21029"
  },
  {
    "address": "25301 Lambs Meadow Rd",
    "city": "Worton",
    "county": "Kent County",
    "created_at": "2012-01-04T20:15:07Z",
    "id": 11052,
    "latitude": "39.285265",
    "longitude": "-76.095174",
    "mascot": "Trojans",
    "name": "Kent County High School",
    "primary_color": "Gold",
    "secondary_color": "Navy",
    "state": "MD",
    "timezone": "America/New_York",
    "updated_at": "2012-07-08T00:05:40Z",
    "zip": "21678"
  },
  {
    "address": "14501 Avery Rd",
    "city": "Rockville",
    "county": "Montgomery County",
    "created_at": "2012-01-04T20:15:07Z",
    "id": 11053,
    "latitude": "39.093230",
    "longitude": "-77.122918",
    "mascot": "Cobras",
    "name": "Mark Twain School",
    "primary_color": "Red",
    "secondary_color": "Black",
    "state": "MD",
    "timezone": "America/New_York",
    "updated_at": "2012-07-08T00:05:40Z",
    "zip": "20853"
  },
  {
    "address": "12501 Dalewood Dr",
    "city": "Silver Spring",
    "county": "Montgomery County",
    "created_at": "2012-01-04T20:15:07Z",
    "id": 11054,
    "latitude": "39.060122",
    "longitude": "-77.068858",
    "mascot": null,
    "name": "Thomas Edison High School",
    "primary_color": "Red ",
    "secondary_color": "Royal",
    "state": "MD",
    "timezone": "America/New_York",
    "updated_at": "2012-07-08T00:05:40Z",
    "zip": "20906"
  },
  {
    "address": "1901 Randolph Rd",
    "city": "Silver Spring",
    "county": "Montgomery County",
    "created_at": "2012-01-04T20:15:07Z",
    "id": 11055,
    "latitude": "39.063022",
    "longitude": "-77.041324",
    "mascot": "Cavaliers",
    "name": "John F Kennedy High School",
    "primary_color": "Kelly Green",
    "secondary_color": "Gold",
    "state": "MD",
    "timezone": "America/New_York",
    "updated_at": "2012-07-08T00:05:40Z",
    "zip": "20906"
  },
  {
    "address": "201 Valley Brook Dr",
    "city": "Silver Spring",
    "county": "Montgomery County",
    "created_at": "2012-01-04T20:15:07Z",
    "id": 11056,
    "latitude": "39.058063",
    "longitude": "-77.003649",
    "mascot": "Blue Devils",
    "name": "Springbrook High School",
    "primary_color": "Royal",
    "secondary_color": "Columbia Blue",
    "state": "MD",
    "timezone": "America/New_York",
    "updated_at": "2012-07-08T00:05:41Z",
    "zip": "20904"
  },
  {
    "address": "14121 Old Columbia Pike",
    "city": "Burtonsville",
    "county": "Montgomery County",
    "created_at": "2012-01-04T20:15:07Z",
    "id": 11057,
    "latitude": "39.088213",
    "longitude": "-76.948920",
    "mascot": "Panthers",
    "name": "Paint Branch Senior High School",
    "primary_color": "Gold",
    "secondary_color": "Maroon",
    "state": "MD",
    "timezone": "America/New_York",
    "updated_at": "2012-07-08T00:05:41Z",
    "zip": "20866"
  },
  {
    "address": "300 Olney-Sandy Spring Rd",
    "city": "Sandy Spring",
    "county": "Montgomery County",
    "created_at": "2012-01-04T20:15:07Z",
    "id": 11058,
    "latitude": "39.149091",
    "longitude": "-77.017717",
    "mascot": "Warriors",
    "name": "Sherwood High School",
    "primary_color": "Royal",
    "secondary_color": "White",
    "state": "MD",
    "timezone": "America/New_York",
    "updated_at": "2012-07-08T00:05:41Z",
    "zip": "20860"
  },
  {
    "address": "12601 Dalewood Dr",
    "city": "Wheaton",
    "county": "Montgomery County",
    "created_at": "2012-01-04T20:15:07Z",
    "id": 11059,
    "latitude": "39.061301",
    "longitude": "-77.068203",
    "mascot": "Knights",
    "name": "Wheaton High School",
    "primary_color": "Red",
    "secondary_color": "Gold",
    "state": "MD",
    "timezone": "America/New_York",
    "updated_at": "2012-07-08T00:05:42Z",
    "zip": "20906"
  },
  {
    "address": "250 Richard Montgomery Dr",
    "city": "Rockville",
    "county": "Montgomery County",
    "created_at": "2012-01-04T20:15:07Z",
    "id": 11060,
    "latitude": "39.078745",
    "longitude": "-77.145168",
    "mascot": "Rockets",
    "name": "Richard Montgomery High School",
    "primary_color": "Black",
    "secondary_color": "Gold",
    "state": "MD",
    "timezone": "America/New_York",
    "updated_at": "2012-07-08T00:05:42Z",
    "zip": "20852"
  },
  {
    "address": "919 University Blvd W",
    "city": "Silver Spring",
    "county": "Montgomery County",
    "created_at": "2012-01-04T20:15:07Z",
    "id": 11061,
    "latitude": "39.033904",
    "longitude": "-77.023900",
    "mascot": "Rams",
    "name": "Rockville High School",
    "primary_color": "Orange",
    "secondary_color": "Black",
    "state": "MD",
    "timezone": "America/New_York",
    "updated_at": "2012-07-08T00:05:42Z",
    "zip": "20901"
  },
  {
    "address": "11300 Gainsborough Rd",
    "city": "Potomac",
    "county": "Montgomery County",
    "created_at": "2012-01-04T20:15:07Z",
    "id": 11062,
    "latitude": "39.043948",
    "longitude": "-77.171587",
    "mascot": "Bulldogs",
    "name": "Winston Churchill High School",
    "primary_color": "Royal",
    "secondary_color": "Kelly Green",
    "state": "MD",
    "timezone": "America/New_York",
    "updated_at": "2012-07-08T00:05:42Z",
    "zip": "20854"
  },
  {
    "address": "6400 Rock Spring Dr",
    "city": "Bethesda",
    "county": "Montgomery County",
    "created_at": "2012-01-04T20:15:07Z",
    "id": 11063,
    "latitude": "39.026852",
    "longitude": "-77.127001",
    "mascot": "Wildcats",
    "name": "Walter Johnson High School",
    "primary_color": "Kelly Green",
    "secondary_color": "White",
    "state": "MD",
    "timezone": "America/New_York",
    "updated_at": "2012-07-08T00:05:43Z",
    "zip": "20814"
  },
  {
    "address": "25921 Ridge Rd",
    "city": "Damascus",
    "county": "Montgomery County",
    "created_at": "2012-01-04T20:15:07Z",
    "id": 11064,
    "latitude": "39.282934",
    "longitude": "-77.211262",
    "mascot": "Hornets",
    "name": "Damascus High School",
    "primary_color": "Kelly Green",
    "secondary_color": "White",
    "state": "MD",
    "timezone": "America/New_York",
    "updated_at": "2012-07-08T00:05:43Z",
    "zip": "20872"
  },
  {
    "address": "2100 Wootton Pky",
    "city": "Rockville",
    "county": "Montgomery County",
    "created_at": "2012-01-04T20:15:07Z",
    "id": 11065,
    "latitude": "39.075507",
    "longitude": "-77.182146",
    "mascot": "Patriots",
    "name": "Thomas S Wootton High School",
    "primary_color": "Red",
    "secondary_color": "White",
    "state": "MD",
    "timezone": "America/New_York",
    "updated_at": "2012-07-08T00:05:43Z",
    "zip": "20850"
  },
  {
    "address": "5939 Muncaster Mill Rd",
    "city": "Rockville",
    "county": "Montgomery County",
    "created_at": "2012-01-04T20:15:07Z",
    "id": 11066,
    "latitude": "39.129629",
    "longitude": "-77.118630",
    "mascot": "Colonels",
    "name": "Colonel Zadok McGruter High School",
    "primary_color": "Royal",
    "secondary_color": "Gray",
    "state": "MD",
    "timezone": "America/New_York",
    "updated_at": "2012-07-08T00:05:43Z",
    "zip": "20855"
  },
  {
    "address": "15800 Quince Orchard Rd",
    "city": "Gaithersburg",
    "county": "Montgomery County",
    "created_at": "2012-01-04T20:15:07Z",
    "id": 11067,
    "latitude": "39.115346",
    "longitude": "-77.252985",
    "mascot": "Cougars",
    "name": "Quince Orchard High School",
    "primary_color": "Red",
    "secondary_color": "Black",
    "state": "MD",
    "timezone": "America/New_York",
    "updated_at": "2012-07-08T00:05:44Z",
    "zip": "20878"
  },
  {
    "address": "10301 Apple Ridge Rd",
    "city": "Gaithersburg",
    "county": "Montgomery County",
    "created_at": "2012-01-04T20:15:07Z",
    "id": 11068,
    "latitude": "39.168176",
    "longitude": "-77.186972",
    "mascot": "Wolverines",
    "name": "Watkins Mill High School",
    "primary_color": "Orange",
    "secondary_color": "Royal",
    "state": "MD",
    "timezone": "America/New_York",
    "updated_at": "2012-07-08T00:05:44Z",
    "zip": "20879"
  },
  {
    "address": "8000 Cherry Ln",
    "city": "Laurel",
    "county": "Prince George's County",
    "created_at": "2012-01-04T20:15:07Z",
    "id": 11069,
    "latitude": "39.093358",
    "longitude": "-76.868695",
    "mascot": "Spartans",
    "name": "Laurel High School",
    "primary_color": "Gold",
    "secondary_color": "Royal",
    "state": "MD",
    "timezone": "America/New_York",
    "updated_at": "2012-07-08T00:05:44Z",
    "zip": "20707"
  },
  {
    "address": "7000 Adelphi Rd",
    "city": "Hyattsville",
    "county": "Prince George's County",
    "created_at": "2012-01-04T20:15:07Z",
    "id": 11070,
    "latitude": "38.975491",
    "longitude": "-76.952102",
    "mascot": "Wildcats",
    "name": "Northwestern High School",
    "primary_color": "Columbia Blue",
    "secondary_color": "Navy",
    "state": "MD",
    "timezone": "America/New_York",
    "updated_at": "2012-07-08T00:05:44Z",
    "zip": "20782"
  },
  {
    "address": "6901 Temple Hills Rd",
    "city": "Temple Hills",
    "county": "Prince George's County",
    "created_at": "2012-01-04T20:15:07Z",
    "id": 11071,
    "latitude": "38.795079",
    "longitude": "-76.928315",
    "mascot": "Cavaliers",
    "name": "Crossland High School",
    "primary_color": "White",
    "secondary_color": "Black",
    "state": "MD",
    "timezone": "America/New_York",
    "updated_at": "2012-07-08T00:05:45Z",
    "zip": "20748"
  },
  {
    "address": "6101 Garden Dr",
    "city": "Clinton",
    "county": "Prince George's County",
    "created_at": "2012-01-04T20:15:07Z",
    "id": 11072,
    "latitude": "38.762827",
    "longitude": "-76.903695",
    "mascot": "Hornets",
    "name": "Surrattsville High School",
    "primary_color": "Hunter Green",
    "secondary_color": "White",
    "state": "MD",
    "timezone": "America/New_York",
    "updated_at": "2012-07-08T00:05:45Z",
    "zip": "20735"
  },
  {
    "address": "7001 Beltz Dr",
    "city": "Forestville",
    "county": "Prince George's County",
    "created_at": "2012-01-04T20:15:07Z",
    "id": 11073,
    "latitude": "38.837396",
    "longitude": "-76.886632",
    "mascot": "Knights",
    "name": "Forestville High School",
    "primary_color": "Gray",
    "secondary_color": "Black",
    "state": "MD",
    "timezone": "America/New_York",
    "updated_at": "2012-07-08T00:05:45Z",
    "zip": "20747"
  },
  {
    "address": "4200 57th Avenue",
    "city": "Bladensburg",
    "county": "Prince George's County",
    "created_at": "2012-01-04T20:15:07Z",
    "id": 11074,
    "latitude": "38.940875",
    "longitude": "-76.917511",
    "mascot": "Mustangs",
    "name": "Bladensburg High School",
    "primary_color": "Maroon",
    "secondary_color": "White",
    "state": "MD",
    "timezone": "America/New_York",
    "updated_at": "2012-07-08T00:05:46Z",
    "zip": "20710"
  },
  {
    "address": "7601 Hanover Pky",
    "city": "Greenbelt",
    "county": "Prince George's County",
    "created_at": "2012-01-04T20:15:07Z",
    "id": 11075,
    "latitude": "38.996398",
    "longitude": "-76.870449",
    "mascot": "Raiders",
    "name": "Eleanor Roosevelt High School",
    "primary_color": "Columbia Blue",
    "secondary_color": "White",
    "state": "MD",
    "timezone": "America/New_York",
    "updated_at": "2012-07-08T00:05:46Z",
    "zip": "20770"
  },
  {
    "address": "6001 Good Luck Rd",
    "city": "Riverdale",
    "county": "Prince George's County",
    "created_at": "2012-01-04T20:15:07Z",
    "id": 11076,
    "latitude": "38.972376",
    "longitude": "-76.900359",
    "mascot": "Panthers",
    "name": "Parkdale High School",
    "primary_color": "Gold",
    "secondary_color": "Hunter Green",
    "state": "MD",
    "timezone": "America/New_York",
    "updated_at": "2012-07-08T00:05:46Z",
    "zip": "20737"
  },
  {
    "address": "15200 Annapolis Rd",
    "city": "Bowie",
    "county": "Prince George's County",
    "created_at": "2012-01-04T20:15:07Z",
    "id": 11077,
    "latitude": "38.977219",
    "longitude": "-76.742863",
    "mascot": "Bulldogs",
    "name": "Bowie High School",
    "primary_color": "Maroon",
    "secondary_color": "Navy",
    "state": "MD",
    "timezone": "America/New_York",
    "updated_at": "2012-07-08T00:05:46Z",
    "zip": "20715"
  },
  {
    "address": "9880 Good Luck Rd",
    "city": "Lanham",
    "county": "Prince George's County",
    "created_at": "2012-01-04T20:15:07Z",
    "id": 11078,
    "latitude": "38.987417",
    "longitude": "-76.837524",
    "mascot": "Tigers",
    "name": "DuVal High School",
    "primary_color": "Orange",
    "secondary_color": "Black",
    "state": "MD",
    "timezone": "America/New_York",
    "updated_at": "2012-07-08T00:05:47Z",
    "zip": "20706"
  },
  {
    "address": "1401 Nye St",
    "city": "Capitol Heights",
    "county": "Prince George's County",
    "created_at": "2012-01-04T20:15:07Z",
    "id": 11079,
    "latitude": "38.908468",
    "longitude": "-76.919061",
    "mascot": "Hornets",
    "name": "Fairmont Heights High School",
    "primary_color": "Gray",
    "secondary_color": "Maroon",
    "state": "MD",
    "timezone": "America/New_York",
    "updated_at": "2012-07-08T00:05:47Z",
    "zip": "20743"
  },
  {
    "address": "505 Largo Rd",
    "city": "Upper Marlboro",
    "county": "Prince George's County",
    "created_at": "2012-01-04T20:15:07Z",
    "id": 11080,
    "latitude": "38.888165",
    "longitude": "-76.820035",
    "mascot": "Lions",
    "name": "Largo High School",
    "primary_color": "Navy",
    "secondary_color": "Gray",
    "state": "MD",
    "timezone": "America/New_York",
    "updated_at": "2012-07-08T00:05:47Z",
    "zip": "20774"
  },
  {
    "address": "6701 Leyte Dr",
    "city": "Oxon Hill",
    "county": "Prince George's County",
    "created_at": "2012-01-04T20:15:07Z",
    "id": 11081,
    "latitude": "38.798294",
    "longitude": "-76.991687",
    "mascot": "Clipper Ships",
    "name": "Oxon Hill High School",
    "primary_color": "Gold",
    "secondary_color": "Black",
    "state": "MD",
    "timezone": "America/New_York",
    "updated_at": "2012-07-08T00:05:47Z",
    "zip": "20745"
  },
  {
    "address": "25390 Colton Point Rd",
    "city": "Morganza",
    "county": "St. Mary's County",
    "created_at": "2012-01-04T20:15:07Z",
    "id": 11082,
    "latitude": "38.375370",
    "longitude": "-76.695909",
    "mascot": "Braves",
    "name": "Chopticon High School",
    "primary_color": "Red",
    "secondary_color": "Black",
    "state": "MD",
    "timezone": "America/New_York",
    "updated_at": "2012-07-08T00:05:48Z",
    "zip": "20660"
  },
  {
    "address": "23995 Point Lookout Rd",
    "city": "Leonardtown",
    "county": "St. Mary's County",
    "created_at": "2012-01-04T20:15:07Z",
    "id": 11083,
    "latitude": "38.272441",
    "longitude": "-76.609769",
    "mascot": "Raiders",
    "name": "Leonardtown High School",
    "primary_color": "Gray",
    "secondary_color": "Royal",
    "state": "MD",
    "timezone": "America/New_York",
    "updated_at": "2012-07-08T00:05:48Z",
    "zip": "20650"
  },
  {
    "address": "210 N Somerset Ave",
    "city": "Crisfield",
    "county": "Somerset County",
    "created_at": "2012-01-04T20:15:07Z",
    "id": 11084,
    "latitude": "37.986402",
    "longitude": "-75.844275",
    "mascot": "Crabbers",
    "name": "Crisfield High School",
    "primary_color": "Gold",
    "secondary_color": "Purple",
    "state": "MD",
    "timezone": "America/New_York",
    "updated_at": "2012-07-08T00:05:48Z",
    "zip": "21817"
  },
  {
    "address": "723 Mecklenburg Ave",
    "city": "Easton",
    "county": "Talbot County",
    "created_at": "2012-01-04T20:15:07Z",
    "id": 11085,
    "latitude": "38.754820",
    "longitude": "-76.066970",
    "mascot": "Warriors",
    "name": "Easton High School",
    "primary_color": "Orange",
    "secondary_color": "Black",
    "state": "MD",
    "timezone": "America/New_York",
    "updated_at": "2012-07-08T00:05:48Z",
    "zip": "21601"
  },
  {
    "address": "10 Campus Ave",
    "city": "Boonsboro",
    "county": "Washington County",
    "created_at": "2012-01-04T20:15:07Z",
    "id": 11086,
    "latitude": "39.512648",
    "longitude": "-77.652242",
    "mascot": "Warriors",
    "name": "Boonsboro High School",
    "primary_color": "Navy",
    "secondary_color": "White",
    "state": "MD",
    "timezone": "America/New_York",
    "updated_at": "2012-07-08T00:05:49Z",
    "zip": "21713"
  },
  {
    "address": "12630 Broadfording Rd",
    "city": "Clear Spring",
    "county": "Washington County",
    "created_at": "2012-01-04T20:15:07Z",
    "id": 11087,
    "latitude": "39.656537",
    "longitude": "-77.935457",
    "mascot": "Blazers",
    "name": "Clear Spring High School",
    "primary_color": "Gold",
    "secondary_color": "Royal",
    "state": "MD",
    "timezone": "America/New_York",
    "updated_at": "2012-07-08T00:05:49Z",
    "zip": "21722"
  },
  {
    "address": "1200 Pennsylvania Ave",
    "city": "Hagerstown",
    "county": "Washington County",
    "created_at": "2012-01-04T20:15:07Z",
    "id": 11088,
    "latitude": "39.661576",
    "longitude": "-77.718577",
    "mascot": "Hubs",
    "name": "North Hagerstown High School",
    "primary_color": "Red",
    "secondary_color": "White",
    "state": "MD",
    "timezone": "America/New_York",
    "updated_at": "2012-07-08T00:05:49Z",
    "zip": "21742"
  },
  {
    "address": "1101 S Potomac St",
    "city": "Hagerstown",
    "county": "Washington County",
    "created_at": "2012-01-04T20:15:07Z",
    "id": 11089,
    "latitude": "39.619773",
    "longitude": "-77.729824",
    "mascot": "Rebels",
    "name": "South Hagerstown High School",
    "primary_color": "Kelly Green",
    "secondary_color": "White",
    "state": "MD",
    "timezone": "America/New_York",
    "updated_at": "2012-07-08T00:05:49Z",
    "zip": "21740"
  },
  {
    "address": "66 N Main St",
    "city": "Smithsburg",
    "county": "Washington County",
    "created_at": "2012-01-04T20:15:07Z",
    "id": 11090,
    "latitude": "39.658268",
    "longitude": "-77.575729",
    "mascot": "Leopards",
    "name": "Smithsburg High School",
    "primary_color": "Purple",
    "secondary_color": "Gold",
    "state": "MD",
    "timezone": "America/New_York",
    "updated_at": "2012-07-08T00:05:50Z",
    "zip": "21783"
  },
  {
    "address": "5 S Clifton Dr",
    "city": "Williamsport",
    "county": "Washington County",
    "created_at": "2012-01-04T20:15:07Z",
    "id": 11091,
    "latitude": "39.599967",
    "longitude": "-77.810422",
    "mascot": "Wildcats",
    "name": "Williamsport High School",
    "primary_color": "Royal",
    "secondary_color": "White",
    "state": "MD",
    "timezone": "America/New_York",
    "updated_at": "2012-07-08T00:05:50Z",
    "zip": "21795"
  },
  {
    "address": "1350 Marshall St",
    "city": "Hagerstown",
    "county": "Washington County",
    "created_at": "2012-01-04T20:15:07Z",
    "id": 11092,
    "latitude": "39.661451",
    "longitude": "-77.732119",
    "mascot": "Rainbows",
    "name": "Marshall Street School",
    "primary_color": "Maroon",
    "secondary_color": "Gold",
    "state": "MD",
    "timezone": "America/New_York",
    "updated_at": "2012-07-08T00:05:50Z",
    "zip": "21740"
  },
  {
    "address": "50 W Oak Ridge Dr",
    "city": "Hagerstown",
    "county": "Washington County",
    "created_at": "2012-01-04T20:15:07Z",
    "id": 11093,
    "latitude": "39.612809",
    "longitude": "-77.735952",
    "mascot": "Eagles",
    "name": "Washington County Technical High School",
    "primary_color": "Gray",
    "secondary_color": "Maroon",
    "state": "MD",
    "timezone": "America/New_York",
    "updated_at": "2012-07-08T00:05:50Z",
    "zip": "21740"
  },
  {
    "address": "1151 S Potomac",
    "city": "Hagerstown",
    "county": "Washington County",
    "created_at": "2012-01-04T20:15:07Z",
    "id": 11094,
    "latitude": "39.619155",
    "longitude": "-77.730070",
    "mascot": null,
    "name": "Washington County Alternative School",
    "primary_color": null,
    "secondary_color": null,
    "state": "MD",
    "timezone": "America/New_York",
    "updated_at": "2012-07-08T00:05:51Z",
    "zip": "21740"
  },
  {
    "address": "300 E College Ave",
    "city": "Salisbury",
    "county": "Wicomico County",
    "created_at": "2012-01-04T20:15:07Z",
    "id": 11095,
    "latitude": "38.347902",
    "longitude": "-75.594983",
    "mascot": "Clipper Ships",
    "name": "James M Bennett High School",
    "primary_color": "Black",
    "secondary_color": "Red",
    "state": "MD",
    "timezone": "America/New_York",
    "updated_at": "2012-07-08T00:05:51Z",
    "zip": "21804"
  },
  {
    "address": "24940 Delmar Rd",
    "city": "Mardela Springs",
    "county": "Wicomico County",
    "created_at": "2012-01-04T20:15:07Z",
    "id": 11096,
    "latitude": "38.463877",
    "longitude": "-75.748020",
    "mascot": "Indian Warriors",
    "name": "Mardela Middle & High School",
    "primary_color": "Gold",
    "secondary_color": "Hunter Green",
    "state": "MD",
    "timezone": "America/New_York",
    "updated_at": "2012-07-08T00:05:51Z",
    "zip": "21837"
  },
  {
    "address": "210 Long Ave",
    "city": "Salisbury",
    "county": "Wicomico County",
    "created_at": "2012-01-04T20:15:07Z",
    "id": 11097,
    "latitude": "38.365745",
    "longitude": "-75.582371",
    "mascot": "Wi-Hi Indians",
    "name": "Wicomico High School",
    "primary_color": "Royal",
    "secondary_color": "Gold",
    "state": "MD",
    "timezone": "America/New_York",
    "updated_at": "2012-07-08T00:05:51Z",
    "zip": "21801"
  },
  {
    "address": "1015 Beaglin Park Dr",
    "city": "Salisbury",
    "county": "Wicomico County",
    "created_at": "2012-01-04T20:15:07Z",
    "id": 11098,
    "latitude": "38.350096",
    "longitude": "-75.575155",
    "mascot": "Rams",
    "name": "Parkside High School",
    "primary_color": "Kelly Green",
    "secondary_color": "White",
    "state": "MD",
    "timezone": "America/New_York",
    "updated_at": "2012-07-08T00:05:52Z",
    "zip": "21804"
  },
  {
    "address": "5744 Colburne Ln",
    "city": "Snow Hill",
    "county": "Worcester County",
    "created_at": "2012-01-04T20:15:07Z",
    "id": 11099,
    "latitude": "38.165759",
    "longitude": "-75.397696",
    "mascot": null,
    "name": "Cedar Chapel Special School",
    "primary_color": "Royal",
    "secondary_color": "Gold",
    "state": "MD",
    "timezone": "America/New_York",
    "updated_at": "2012-07-08T00:05:52Z",
    "zip": "21863"
  },
  {
    "address": "1817 Old Virginia Rd",
    "city": "Pocomoke City",
    "county": "Worcester County",
    "created_at": "2012-01-04T20:15:07Z",
    "id": 11100,
    "latitude": "38.058186",
    "longitude": "-75.552701",
    "mascot": "Warriors",
    "name": "Pocomoke High School",
    "primary_color": "Gold",
    "secondary_color": "Royal",
    "state": "MD",
    "timezone": "America/New_York",
    "updated_at": "2012-07-08T00:05:52Z",
    "zip": "21851"
  },
  {
    "address": "305 S Church St",
    "city": "Snow Hill",
    "county": "Worcester County",
    "created_at": "2012-01-04T20:15:07Z",
    "id": 11101,
    "latitude": "38.170624",
    "longitude": "-75.392254",
    "mascot": "Eagles",
    "name": "Snow Hill High School",
    "primary_color": "Gray",
    "secondary_color": "Maroon",
    "state": "MD",
    "timezone": "America/New_York",
    "updated_at": "2012-07-08T00:05:53Z",
    "zip": "21863"
  },
  {
    "address": "9913 Seahawk Rd",
    "city": "Berlin",
    "county": "Worcester County",
    "created_at": "2012-01-04T20:15:07Z",
    "id": 11102,
    "latitude": "38.340823",
    "longitude": "-75.188722",
    "mascot": "Seahawks",
    "name": "Stephen Decatur High School",
    "primary_color": "Royal",
    "secondary_color": "White",
    "state": "MD",
    "timezone": "America/New_York",
    "updated_at": "2012-07-08T00:05:53Z",
    "zip": "21811"
  },
  {
    "address": "5909 Jefferson Pike",
    "city": "Frederick",
    "county": "Frederick County",
    "created_at": "2012-01-04T20:15:07Z",
    "id": 11103,
    "latitude": "39.395462",
    "longitude": "-77.459588",
    "mascot": "Rams",
    "name": "New Life Christian School",
    "primary_color": "Maroon",
    "secondary_color": "White",
    "state": "MD",
    "timezone": "America/New_York",
    "updated_at": "2012-07-08T00:05:53Z",
    "zip": "21703"
  },
  {
    "address": "11610 Green Castle Pike",
    "city": "Hagerstown",
    "county": "Washington County",
    "created_at": "2012-01-04T20:15:07Z",
    "id": 11104,
    "latitude": "39.637294",
    "longitude": "-77.807249",
    "mascot": null,
    "name": "Hillside Mennonite School",
    "primary_color": null,
    "secondary_color": null,
    "state": "MD",
    "timezone": "America/New_York",
    "updated_at": "2012-07-08T00:05:53Z",
    "zip": "21740"
  },
  {
    "address": "716 Bestgate Rd",
    "city": "Annapolis",
    "county": "Anne Arundel County",
    "created_at": "2012-01-04T20:15:07Z",
    "id": 11105,
    "latitude": "38.995822",
    "longitude": "-76.529839",
    "mascot": "Eagles",
    "name": "Annapolis Area Christian School",
    "primary_color": "Gold",
    "secondary_color": "Royal",
    "state": "MD",
    "timezone": "America/New_York",
    "updated_at": "2012-07-08T00:05:53Z",
    "zip": "21401"
  },
  {
    "address": "6700 Bock Rd",
    "city": "Fort Washington",
    "county": "Prince George's County",
    "created_at": "2012-01-04T20:15:07Z",
    "id": 11106,
    "latitude": "38.798077",
    "longitude": "-76.978171",
    "mascot": "Eagles",
    "name": "National Christian Academy",
    "primary_color": "Red",
    "secondary_color": "White",
    "state": "MD",
    "timezone": "America/New_York",
    "updated_at": "2012-07-08T00:05:54Z",
    "zip": "20744"
  },
  {
    "address": "2600 Marriottsville Rd",
    "city": "Marriottsville",
    "county": "Howard County",
    "created_at": "2012-01-04T20:15:07Z",
    "id": 11107,
    "latitude": "39.300043",
    "longitude": "-76.900390",
    "mascot": "Flames",
    "name": "Chapelgate Christian Academy",
    "primary_color": "Navy",
    "secondary_color": "Gold",
    "state": "MD",
    "timezone": "America/New_York",
    "updated_at": "2012-07-08T00:05:54Z",
    "zip": "21104"
  },
  {
    "address": "Rt 50 & 600 Edison St",
    "city": "Salisbury",
    "county": "Wicomico County",
    "created_at": "2012-01-04T20:15:07Z",
    "id": 11108,
    "latitude": "38.367390",
    "longitude": "-75.590809",
    "mascot": "Eagles",
    "name": "Parkway Christian Academy",
    "primary_color": "Navy",
    "secondary_color": "White",
    "state": "MD",
    "timezone": "America/New_York",
    "updated_at": "2012-07-08T00:05:54Z",
    "zip": "21802"
  },
  {
    "address": "3200 Randolph Rd",
    "city": "Wheaton",
    "county": "Montgomery County",
    "created_at": "2012-01-04T20:15:07Z",
    "id": 11109,
    "latitude": "39.059022",
    "longitude": "-77.064280",
    "mascot": "Warriors",
    "name": "Wheaton Christian School",
    "primary_color": "Royal",
    "secondary_color": "Gold",
    "state": "MD",
    "timezone": "America/New_York",
    "updated_at": "2012-07-08T00:05:55Z",
    "zip": "20902"
  },
  {
    "address": "9111 N Point Rd",
    "city": "Fort Howard",
    "county": "Baltimore County",
    "created_at": "2012-01-04T20:15:07Z",
    "id": 11110,
    "latitude": "39.198299",
    "longitude": "-76.443600",
    "mascot": "Flames",
    "name": "Baptist Christian School",
    "primary_color": "Royal",
    "secondary_color": "Gold",
    "state": "MD",
    "timezone": "America/New_York",
    "updated_at": "2012-07-08T00:05:55Z",
    "zip": "21052"
  },
  {
    "address": "8064 Newcut Rd",
    "city": "Severn",
    "county": "Anne Arundel County",
    "created_at": "2012-01-04T20:15:07Z",
    "id": 11111,
    "latitude": "39.122851",
    "longitude": "-76.644256",
    "mascot": "Warriors",
    "name": "Calvary Chapel Christian Academy",
    "primary_color": "Maroon",
    "secondary_color": "White",
    "state": "MD",
    "timezone": "America/New_York",
    "updated_at": "2012-07-08T00:05:55Z",
    "zip": "21144"
  },
  {
    "address": "10 E First Ave",
    "city": "Glen Burnie",
    "county": "Anne Arundel County",
    "created_at": "2012-01-04T20:15:07Z",
    "id": 11112,
    "latitude": "39.191235",
    "longitude": "-76.641517",
    "mascot": "Knights",
    "name": "North County High School",
    "primary_color": "Red",
    "secondary_color": "Black",
    "state": "MD",
    "timezone": "America/New_York",
    "updated_at": "2012-07-08T00:05:55Z",
    "zip": "21061"
  },
  {
    "address": "938 York Rd",
    "city": "Towson",
    "county": "Baltimore County",
    "created_at": "2012-01-04T20:15:07Z",
    "id": 11113,
    "latitude": "39.408949",
    "longitude": "-76.608341",
    "mascot": "Wildcats",
    "name": "Carver Center For Arts & Technology",
    "primary_color": "Hunter Green",
    "secondary_color": "Black",
    "state": "MD",
    "timezone": "America/New_York",
    "updated_at": "2012-07-08T00:05:56Z",
    "zip": "21204"
  },
  {
    "address": "12000 Reistertown Rd",
    "city": "Reisterstown",
    "county": "Baltimore County",
    "created_at": "2012-01-04T20:15:07Z",
    "id": 11114,
    "latitude": "39.465863",
    "longitude": "-76.809865",
    "mascot": "Indians",
    "name": "Franklin High School",
    "primary_color": "Red",
    "secondary_color": "Navy",
    "state": "MD",
    "timezone": "America/New_York",
    "updated_at": "2012-07-08T00:05:56Z",
    "zip": "21136"
  },
  {
    "address": "225 Kate Wagner Rd",
    "city": "Westminster",
    "county": "Carroll County",
    "created_at": "2012-01-04T20:15:07Z",
    "id": 11115,
    "latitude": "39.540063",
    "longitude": "-77.004021",
    "mascot": null,
    "name": "Gateway School",
    "primary_color": "Royal",
    "secondary_color": "White",
    "state": "MD",
    "timezone": "America/New_York",
    "updated_at": "2012-07-08T00:05:56Z",
    "zip": "21157"
  },
  {
    "address": "100 Tiger Dr",
    "city": "North East",
    "county": "Cecil County",
    "created_at": "2012-01-04T20:15:07Z",
    "id": 11116,
    "latitude": "39.690240",
    "longitude": "-75.973507",
    "mascot": "Tigers",
    "name": "Rising Sun High School",
    "primary_color": "Orange",
    "secondary_color": "Black",
    "state": "MD",
    "timezone": "America/New_York",
    "updated_at": "2012-07-08T00:05:57Z",
    "zip": "21901"
  },
  {
    "address": "3300 Middleton Rd",
    "city": "Waldorf",
    "county": "Charles County",
    "created_at": "2012-01-04T20:15:07Z",
    "id": 11117,
    "latitude": "38.621960",
    "longitude": "-76.968457",
    "mascot": "Wolverines",
    "name": "Westlake High School",
    "primary_color": "Orange",
    "secondary_color": "Aqua",
    "state": "MD",
    "timezone": "America/New_York",
    "updated_at": "2012-07-08T00:05:57Z",
    "zip": "20603"
  },
  {
    "address": "2465 Cambridge Bypass",
    "city": "Cambridge",
    "county": "Dorchester County",
    "created_at": "2012-01-04T20:15:07Z",
    "id": 11118,
    "latitude": "38.546061",
    "longitude": "-76.091354",
    "mascot": null,
    "name": "Dorchester School Of Technology",
    "primary_color": "Navy",
    "secondary_color": "White",
    "state": "MD",
    "timezone": "America/New_York",
    "updated_at": "2012-07-08T00:05:57Z",
    "zip": "21613"
  },
  {
    "address": "8000 Croom Rd",
    "city": "Upper Marlboro",
    "county": "Prince George's County",
    "created_at": "2012-01-04T20:15:07Z",
    "id": 11119,
    "latitude": "38.779465",
    "longitude": "-76.779761",
    "mascot": "Eagles",
    "name": "Frederick Douglass High School",
    "primary_color": "Maroon",
    "secondary_color": "Gold",
    "state": "MD",
    "timezone": "America/New_York",
    "updated_at": "2012-07-08T00:05:57Z",
    "zip": "20772"
  },
  {
    "address": "200 Seymour Ave",
    "city": "Saint Michaels",
    "county": "Talbot County",
    "created_at": "2012-01-04T20:15:07Z",
    "id": 11120,
    "latitude": "38.780282",
    "longitude": "-76.219172",
    "mascot": "Saints",
    "name": "Saint Michaels Middle High School",
    "primary_color": "Red",
    "secondary_color": "Black",
    "state": "MD",
    "timezone": "America/New_York",
    "updated_at": "2012-07-08T00:05:58Z",
    "zip": "21663"
  },
  {
    "address": "11135 Newport Mill Rd",
    "city": "Kensington",
    "county": "Montgomery County",
    "created_at": "2012-01-04T20:15:07Z",
    "id": 11121,
    "latitude": "39.039432",
    "longitude": "-77.070196",
    "mascot": "Titans",
    "name": "Albert Einstein High School",
    "primary_color": "Columbia Blue",
    "secondary_color": "Red",
    "state": "MD",
    "timezone": "America/New_York",
    "updated_at": "2012-07-08T00:05:58Z",
    "zip": "20895"
  },
  {
    "address": "250 W Bayfront Rd",
    "city": "Lothian",
    "county": "Anne Arundel County",
    "created_at": "2012-01-04T20:15:07Z",
    "id": 11122,
    "latitude": "38.781821",
    "longitude": "-76.618487",
    "mascot": "Trojans",
    "name": "Chesapeake Christian School",
    "primary_color": "Navy Blue",
    "secondary_color": "Gold",
    "state": "MD",
    "timezone": "America/New_York",
    "updated_at": "2012-07-08T00:05:58Z",
    "zip": "20711"
  },
  {
    "address": "5460 Trumpeter Rd",
    "city": "Columbia",
    "county": "Howard County",
    "created_at": "2012-01-04T20:15:07Z",
    "id": 11123,
    "latitude": "39.218336",
    "longitude": "-76.873095",
    "mascot": "Wildecats",
    "name": "Wilde Lake High School",
    "primary_color": "Gold",
    "secondary_color": "Kelly Green",
    "state": "MD",
    "timezone": "America/New_York",
    "updated_at": "2012-07-08T00:05:58Z",
    "zip": "21044"
  },
  {
    "address": "6101 Old Dobbin Ln",
    "city": "Columbia",
    "county": "Howard County",
    "created_at": "2012-01-04T20:15:07Z",
    "id": 11124,
    "latitude": "39.206798",
    "longitude": "-76.812398",
    "mascot": "Lightning Bolts",
    "name": "Long Reach High School",
    "primary_color": "Purple",
    "secondary_color": "Black",
    "state": "MD",
    "timezone": "America/New_York",
    "updated_at": "2012-07-08T00:05:59Z",
    "zip": "21045"
  },
  {
    "address": "101 Clarke Pl",
    "city": "Frederick",
    "county": "Frederick County",
    "created_at": "2012-01-04T20:15:07Z",
    "id": 11125,
    "latitude": "39.407897",
    "longitude": "-77.410022",
    "mascot": "Orioles",
    "name": "Maryland School For The Deaf",
    "primary_color": "Black",
    "secondary_color": "Orange",
    "state": "MD",
    "timezone": "America/New_York",
    "updated_at": "2012-07-08T00:05:59Z",
    "zip": "21705"
  },
  {
    "address": "807 Parker Rd",
    "city": "Salisbury",
    "county": "Wicomico County",
    "created_at": "2012-01-04T20:15:07Z",
    "id": 11126,
    "latitude": "38.389645",
    "longitude": "-75.550313",
    "mascot": "Jaguars",
    "name": "Salisbury Christian School Lower Campus",
    "primary_color": "Hunter Green",
    "secondary_color": "Maroon",
    "state": "MD",
    "timezone": "America/New_York",
    "updated_at": "2012-07-08T00:05:59Z",
    "zip": "21804"
  },
  {
    "address": "7982 Crisfield Hwy",
    "city": "Westover",
    "county": "Somerset County",
    "created_at": "2012-01-04T20:15:08Z",
    "id": 11127,
    "latitude": "38.099797",
    "longitude": "-75.716819",
    "mascot": null,
    "name": "J M Tawes Technology & Career Center",
    "primary_color": "Black",
    "secondary_color": "Yellow",
    "state": "MD",
    "timezone": "America/New_York",
    "updated_at": "2012-07-08T00:05:59Z",
    "zip": "21871"
  },
  {
    "address": "15100 Mt Calvert Rd",
    "city": "Upper Marlboro",
    "county": "Prince George's County",
    "created_at": "2012-01-04T20:15:08Z",
    "id": 11128,
    "latitude": "38.773526",
    "longitude": "-76.747026",
    "mascot": "Cougars",
    "name": "Croom Vocational High School",
    "primary_color": "Maroon",
    "secondary_color": "White",
    "state": "MD",
    "timezone": "America/New_York",
    "updated_at": "2012-07-08T00:06:00Z",
    "zip": "20772"
  },
  {
    "address": "2201 Presstman St",
    "city": "Baltimore",
    "county": "Baltimore County",
    "created_at": "2012-01-04T20:15:08Z",
    "id": 11129,
    "latitude": "39.305047",
    "longitude": "-76.652571",
    "mascot": "Bears",
    "name": "Carver Vo-Tech High School",
    "primary_color": "Royal",
    "secondary_color": "White",
    "state": "MD",
    "timezone": "America/New_York",
    "updated_at": "2012-07-08T00:06:00Z",
    "zip": "21216"
  },
  {
    "address": "200 Thomas Run Rd",
    "city": "Bel Air",
    "county": "Harford County",
    "created_at": "2012-01-04T20:15:08Z",
    "id": 11130,
    "latitude": "39.558231",
    "longitude": "-76.286321",
    "mascot": "Cobras",
    "name": "Harford Technical High School",
    "primary_color": "Gold",
    "secondary_color": "Black",
    "state": "MD",
    "timezone": "America/New_York",
    "updated_at": "2012-07-08T00:06:00Z",
    "zip": "21015"
  },
  {
    "address": "211 Central Ave E",
    "city": "Edgewater",
    "county": "Anne Arundel County",
    "created_at": "2012-01-04T20:15:08Z",
    "id": 11131,
    "latitude": "38.926088",
    "longitude": "-76.562681",
    "mascot": null,
    "name": "Center Of Applied Vocational Technical",
    "primary_color": "Red",
    "secondary_color": "Black",
    "state": "MD",
    "timezone": "America/New_York",
    "updated_at": "2012-07-08T00:06:01Z",
    "zip": "21037"
  },
  {
    "address": "1229 Washington Rd",
    "city": "Westminster",
    "county": "Carroll County",
    "created_at": "2012-01-04T20:15:08Z",
    "id": 11132,
    "latitude": "39.540601",
    "longitude": "-76.994107",
    "mascot": "Wolves",
    "name": "Carroll County Career And Vocational",
    "primary_color": "Gray",
    "secondary_color": "White",
    "state": "MD",
    "timezone": "America/New_York",
    "updated_at": "2012-07-08T00:06:01Z",
    "zip": "21157"
  },
  {
    "address": "1100 Mace Ave",
    "city": "Baltimore",
    "county": "Baltimore County",
    "created_at": "2012-01-04T20:15:08Z",
    "id": 11133,
    "latitude": "39.324098",
    "longitude": "-76.471887",
    "mascot": null,
    "name": "Eastern Technical High School",
    "primary_color": "Orange",
    "secondary_color": "Black",
    "state": "MD",
    "timezone": "America/New_York",
    "updated_at": "2012-07-08T00:06:01Z",
    "zip": "21221"
  },
  {
    "address": "3500 Hillen Rd",
    "city": "Baltimore",
    "county": "Baltimore County",
    "created_at": "2012-01-04T20:15:08Z",
    "id": 11134,
    "latitude": "39.331139",
    "longitude": "-76.589103",
    "mascot": "Mustangs",
    "name": "Mergenthaler Vocational Technical School",
    "primary_color": "Royal",
    "secondary_color": "Gold",
    "state": "MD",
    "timezone": "America/New_York",
    "updated_at": "2012-07-08T00:06:02Z",
    "zip": "21218"
  },
  {
    "address": "2112 Church Rd",
    "city": "Bowie",
    "county": "Prince George's County",
    "created_at": "2012-01-04T20:15:08Z",
    "id": 11135,
    "latitude": "38.918698",
    "longitude": "-76.757532",
    "mascot": "Tigers",
    "name": "Tall Oaks Vocational High School",
    "primary_color": "Kelly Green",
    "secondary_color": "White",
    "state": "MD",
    "timezone": "America/New_York",
    "updated_at": "2012-07-08T00:06:02Z",
    "zip": "20716"
  },
  {
    "address": "14211 McMullen Hwy",
    "city": "Cumberland",
    "county": "Allegany County",
    "created_at": "2012-01-04T20:15:08Z",
    "id": 11136,
    "latitude": "39.600460",
    "longitude": "-78.824185",
    "mascot": null,
    "name": "Center For Career & Technical Education",
    "primary_color": "Royal",
    "secondary_color": "Gray",
    "state": "MD",
    "timezone": "America/New_York",
    "updated_at": "2012-07-08T00:06:02Z",
    "zip": "21502"
  },
  {
    "address": "7922 Opossumtown Pk",
    "city": "Frederick",
    "county": "Frederick County",
    "created_at": "2012-01-04T20:15:08Z",
    "id": 11137,
    "latitude": "39.450783",
    "longitude": "-77.413055",
    "mascot": "Eagles",
    "name": "Frederick County Career & Technical",
    "primary_color": "Royal",
    "secondary_color": "Gold",
    "state": "MD",
    "timezone": "America/New_York",
    "updated_at": "2012-07-08T00:06:03Z",
    "zip": "21702"
  },
  {
    "address": "6268 Worcester Hwy",
    "city": "Newark",
    "county": "Worcester County",
    "created_at": "2012-01-04T20:15:08Z",
    "id": 11138,
    "latitude": "38.219734",
    "longitude": "-75.343744",
    "mascot": "Marlins",
    "name": "Worcester Career & Technology Center",
    "primary_color": "Gold",
    "secondary_color": "Hunter Green",
    "state": "MD",
    "timezone": "America/New_York",
    "updated_at": "2012-07-08T00:06:03Z",
    "zip": "21841"
  },
  {
    "address": "7775 Marshall Corner Rd",
    "city": "Pomfret",
    "county": "Charles County",
    "created_at": "2012-01-04T20:15:08Z",
    "id": 11139,
    "latitude": "38.570247",
    "longitude": "-77.030816",
    "mascot": null,
    "name": "Robert D. Stethem Educational Center",
    "primary_color": "Gray",
    "secondary_color": "Black",
    "state": "MD",
    "timezone": "America/New_York",
    "updated_at": "2012-07-08T00:06:03Z",
    "zip": "20675"
  },
  {
    "address": "10855 Central Ave",
    "city": "Ridgely",
    "county": "Caroline County",
    "created_at": "2012-01-04T20:15:08Z",
    "id": 11140,
    "latitude": "38.907547",
    "longitude": "-75.842796",
    "mascot": null,
    "name": "Caroline Career & Technology Center",
    "primary_color": null,
    "secondary_color": null,
    "state": "MD",
    "timezone": "America/New_York",
    "updated_at": "2012-07-08T00:06:03Z",
    "zip": "21660"
  },
  {
    "address": "900 N East Rd",
    "city": "North East",
    "county": "Cecil County",
    "created_at": "2012-01-04T20:15:08Z",
    "id": 11141,
    "latitude": "39.640127",
    "longitude": "-75.958418",
    "mascot": null,
    "name": "Cecil County School Of Technology",
    "primary_color": "Yellow",
    "secondary_color": "Kelly Green",
    "state": "MD",
    "timezone": "America/New_York",
    "updated_at": "2012-07-08T00:06:04Z",
    "zip": "21901"
  },
  {
    "address": "7009 Varnum St",
    "city": "Landover Hills",
    "county": "Prince George's County",
    "created_at": "2012-01-04T20:15:08Z",
    "id": 11142,
    "latitude": "38.944345",
    "longitude": "-76.894821",
    "mascot": null,
    "name": "New Hope Academy",
    "primary_color": "Gold",
    "secondary_color": "Royal",
    "state": "MD",
    "timezone": "America/New_York",
    "updated_at": "2012-07-08T00:06:04Z",
    "zip": "20784"
  },
  {
    "address": "325 Sollers Point Rd",
    "city": "Baltimore",
    "county": "Baltimore County",
    "created_at": "2012-01-04T20:15:08Z",
    "id": 11143,
    "latitude": "39.244169",
    "longitude": "-76.509641",
    "mascot": null,
    "name": "Sollers Point Southeastern Technical",
    "primary_color": "Red",
    "secondary_color": "White",
    "state": "MD",
    "timezone": "America/New_York",
    "updated_at": "2012-07-08T00:06:04Z",
    "zip": "21222"
  },
  {
    "address": "100 Kenwood Ave",
    "city": "Baltimore",
    "county": "Baltimore County",
    "created_at": "2012-01-04T20:15:08Z",
    "id": 11144,
    "latitude": "39.269446",
    "longitude": "-76.711335",
    "mascot": "Wolverines",
    "name": "Western School Of Technology",
    "primary_color": "Columbia Blue",
    "secondary_color": "Black",
    "state": "MD",
    "timezone": "America/New_York",
    "updated_at": "2012-07-08T00:06:05Z",
    "zip": "21228"
  },
  {
    "address": "11152 Falls Road",
    "city": "Brooklandville",
    "county": "Baltimore County",
    "created_at": "2012-01-04T20:15:08Z",
    "id": 11145,
    "latitude": "39.397580",
    "longitude": "-76.684509",
    "mascot": "Alligators",
    "name": "Saint Paul's School For Girls",
    "primary_color": "Kelly Green",
    "secondary_color": "White",
    "state": "MD",
    "timezone": "America/New_York",
    "updated_at": "2012-07-08T00:06:05Z",
    "zip": "21022"
  },
  {
    "address": "140 Stepney Ln",
    "city": "Edgewater",
    "county": "Anne Arundel County",
    "created_at": "2012-01-04T20:15:08Z",
    "id": 11146,
    "latitude": "38.925374",
    "longitude": "-76.566942",
    "mascot": "Dolphins",
    "name": "Central Special School",
    "primary_color": "Navy",
    "secondary_color": "White",
    "state": "MD",
    "timezone": "America/New_York",
    "updated_at": "2012-07-08T00:06:05Z",
    "zip": "21037"
  },
  {
    "address": "12485 Rousby Hall Rd",
    "city": "Lusby",
    "county": "Calvert County",
    "created_at": "2012-01-04T20:15:08Z",
    "id": 11147,
    "latitude": "38.357051",
    "longitude": "-76.433211",
    "mascot": "Panthers",
    "name": "Patuxent High School",
    "primary_color": "Hunter Green",
    "secondary_color": "Black",
    "state": "MD",
    "timezone": "America/New_York",
    "updated_at": "2012-07-08T00:06:06Z",
    "zip": "20657"
  },
  {
    "address": "3471 Campus Dr",
    "city": "Ijamsville",
    "county": "Frederick County",
    "created_at": "2012-01-04T20:15:08Z",
    "id": 11148,
    "latitude": "39.326524",
    "longitude": "-77.341348",
    "mascot": "Hawks",
    "name": "Urbana High School",
    "primary_color": "Gray",
    "secondary_color": "Royal",
    "state": "MD",
    "timezone": "America/New_York",
    "updated_at": "2012-07-08T00:06:06Z",
    "zip": "21754"
  },
  {
    "address": "23700 Stringtown Rd",
    "city": "Clarksberg",
    "county": "Montgomery County",
    "created_at": "2012-01-04T20:15:08Z",
    "id": 11149,
    "latitude": "39.245481",
    "longitude": "-77.264526",
    "mascot": null,
    "name": "Cedar Brook Academy",
    "primary_color": "Hunter Green",
    "secondary_color": "White",
    "state": "MD",
    "timezone": "America/New_York",
    "updated_at": "2012-07-08T00:06:06Z",
    "zip": "20871"
  },
  {
    "address": "3800 Hollins Ferry Rd",
    "city": "Baltimore",
    "county": "Baltimore County",
    "created_at": "2012-01-04T20:15:08Z",
    "id": 11150,
    "latitude": "39.245077",
    "longitude": "-76.648431",
    "mascot": null,
    "name": "Lansdowne High School Seniors",
    "primary_color": null,
    "secondary_color": null,
    "state": "MD",
    "timezone": "America/New_York",
    "updated_at": "2012-07-08T00:06:06Z",
    "zip": "21227"
  },
  {
    "address": "109 W Melrose Ave",
    "city": "Baltimore",
    "county": "Baltimore County",
    "created_at": "2012-01-04T20:15:08Z",
    "id": 11151,
    "latitude": "39.365425",
    "longitude": "-76.628406",
    "mascot": "Mawrtians",
    "name": "Bryn Mawr School",
    "primary_color": "Yellow",
    "secondary_color": "Kelly Green",
    "state": "MD",
    "timezone": "America/New_York",
    "updated_at": "2012-07-08T00:06:06Z",
    "zip": "21210"
  },
  {
    "address": "501 Bryan Point Rd",
    "city": "Accokeek",
    "county": "Prince George's County",
    "created_at": "2012-01-04T20:15:08Z",
    "id": 11152,
    "latitude": "38.672853",
    "longitude": "-77.016801",
    "mascot": "Black Hawks",
    "name": "Beddow Junior High & High School",
    "primary_color": "Maroon",
    "secondary_color": "Gray",
    "state": "MD",
    "timezone": "America/New_York",
    "updated_at": "2012-07-08T00:06:07Z",
    "zip": "20607"
  },
  {
    "address": "300 Norwood Rd",
    "city": "Silver Spring",
    "county": "Montgomery County",
    "created_at": "2012-01-04T20:15:08Z",
    "id": 11153,
    "latitude": "39.114204",
    "longitude": "-77.014909",
    "mascot": "Bangles",
    "name": "James Hubert Blake High School",
    "primary_color": "Royal",
    "secondary_color": "Black",
    "state": "MD",
    "timezone": "America/New_York",
    "updated_at": "2012-07-08T00:06:07Z",
    "zip": "20905"
  },
  {
    "address": "1500 Glencoe Rd",
    "city": "Glencoe",
    "county": "Baltimore County",
    "created_at": "2012-01-04T20:15:08Z",
    "id": 11154,
    "latitude": "39.553764",
    "longitude": "-76.627448",
    "mascot": "White Tigers & Green Dragons",
    "name": "Oldfields School",
    "primary_color": "Kelly Green",
    "secondary_color": "White",
    "state": "MD",
    "timezone": "America/New_York",
    "updated_at": "2012-07-08T00:06:07Z",
    "zip": "21152"
  },
  {
    "address": "7707 German Hill Rd",
    "city": "Baltimore",
    "county": "Baltimore County",
    "created_at": "2012-01-04T20:15:08Z",
    "id": 11155,
    "latitude": "39.281520",
    "longitude": "-76.529719",
    "mascot": "Hurricanes",
    "name": "High Road School",
    "primary_color": "Royal",
    "secondary_color": "Black",
    "state": "MD",
    "timezone": "America/New_York",
    "updated_at": "2012-07-08T00:06:08Z",
    "zip": "21236"
  },
  {
    "address": "900 Love Point Rd",
    "city": "Stevensville",
    "county": "Queen Anne's County",
    "created_at": "2012-01-04T20:15:08Z",
    "id": 11156,
    "latitude": "38.989481",
    "longitude": "-76.311634",
    "mascot": "Buccaneers",
    "name": "Kent Island High School",
    "primary_color": "Gray",
    "secondary_color": "Royal",
    "state": "MD",
    "timezone": "America/New_York",
    "updated_at": "2012-07-08T00:06:08Z",
    "zip": "21666"
  },
  {
    "address": "5998 Radio Station Rd",
    "city": "La Plata",
    "county": "Charles County",
    "created_at": "2012-01-04T20:15:08Z",
    "id": 11157,
    "latitude": "38.547692",
    "longitude": "-76.948439",
    "mascot": "Mustangs",
    "name": "F B Qwynn Education Center",
    "primary_color": "Royal",
    "secondary_color": "White",
    "state": "MD",
    "timezone": "America/New_York",
    "updated_at": "2012-07-08T00:06:08Z",
    "zip": "20646"
  },
  {
    "address": "13501 Richter Farm Rd",
    "city": "Germantown",
    "county": "Montgomery County",
    "created_at": "2012-01-04T20:15:08Z",
    "id": 11158,
    "latitude": "39.149654",
    "longitude": "-77.280118",
    "mascot": "Jaguars",
    "name": "Northwest High School",
    "primary_color": "Black",
    "secondary_color": "White",
    "state": "MD",
    "timezone": "America/New_York",
    "updated_at": "2012-07-08T00:06:08Z",
    "zip": "20874"
  },
  {
    "address": "45 Community Pl",
    "city": "Crownsville",
    "county": "Anne Arundel County",
    "created_at": "2012-01-04T20:15:08Z",
    "id": 11159,
    "latitude": "39.025847",
    "longitude": "-76.607492",
    "mascot": null,
    "name": "Mary E Moss Academy",
    "primary_color": null,
    "secondary_color": null,
    "state": "MD",
    "timezone": "America/New_York",
    "updated_at": "2012-07-08T00:06:08Z",
    "zip": "21032"
  },
  {
    "address": "10001 Ardwick Ardmore Rd",
    "city": "Springdale",
    "county": "Prince George's County",
    "created_at": "2012-01-04T20:15:08Z",
    "id": 11160,
    "latitude": "38.933352",
    "longitude": "-76.835417",
    "mascot": "Jaguars",
    "name": "Charles Herbert Flowers High School",
    "primary_color": "Gray",
    "secondary_color": "Kelly Green",
    "state": "MD",
    "timezone": "America/New_York",
    "updated_at": "2012-07-08T00:06:09Z",
    "zip": "20774"
  },
  {
    "address": "9029 Bradley Blvd",
    "city": "Potomac",
    "county": "Montgomery County",
    "created_at": "2012-01-04T20:15:08Z",
    "id": 11161,
    "latitude": "39.000057",
    "longitude": "-77.184938",
    "mascot": "Tigers",
    "name": "Connelly School Of The Holy Child",
    "primary_color": "Royal",
    "secondary_color": "Gold",
    "state": "MD",
    "timezone": "America/New_York",
    "updated_at": "2012-07-08T00:06:09Z",
    "zip": "20854"
  },
  {
    "address": "811 W Lanvale St",
    "city": "Baltimore",
    "county": "Baltimore County",
    "created_at": "2012-01-04T20:15:08Z",
    "id": 11162,
    "latitude": "39.298414",
    "longitude": "-76.633072",
    "mascot": "Bulldogs",
    "name": "Upton School",
    "primary_color": "Red",
    "secondary_color": "White",
    "state": "MD",
    "timezone": "America/New_York",
    "updated_at": "2012-07-08T00:06:12Z",
    "zip": "21217"
  },
  {
    "address": "3300 Gaither Rd",
    "city": "Baltimore",
    "county": "Baltimore County",
    "created_at": "2012-01-04T20:15:08Z",
    "id": 11163,
    "latitude": "39.347020",
    "longitude": "-76.762997",
    "mascot": "Scorpions",
    "name": "Strawbrige School",
    "primary_color": null,
    "secondary_color": null,
    "state": "MD",
    "timezone": "America/New_York",
    "updated_at": "2012-07-08T00:06:13Z",
    "zip": "21244"
  },
  {
    "address": "1750 E. Fairmount Avenue",
    "city": "Baltimore",
    "county": "Baltimore County",
    "created_at": "2012-01-04T20:15:08Z",
    "id": 11164,
    "latitude": "39.292699",
    "longitude": "-76.592387",
    "mascot": null,
    "name": "Kennedy Krieger School",
    "primary_color": null,
    "secondary_color": null,
    "state": "MD",
    "timezone": "America/New_York",
    "updated_at": "2012-07-08T00:06:13Z",
    "zip": "21231"
  },
  {
    "address": "6415 Mt Vista Rd",
    "city": "Kingsville",
    "county": "Baltimore County",
    "created_at": "2012-01-04T20:15:08Z",
    "id": 11165,
    "latitude": "39.459956",
    "longitude": "-76.454419",
    "mascot": null,
    "name": "Redeemer Classical Church School",
    "primary_color": null,
    "secondary_color": null,
    "state": "MD",
    "timezone": "America/New_York",
    "updated_at": "2012-07-08T00:06:13Z",
    "zip": "21087"
  },
  {
    "address": "560 Gorsuch Rd",
    "city": "Westminster",
    "county": "Carroll County",
    "created_at": "2012-01-04T20:15:08Z",
    "id": 11166,
    "latitude": "39.570332",
    "longitude": "-76.977716",
    "mascot": "Falcons",
    "name": "Winters Mill High School",
    "primary_color": "Maroon",
    "secondary_color": "Black",
    "state": "MD",
    "timezone": "America/New_York",
    "updated_at": "2012-07-08T00:06:13Z",
    "zip": "21157"
  },
  {
    "address": "4125 N Solomons Island Rd",
    "city": "Huntingtown",
    "county": "Calvert County",
    "created_at": "2012-01-04T20:15:08Z",
    "id": 11167,
    "latitude": "38.620774",
    "longitude": "-76.610911",
    "mascot": "Hurricanes",
    "name": "Huntingtown High School",
    "primary_color": "Columbia Blue",
    "secondary_color": "Navy",
    "state": "MD",
    "timezone": "America/New_York",
    "updated_at": "2012-07-08T00:06:14Z",
    "zip": "20639"
  },
  {
    "address": "2801 Saint Lo Dr",
    "city": "Baltimore",
    "county": "Baltimore County",
    "created_at": "2012-01-04T20:15:08Z",
    "id": 11168,
    "latitude": "39.316355",
    "longitude": "-76.589570",
    "mascot": null,
    "name": "Doris M Johnson High School",
    "primary_color": null,
    "secondary_color": null,
    "state": "MD",
    "timezone": "America/New_York",
    "updated_at": "2012-07-08T00:06:14Z",
    "zip": "21213"
  },
  {
    "address": "1009 N Washington",
    "city": "Easton",
    "county": "Talbot County",
    "created_at": "2012-01-04T20:15:08Z",
    "id": 11169,
    "latitude": "38.791894",
    "longitude": "-76.066242",
    "mascot": "Crusaders",
    "name": "Chesapeake Christian School",
    "primary_color": "Black",
    "secondary_color": "Gold",
    "state": "MD",
    "timezone": "America/New_York",
    "updated_at": "2012-07-08T00:06:14Z",
    "zip": "21601"
  },
  {
    "address": "4200 Old Washington Rd",
    "city": "Waldorf",
    "county": "Charles County",
    "created_at": "2012-01-04T20:15:08Z",
    "id": 11170,
    "latitude": "38.598432",
    "longitude": "-76.935025",
    "mascot": null,
    "name": "Waldorf Christian Academy",
    "primary_color": null,
    "secondary_color": null,
    "state": "MD",
    "timezone": "America/New_York",
    "updated_at": "2012-07-08T00:06:14Z",
    "zip": "20602"
  },
  {
    "address": "355 Ronsdale Road",
    "city": "Sykesville",
    "county": "Carroll County",
    "created_at": "2012-01-04T20:15:08Z",
    "id": 11171,
    "latitude": "39.424312",
    "longitude": "-76.987714",
    "mascot": "Knight",
    "name": "Century High School",
    "primary_color": "Green",
    "secondary_color": "White",
    "state": "MD",
    "timezone": "America/New_York",
    "updated_at": "2012-07-08T00:06:15Z",
    "zip": "21784"
  },
  {
    "address": "7321 Manchester Rd",
    "city": "Baltimore",
    "county": "Baltimore County",
    "created_at": "2012-01-04T20:15:08Z",
    "id": 11172,
    "latitude": "39.284368",
    "longitude": "-76.513199",
    "mascot": "Knights",
    "name": "Calvary Baptist School",
    "primary_color": "Blue",
    "secondary_color": "White",
    "state": "MD",
    "timezone": "America/New_York",
    "updated_at": "2012-07-08T00:06:15Z",
    "zip": "21222"
  },
  {
    "address": "2215 Chadwick St",
    "city": "Temple Hills",
    "county": "Prince George's County",
    "created_at": "2012-01-04T20:15:08Z",
    "id": 11173,
    "latitude": "38.840850",
    "longitude": "-76.965022",
    "mascot": "Eagles",
    "name": "Green Valley Academy",
    "primary_color": "Green ",
    "secondary_color": "White",
    "state": "MD",
    "timezone": "America/New_York",
    "updated_at": "2012-07-08T00:06:18Z",
    "zip": "20748"
  },
  {
    "address": "12100 Woodford Dr",
    "city": "Marriottsville",
    "county": "Howard County",
    "created_at": "2012-01-04T20:15:08Z",
    "id": 11174,
    "latitude": "39.320569",
    "longitude": "-76.935281",
    "mascot": "Mustangs",
    "name": "Marriots Ridge High School",
    "primary_color": "Blue",
    "secondary_color": "White",
    "state": "MD",
    "timezone": "America/New_York",
    "updated_at": "2012-07-08T00:06:19Z",
    "zip": "21104"
  },
  {
    "address": "200-210 North Bentalou Street",
    "city": "Baltimore",
    "county": "Baltimore County",
    "created_at": "2012-01-04T20:15:08Z",
    "id": 11175,
    "latitude": "39.290443",
    "longitude": "-76.653001",
    "mascot": null,
    "name": "Greater Youth Academy",
    "primary_color": "Purple",
    "secondary_color": "White",
    "state": "MD",
    "timezone": "America/New_York",
    "updated_at": "2012-07-08T00:06:19Z",
    "zip": "21223"
  },
  {
    "address": "10102 Country Club Rd",
    "city": "Cumberland",
    "county": "Allegany County",
    "created_at": "2012-01-04T20:15:08Z",
    "id": 11176,
    "latitude": "39.661755",
    "longitude": "-78.736188",
    "mascot": null,
    "name": "Jefferson School at Finan Center",
    "primary_color": null,
    "secondary_color": null,
    "state": "MD",
    "timezone": "America/New_York",
    "updated_at": "2012-07-08T00:06:19Z",
    "zip": "21501"
  },
  {
    "address": "1301 McCulloh Street ",
    "city": "Baltimore",
    "county": "Baltimore County",
    "created_at": "2012-01-04T20:15:08Z",
    "id": 11177,
    "latitude": "39.302650",
    "longitude": "-76.627894",
    "mascot": "Rattlesnake",
    "name": "Renaissance Academy",
    "primary_color": "Burgundy",
    "secondary_color": "Blue",
    "state": "MD",
    "timezone": "America/New_York",
    "updated_at": "2012-07-08T00:06:20Z",
    "zip": "21217"
  },
  {
    "address": "2022 Fallston Road",
    "city": "Bel Air",
    "county": "Harford County",
    "created_at": "2012-01-04T20:15:08Z",
    "id": 11178,
    "latitude": "39.536308",
    "longitude": "-76.350077",
    "mascot": null,
    "name": "James Run Christian Academy",
    "primary_color": null,
    "secondary_color": null,
    "state": "MD",
    "timezone": "America/New_York",
    "updated_at": "2012-07-08T00:06:20Z",
    "zip": "21014"
  },
  {
    "address": "101 S Caroline St",
    "city": "Baltimore",
    "county": "Baltimore County",
    "created_at": "2012-01-04T20:15:08Z",
    "id": 11179,
    "latitude": "39.290124",
    "longitude": "-76.597072",
    "mascot": "Freedom Fighters",
    "name": "Baltimore Freedom Academy",
    "primary_color": "Red ",
    "secondary_color": "White",
    "state": "MD",
    "timezone": "America/New_York",
    "updated_at": "2012-07-08T00:06:20Z",
    "zip": "21231"
  },
  {
    "address": "1515 Emmorton Rd",
    "city": "Bel Air",
    "county": "Harford County",
    "created_at": "2012-01-04T20:15:08Z",
    "id": 11180,
    "latitude": "39.513169",
    "longitude": "-76.328893",
    "mascot": null,
    "name": "Harford Lutheran School",
    "primary_color": "Blue",
    "secondary_color": "White",
    "state": "MD",
    "timezone": "America/New_York",
    "updated_at": "2012-07-08T00:06:20Z",
    "zip": "21014"
  }
]