[
  {
    "address": "315 W 5th St",
    "city": "Bowie",
    "county": "Cochise County",
    "created_at": "2012-01-04T20:13:37Z",
    "id": 3575,
    "latitude": "32.325432",
    "longitude": "-109.488346",
    "mascot": "Panthers",
    "name": "Bowie Unified School",
    "primary_color": "Red",
    "secondary_color": "White",
    "state": "AZ",
    "timezone": "America/Phoenix",
    "updated_at": "2012-07-07T22:58:45Z",
    "zip": "85605"
  },
  {
    "address": "1001 Main Street",
    "city": "Cibecue",
    "county": "Navajo County",
    "created_at": "2012-01-04T20:13:37Z",
    "id": 3576,
    "latitude": "34.094874",
    "longitude": "-110.523172",
    "mascot": "Wildcats",
    "name": "Cibecue High School",
    "primary_color": "Royal Blue",
    "secondary_color": "White",
    "state": "AZ",
    "timezone": "America/Phoenix",
    "updated_at": "2012-07-07T22:58:46Z",
    "zip": "85911"
  },
  {
    "address": "111 Hill St Box 1567",
    "city": "Clifton",
    "county": "Greenlee County",
    "created_at": "2012-01-04T20:13:38Z",
    "id": 3577,
    "latitude": "33.517248",
    "longitude": "-109.308597",
    "mascot": "Trojans",
    "name": "Clifton High School",
    "primary_color": "Gold",
    "secondary_color": "Maroon",
    "state": "AZ",
    "timezone": "America/Phoenix",
    "updated_at": "2012-07-07T22:58:46Z",
    "zip": "85533"
  },
  {
    "address": "108 Stadium",
    "city": "Duncan",
    "county": "Greenlee County",
    "created_at": "2012-01-04T20:13:38Z",
    "id": 3578,
    "latitude": "32.724298",
    "longitude": "-109.108455",
    "mascot": "Wildcats",
    "name": "Duncan Unified School",
    "primary_color": "Red",
    "secondary_color": "Gray",
    "state": "AZ",
    "timezone": "America/Phoenix",
    "updated_at": "2012-07-07T22:58:46Z",
    "zip": "85534"
  },
  {
    "address": "15502 W Hwy 70",
    "city": "Fort Thomas",
    "county": "Graham County",
    "created_at": "2012-01-04T20:13:38Z",
    "id": 3579,
    "latitude": "33.037200",
    "longitude": "-109.965699",
    "mascot": "Apaches",
    "name": "Fort Thomas Junior Senior High School",
    "primary_color": "Royal",
    "secondary_color": "Gold",
    "state": "AZ",
    "timezone": "America/Phoenix",
    "updated_at": "2012-07-07T22:58:47Z",
    "zip": "85536"
  },
  {
    "address": "131 S Main St",
    "city": "Pima",
    "county": "Graham County",
    "created_at": "2012-01-04T20:13:38Z",
    "id": 3580,
    "latitude": "32.893770",
    "longitude": "-109.827191",
    "mascot": "Rough Riders",
    "name": "Pima High School",
    "primary_color": "Gold",
    "secondary_color": "Royal",
    "state": "AZ",
    "timezone": "America/Phoenix",
    "updated_at": "2012-07-07T22:58:47Z",
    "zip": "85543"
  },
  {
    "address": "2226 W Business I-10",
    "city": "San Simon",
    "county": "Cochise County",
    "created_at": "2012-01-04T20:13:38Z",
    "id": 3581,
    "latitude": "32.266086",
    "longitude": "-109.225184",
    "mascot": "Longhorns",
    "name": "San Simon Unified School",
    "primary_color": "Kelly Green",
    "secondary_color": "White",
    "state": "AZ",
    "timezone": "America/Phoenix",
    "updated_at": "2012-07-07T22:58:47Z",
    "zip": "85632"
  },
  {
    "address": "46999 N 5th St",
    "city": "Ash Fork",
    "county": "Yavapai County",
    "created_at": "2012-01-04T20:13:38Z",
    "id": 3582,
    "latitude": "35.221936",
    "longitude": "-112.486643",
    "mascot": "Spartans",
    "name": "Ash Fork School",
    "primary_color": "Royal",
    "secondary_color": "Gold",
    "state": "AZ",
    "timezone": "America/Phoenix",
    "updated_at": "2012-07-07T22:58:47Z",
    "zip": "86320"
  },
  {
    "address": "3436 E Rio Virgin Rd",
    "city": "Littlefield",
    "county": "Mohave County",
    "created_at": "2012-01-04T20:13:38Z",
    "id": 3583,
    "latitude": "36.906340",
    "longitude": "-113.928314",
    "mascot": "Eagles",
    "name": "Beaver Dam Elementary School",
    "primary_color": "Royal",
    "secondary_color": "White",
    "state": "AZ",
    "timezone": "America/Phoenix",
    "updated_at": "2012-07-07T22:58:48Z",
    "zip": "86432"
  },
  {
    "address": "221 E Hortt Street",
    "city": "Fredonia",
    "county": "Coconino County",
    "created_at": "2012-01-04T20:13:38Z",
    "id": 3584,
    "latitude": "36.950850",
    "longitude": "-112.521999",
    "mascot": "Lynx",
    "name": "Fredonia High School",
    "primary_color": "Royal",
    "secondary_color": "White",
    "state": "AZ",
    "timezone": "America/Phoenix",
    "updated_at": "2012-07-07T22:58:48Z",
    "zip": "86022"
  },
  {
    "address": "1 Boulder St",
    "city": "Grand Canyon",
    "county": "Coconino County",
    "created_at": "2012-01-04T20:13:38Z",
    "id": 3585,
    "latitude": "36.052847",
    "longitude": "-112.141679",
    "mascot": "Phantoms",
    "name": "Grand Canyon School",
    "primary_color": "Red",
    "secondary_color": "Royal",
    "state": "AZ",
    "timezone": "America/Phoenix",
    "updated_at": "2012-07-07T22:58:48Z",
    "zip": "86023"
  },
  {
    "address": "4629 2nd North",
    "city": "Joseph City",
    "county": "Navajo County",
    "created_at": "2012-01-04T20:13:38Z",
    "id": 3586,
    "latitude": "34.958606",
    "longitude": "-110.323642",
    "mascot": "Wildcats",
    "name": "Joseph City Senior High School",
    "primary_color": "Gold",
    "secondary_color": "Royal",
    "state": "AZ",
    "timezone": "America/Phoenix",
    "updated_at": "2012-07-07T22:58:49Z",
    "zip": "86032"
  },
  {
    "address": "3450 Mustang Ave",
    "city": "Heber",
    "county": "Navajo County",
    "created_at": "2012-01-04T20:13:38Z",
    "id": 3587,
    "latitude": "34.435314",
    "longitude": "-110.586017",
    "mascot": "Mustangs",
    "name": "Mongollon High School",
    "primary_color": "Red",
    "secondary_color": "Black",
    "state": "AZ",
    "timezone": "America/Phoenix",
    "updated_at": "2012-07-07T22:58:49Z",
    "zip": "85928"
  },
  {
    "address": "16500 E. Highway 66",
    "city": "Peach Springs",
    "county": "Mohave County",
    "created_at": "2012-01-04T20:13:38Z",
    "id": 3588,
    "latitude": "35.529130",
    "longitude": "-113.425489",
    "mascot": "Warriors",
    "name": "Music Mountain High School",
    "primary_color": "Navy",
    "secondary_color": "White",
    "state": "AZ",
    "timezone": "America/Phoenix",
    "updated_at": "2012-07-07T22:58:50Z",
    "zip": "86434"
  },
  {
    "address": "3300 Sparrow Avenue",
    "city": "Flagstaff",
    "county": "Coconino County",
    "created_at": "2012-01-04T20:13:38Z",
    "id": 3589,
    "latitude": "35.199169",
    "longitude": "-111.606482",
    "mascot": "Spartans",
    "name": "Northland Preparatory Academy",
    "primary_color": "Navy",
    "secondary_color": "Burgundy",
    "state": "AZ",
    "timezone": "America/Phoenix",
    "updated_at": "2012-07-07T22:58:50Z",
    "zip": "86004"
  },
  {
    "address": "Highway 191",
    "city": "Rock Point",
    "county": "Apache County",
    "created_at": "2012-01-04T20:13:38Z",
    "id": 3590,
    "latitude": "36.718090",
    "longitude": "-109.621819",
    "mascot": "Cougars",
    "name": "Rock Point High School",
    "primary_color": "Maroon",
    "secondary_color": "Gold & White",
    "state": "AZ",
    "timezone": "America/Denver",
    "updated_at": "2012-07-07T22:58:51Z",
    "zip": "86545"
  },
  {
    "address": "Lupton Rd",
    "city": "Saint Michaels",
    "county": "Apache County",
    "created_at": "2012-01-04T20:13:38Z",
    "id": 3591,
    "latitude": "35.657720",
    "longitude": "-109.091409",
    "mascot": "Cardinals",
    "name": "Saint Michael High School",
    "primary_color": "Red",
    "secondary_color": "White",
    "state": "AZ",
    "timezone": "America/Denver",
    "updated_at": "2012-07-07T22:58:51Z",
    "zip": "86511"
  },
  {
    "address": "500 Main St",
    "city": "Seligman",
    "county": "Yavapai County",
    "created_at": "2012-01-04T20:13:38Z",
    "id": 3592,
    "latitude": "35.329180",
    "longitude": "-112.874629",
    "mascot": "Antelope",
    "name": "Seligman School",
    "primary_color": "Black",
    "secondary_color": "White",
    "state": "AZ",
    "timezone": "America/Phoenix",
    "updated_at": "2012-07-07T22:58:52Z",
    "zip": "86337"
  },
  {
    "address": "East Highway 160 & Route 98",
    "city": "Shonto",
    "county": "Navajo County",
    "created_at": "2012-01-04T20:13:38Z",
    "id": 3593,
    "latitude": "36.590176",
    "longitude": "-110.661430",
    "mascot": "Grizzlies",
    "name": "Shonto Prep High School",
    "primary_color": "Purple",
    "secondary_color": "White & Gold",
    "state": "AZ",
    "timezone": "America/Denver",
    "updated_at": "2012-07-07T22:58:53Z",
    "zip": "86054"
  },
  {
    "address": "440 S 7th St",
    "city": "Williams",
    "county": "Coconino County",
    "created_at": "2012-01-04T20:13:38Z",
    "id": 3594,
    "latitude": "35.245485",
    "longitude": "-112.192409",
    "mascot": "Vikings",
    "name": "Williams High School",
    "primary_color": "Orange",
    "secondary_color": "Black",
    "state": "AZ",
    "timezone": "America/Phoenix",
    "updated_at": "2012-07-07T22:58:54Z",
    "zip": "86046"
  },
  {
    "address": "2300 N Tanque Verde Loop",
    "city": "Tucson",
    "county": "Pima County",
    "created_at": "2012-01-04T20:13:38Z",
    "id": 3595,
    "latitude": "32.250079",
    "longitude": "-110.755597",
    "mascot": "Lynx",
    "name": "Academy Of Tucson",
    "primary_color": "Teal",
    "secondary_color": "Gray",
    "state": "AZ",
    "timezone": "America/Phoenix",
    "updated_at": "2012-07-07T22:58:54Z",
    "zip": "85749"
  },
  {
    "address": "111 Well Rd",
    "city": "Ajo",
    "county": "Pima County",
    "created_at": "2012-01-04T20:13:38Z",
    "id": 3596,
    "latitude": "32.372960",
    "longitude": "-112.858856",
    "mascot": "Raiders",
    "name": "Ajo Unified School District",
    "primary_color": "Red",
    "secondary_color": "White",
    "state": "AZ",
    "timezone": "America/Phoenix",
    "updated_at": "2012-07-07T22:58:54Z",
    "zip": "85321"
  },
  {
    "address": "1200 W. Speedway Blvd.",
    "city": "Tuscon",
    "county": "Pima County",
    "created_at": "2012-01-04T20:13:38Z",
    "id": 3597,
    "latitude": "32.235681",
    "longitude": "-110.990436",
    "mascot": "Sentinels",
    "name": "ASDB High School",
    "primary_color": "Blue",
    "secondary_color": "White",
    "state": "AZ",
    "timezone": "America/Phoenix",
    "updated_at": "2012-07-07T22:58:55Z",
    "zip": "85754"
  },
  {
    "address": "308 N Martin Ave",
    "city": "Gila Bend",
    "county": "Maricopa County",
    "created_at": "2012-01-04T20:13:38Z",
    "id": 3598,
    "latitude": "32.951312",
    "longitude": "-112.717400",
    "mascot": "Gila Monsters",
    "name": "Gila Bend High School",
    "primary_color": "Royal",
    "secondary_color": "White",
    "state": "AZ",
    "timezone": "America/Phoenix",
    "updated_at": "2012-07-07T22:58:55Z",
    "zip": "85337"
  },
  {
    "address": "6000 N Camino De La Tierra",
    "city": "Tucson",
    "county": "Pima County",
    "created_at": "2012-01-04T20:13:38Z",
    "id": 3599,
    "latitude": "32.316291",
    "longitude": "-111.037399",
    "mascot": "Griffins",
    "name": "Green Fields Country Day School",
    "primary_color": "Kelly Green",
    "secondary_color": "White",
    "state": "AZ",
    "timezone": "America/Phoenix",
    "updated_at": "2012-07-07T22:58:56Z",
    "zip": "85741"
  },
  {
    "address": "625 E Magee Rd",
    "city": "Tucson",
    "county": "Pima County",
    "created_at": "2012-01-04T20:13:38Z",
    "id": 3600,
    "latitude": "32.351876",
    "longitude": "-110.962985",
    "mascot": "Knights",
    "name": "Immaculate Heart High School",
    "primary_color": "Navy",
    "secondary_color": "White",
    "state": "AZ",
    "timezone": "America/Phoenix",
    "updated_at": "2012-07-07T22:58:56Z",
    "zip": "85704"
  },
  {
    "address": "555 E Patagonia Hwy",
    "city": "Nogales",
    "county": "Santa Cruz County",
    "created_at": "2012-01-04T20:13:38Z",
    "id": 3601,
    "latitude": "31.356016",
    "longitude": "-110.917826",
    "mascot": "Warriors",
    "name": "Lourdes Catholic School",
    "primary_color": "Navy",
    "secondary_color": "White",
    "state": "AZ",
    "timezone": "America/Phoenix",
    "updated_at": "2012-07-07T22:58:57Z",
    "zip": "85628"
  },
  {
    "address": "Hwy 82",
    "city": "Patagonia",
    "county": "Santa Cruz County",
    "created_at": "2012-01-04T20:13:38Z",
    "id": 3602,
    "latitude": "31.549980",
    "longitude": "-110.739439",
    "mascot": "Lobos",
    "name": "Patagonia Union High School",
    "primary_color": "Orange",
    "secondary_color": "Black",
    "state": "AZ",
    "timezone": "America/Phoenix",
    "updated_at": "2012-07-07T22:58:57Z",
    "zip": "85624"
  },
  {
    "address": "8800 E. 22nd Street",
    "city": "Tuscon",
    "county": "Pima County",
    "created_at": "2012-01-04T20:13:38Z",
    "id": 3603,
    "latitude": "32.206359",
    "longitude": "-110.803510",
    "mascot": "Wolves",
    "name": "Saint Augustine High School",
    "primary_color": "Scarlett",
    "secondary_color": "Silver",
    "state": "AZ",
    "timezone": "America/Phoenix",
    "updated_at": "2012-07-07T22:58:58Z",
    "zip": "85710"
  },
  {
    "address": "70 Patton St",
    "city": "Saint David",
    "county": "Cochise County",
    "created_at": "2012-01-04T20:13:38Z",
    "id": 3604,
    "latitude": "31.905274",
    "longitude": "-110.219909",
    "mascot": "Tigers",
    "name": "Saint David Unified School",
    "primary_color": "Gold",
    "secondary_color": "Royal",
    "state": "AZ",
    "timezone": "America/Phoenix",
    "updated_at": "2012-07-07T22:58:58Z",
    "zip": "85630"
  },
  {
    "address": "3231 N Craycroft Rd",
    "city": "Tucson",
    "county": "Pima County",
    "created_at": "2012-01-04T20:13:38Z",
    "id": 3605,
    "latitude": "32.265758",
    "longitude": "-110.875544",
    "mascot": "Hawks",
    "name": "Saint Gregory College Preparatory School",
    "primary_color": "Navy",
    "secondary_color": "White",
    "state": "AZ",
    "timezone": "America/Phoenix",
    "updated_at": "2012-07-07T22:58:59Z",
    "zip": "85712"
  },
  {
    "address": "4201 N. Melpomene Way",
    "city": "Tuscon",
    "county": "Pima County",
    "created_at": "2012-01-04T20:13:38Z",
    "id": 3606,
    "latitude": "32.285520",
    "longitude": "-110.755104",
    "mascot": "Hawks",
    "name": "Tanque Verde High School",
    "primary_color": "Green ",
    "secondary_color": "Black",
    "state": "AZ",
    "timezone": "America/Phoenix",
    "updated_at": "2012-07-07T22:58:59Z",
    "zip": "85749"
  },
  {
    "address": "Mile Marker 74",
    "city": "Sells",
    "county": "Pima County",
    "created_at": "2012-01-04T20:13:38Z",
    "id": 3607,
    "latitude": "32.028508",
    "longitude": "-111.963835",
    "mascot": "Eagles",
    "name": "Tohono O'odham High School",
    "primary_color": "Maroon",
    "secondary_color": "Gold",
    "state": "AZ",
    "timezone": "America/Phoenix",
    "updated_at": "2012-07-07T22:59:00Z",
    "zip": "85634"
  },
  {
    "address": "488 Jefferson St",
    "city": "Elfrida",
    "county": "Cochise County",
    "created_at": "2012-01-04T20:13:38Z",
    "id": 3608,
    "latitude": "31.720454",
    "longitude": "-109.533492",
    "mascot": "Blue Devils",
    "name": "Valley Union High School",
    "primary_color": "Royal",
    "secondary_color": "White",
    "state": "AZ",
    "timezone": "America/Phoenix",
    "updated_at": "2012-07-07T22:59:00Z",
    "zip": "85610"
  },
  {
    "address": "Box 515 Breezy Cir",
    "city": "Bagdad",
    "county": "Yavapai County",
    "created_at": "2012-01-04T20:13:38Z",
    "id": 3609,
    "latitude": "34.595140",
    "longitude": "-113.168169",
    "mascot": "Bagdad Sultans",
    "name": "Bagdad High School",
    "primary_color": "Royal",
    "secondary_color": "Gray",
    "state": "AZ",
    "timezone": "America/Phoenix",
    "updated_at": "2012-07-07T22:59:01Z",
    "zip": "86321"
  },
  {
    "address": "21000 N. 75th Avenue",
    "city": "Glendale",
    "county": "Maricopa County",
    "created_at": "2012-01-04T20:13:38Z",
    "id": 3610,
    "latitude": "33.673812",
    "longitude": "-112.220487",
    "mascot": "Eagles",
    "name": "Joy Christian High School",
    "primary_color": "Royal",
    "secondary_color": "Red & White",
    "state": "AZ",
    "timezone": "America/Phoenix",
    "updated_at": "2012-07-07T22:59:01Z",
    "zip": "85308"
  },
  {
    "address": "17300 E Mule Deer Dr.",
    "city": "Mayer",
    "county": "Yavapai County",
    "created_at": "2012-01-04T20:13:38Z",
    "id": 3611,
    "latitude": "34.349220",
    "longitude": "-112.160505",
    "mascot": "Wildcats",
    "name": "Mayer Junior Senior High School",
    "primary_color": "Red",
    "secondary_color": "Royal",
    "state": "AZ",
    "timezone": "America/Phoenix",
    "updated_at": "2012-07-07T22:59:02Z",
    "zip": "86333"
  },
  {
    "address": "1935 W. Hayward",
    "city": "Phoenix",
    "county": "Maricopa County",
    "created_at": "2012-01-04T20:13:38Z",
    "id": 3612,
    "latitude": "33.550674",
    "longitude": "-112.101241",
    "mascot": "Roadrunners",
    "name": "Phoenix Day School for the Deaf High School",
    "primary_color": "Blue ",
    "secondary_color": "Gold",
    "state": "AZ",
    "timezone": "America/Phoenix",
    "updated_at": "2012-07-07T22:59:04Z",
    "zip": "85021"
  },
  {
    "address": "2645 E Osborn Rd",
    "city": "Phoenix",
    "county": "Maricopa County",
    "created_at": "2012-01-04T20:13:38Z",
    "id": 3613,
    "latitude": "33.487648",
    "longitude": "-112.024437",
    "mascot": "Lions",
    "name": "Saint Paul's Preparatory Academy",
    "primary_color": "Gold",
    "secondary_color": "Royal",
    "state": "AZ",
    "timezone": "America/Phoenix",
    "updated_at": "2012-07-07T22:59:04Z",
    "zip": "85016"
  },
  {
    "address": "67488 E Salome Rd",
    "city": "Salome",
    "county": "La Paz County",
    "created_at": "2012-01-04T20:13:38Z",
    "id": 3614,
    "latitude": "33.774165",
    "longitude": "-113.599885",
    "mascot": "Frogs",
    "name": "Salome High School",
    "primary_color": "Kelly Green",
    "secondary_color": "White",
    "state": "AZ",
    "timezone": "America/Phoenix",
    "updated_at": "2012-07-07T22:59:05Z",
    "zip": "85348"
  },
  {
    "address": "10005 E. Osborn rd",
    "city": "Scottsdale",
    "county": "Maricopa County",
    "created_at": "2012-01-04T20:13:38Z",
    "id": 3615,
    "latitude": "33.487739",
    "longitude": "-111.864419",
    "mascot": "Eagles",
    "name": "Salt River High School",
    "primary_color": "Black",
    "secondary_color": "Gold",
    "state": "AZ",
    "timezone": "America/Phoenix",
    "updated_at": "2012-07-07T22:59:05Z",
    "zip": "85256"
  },
  {
    "address": "1424 S. Promenade Lane",
    "city": "Gilbert",
    "county": "Maricopa County",
    "created_at": "2012-01-04T20:13:38Z",
    "id": 3616,
    "latitude": "33.324553",
    "longitude": "-111.727201",
    "mascot": "Knights",
    "name": "Surrey Garden High School",
    "primary_color": "Gold",
    "secondary_color": "Green",
    "state": "AZ",
    "timezone": "America/Phoenix",
    "updated_at": "2012-07-07T22:59:06Z",
    "zip": "85296"
  },
  {
    "address": "1251 E Southern",
    "city": "Tempe",
    "county": "Maricopa County",
    "created_at": "2012-01-04T20:13:38Z",
    "id": 3617,
    "latitude": "33.392957",
    "longitude": "-111.919219",
    "mascot": "",
    "name": "Tempe Preparatory Academy",
    "primary_color": "",
    "secondary_color": "",
    "state": "AZ",
    "timezone": "America/Phoenix",
    "updated_at": "2012-07-07T22:59:06Z",
    "zip": "85282"
  },
  {
    "address": "HC 63 Box 3040",
    "city": "Orme",
    "county": "Yavapai County",
    "created_at": "2012-01-04T20:13:38Z",
    "id": 3618,
    "latitude": "34.348544",
    "longitude": "-112.150556",
    "mascot": "Warriors",
    "name": "The Orme School",
    "primary_color": "Red",
    "secondary_color": "White",
    "state": "AZ",
    "timezone": "America/Phoenix",
    "updated_at": "2012-07-07T22:59:07Z",
    "zip": "86333"
  },
  {
    "address": "525 W Colter St",
    "city": "Phoenix",
    "county": "Maricopa County",
    "created_at": "2012-01-04T20:13:38Z",
    "id": 3619,
    "latitude": "33.512910",
    "longitude": "-112.080687",
    "mascot": "Flames",
    "name": "Valley Lutheran High School",
    "primary_color": "Gray",
    "secondary_color": "Red",
    "state": "AZ",
    "timezone": "America/Phoenix",
    "updated_at": "2012-07-07T22:59:07Z",
    "zip": "85013"
  },
  {
    "address": "3511 Verde Valley School Rd",
    "city": "Sedona",
    "county": "Yavapai County",
    "created_at": "2012-01-04T20:13:38Z",
    "id": 3620,
    "latitude": "34.805467",
    "longitude": "-111.798911",
    "mascot": "Coyotes",
    "name": "Verde Valley School",
    "primary_color": "Kelly Green",
    "secondary_color": "White",
    "state": "AZ",
    "timezone": "America/Phoenix",
    "updated_at": "2012-07-07T22:59:08Z",
    "zip": "86351"
  },
  {
    "address": "2131 E Lincoln Dr",
    "city": "Phoenix",
    "county": "Maricopa County",
    "created_at": "2012-01-04T20:13:38Z",
    "id": 3621,
    "latitude": "33.538352",
    "longitude": "-112.035932",
    "mascot": "Falcons",
    "name": "Veritas Preparatory Academy",
    "primary_color": "Blue",
    "secondary_color": "Silver",
    "state": "AZ",
    "timezone": "America/Phoenix",
    "updated_at": "2012-07-07T22:59:09Z",
    "zip": "85016"
  },
  {
    "address": "1326 Montezuma Castle Rd",
    "city": "Camp Verde",
    "county": "Yavapai County",
    "created_at": "2012-01-04T20:13:38Z",
    "id": 3622,
    "latitude": "34.587876",
    "longitude": "-111.855898",
    "mascot": "Cowboys",
    "name": "Camp Verde High School",
    "primary_color": "Royal",
    "secondary_color": "White",
    "state": "AZ",
    "timezone": "America/Phoenix",
    "updated_at": "2012-07-07T22:59:09Z",
    "zip": "86322"
  },
  {
    "address": "20061 Rittenhouse Rd.",
    "city": "Queen Creek",
    "county": "Maricopa County",
    "created_at": "2012-01-04T20:13:38Z",
    "id": 3623,
    "latitude": "33.266020",
    "longitude": "-111.650732",
    "mascot": "Rams",
    "name": "Canyon State Academy High School",
    "primary_color": "Maroon",
    "secondary_color": "Silver",
    "state": "AZ",
    "timezone": "America/Phoenix",
    "updated_at": "2012-07-07T22:59:10Z",
    "zip": "85242"
  },
  {
    "address": "16233 South 48th Street",
    "city": "Phoenix",
    "county": "Maricopa County",
    "created_at": "2012-01-04T20:13:38Z",
    "id": 3624,
    "latitude": "33.299570",
    "longitude": "-111.980341",
    "mascot": "Eagles",
    "name": "Horizon Honors High School",
    "primary_color": "Columbia Blue",
    "secondary_color": "Black & Silver",
    "state": "AZ",
    "timezone": "America/Phoenix",
    "updated_at": "2012-07-07T22:59:11Z",
    "zip": "85048"
  },
  {
    "address": "10215 North 43rd Avenue",
    "city": "Phoenix",
    "county": "Maricopa County",
    "created_at": "2012-01-04T20:13:38Z",
    "id": 3625,
    "latitude": "33.579146",
    "longitude": "-112.151555",
    "mascot": "Falcons",
    "name": "North Point Prep High School",
    "primary_color": "Purple",
    "secondary_color": "Black",
    "state": "AZ",
    "timezone": "America/Phoenix",
    "updated_at": "2012-07-07T22:59:11Z",
    "zip": "85051"
  },
  {
    "address": "16401 N. 43rd Ave.",
    "city": "Phoenix",
    "county": "Maricopa County",
    "created_at": "2012-01-04T20:13:38Z",
    "id": 3626,
    "latitude": "33.635223",
    "longitude": "-112.151340",
    "mascot": "Crusaders",
    "name": "Northwest Christian Academy",
    "primary_color": "Gold",
    "secondary_color": "Purple",
    "state": "AZ",
    "timezone": "America/Phoenix",
    "updated_at": "2012-07-07T22:59:12Z",
    "zip": "85053"
  },
  {
    "address": "3901 E Stanford Drive",
    "city": "Paradise Valley",
    "county": "Maricopa County",
    "created_at": "2012-01-04T20:13:38Z",
    "id": 3627,
    "latitude": "33.517227",
    "longitude": "-111.997451",
    "mascot": "Eagles",
    "name": "Phoenix Country Day School",
    "primary_color": "Gold",
    "secondary_color": "Royal",
    "state": "AZ",
    "timezone": "America/Phoenix",
    "updated_at": "2012-07-07T22:59:12Z",
    "zip": "85253"
  },
  {
    "address": "14400 N Tatum Blvd",
    "city": "Phoenix",
    "county": "Maricopa County",
    "created_at": "2012-01-04T20:13:38Z",
    "id": 3628,
    "latitude": "33.617036",
    "longitude": "-111.977985",
    "mascot": "Eagles",
    "name": "Scottsdale Christian School",
    "primary_color": "Red",
    "secondary_color": "White",
    "state": "AZ",
    "timezone": "America/Phoenix",
    "updated_at": "2012-07-07T22:59:13Z",
    "zip": "85032"
  },
  {
    "address": "6900 W Galveston",
    "city": "Chandler",
    "county": "Maricopa County",
    "created_at": "2012-01-04T20:13:38Z",
    "id": 3629,
    "latitude": "33.312677",
    "longitude": "-111.961134",
    "mascot": "Trojans",
    "name": "Valley Christian High School",
    "primary_color": "Royal",
    "secondary_color": "Gray",
    "state": "AZ",
    "timezone": "America/Phoenix",
    "updated_at": "2012-07-07T22:59:14Z",
    "zip": "85226"
  },
  {
    "address": "360 S Patagonia St",
    "city": "Benson",
    "county": "Cochise County",
    "created_at": "2012-01-04T20:13:38Z",
    "id": 3630,
    "latitude": "31.965656",
    "longitude": "-110.298202",
    "mascot": "Bobcats",
    "name": "Benson Union High School",
    "primary_color": "Royal",
    "secondary_color": "Red",
    "state": "AZ",
    "timezone": "America/Phoenix",
    "updated_at": "2012-07-07T22:59:14Z",
    "zip": "85602"
  },
  {
    "address": "100 Old Douglas Rd",
    "city": "Bisbee",
    "county": "Cochise County",
    "created_at": "2012-01-04T20:13:38Z",
    "id": 3631,
    "latitude": "31.428949",
    "longitude": "-109.888650",
    "mascot": "Pumas",
    "name": "Bisbee High School",
    "primary_color": "Red",
    "secondary_color": "Gray",
    "state": "AZ",
    "timezone": "America/Phoenix",
    "updated_at": "2012-07-07T22:59:15Z",
    "zip": "85603"
  },
  {
    "address": "7525 E. Speedway Blvd.",
    "city": "Tucson",
    "county": "Pima County",
    "created_at": "2012-01-04T20:13:38Z",
    "id": 3632,
    "latitude": "32.235668",
    "longitude": "-110.831501",
    "mascot": "Eagles",
    "name": "Desert Christian High School",
    "primary_color": "Royal",
    "secondary_color": "White",
    "state": "AZ",
    "timezone": "America/Phoenix",
    "updated_at": "2012-07-07T22:59:16Z",
    "zip": "85710"
  },
  {
    "address": "PO Box 1060",
    "city": "Morenci",
    "county": "Greenlee County",
    "created_at": "2012-01-04T20:13:38Z",
    "id": 3633,
    "latitude": "33.045900",
    "longitude": "-109.329267",
    "mascot": "Wildcats",
    "name": "Morenci Junior Senior High School",
    "primary_color": "Red",
    "secondary_color": "Black",
    "state": "AZ",
    "timezone": "America/Phoenix",
    "updated_at": "2012-07-07T22:59:16Z",
    "zip": "85540"
  },
  {
    "address": "601 N 3rd Ave",
    "city": "Thatcher",
    "county": "Graham County",
    "created_at": "2012-01-04T20:13:38Z",
    "id": 3634,
    "latitude": "32.845810",
    "longitude": "-109.754989",
    "mascot": "Eagles",
    "name": "Thatcher High School",
    "primary_color": "Kelly Green",
    "secondary_color": "White",
    "state": "AZ",
    "timezone": "America/Phoenix",
    "updated_at": "2012-07-07T22:59:17Z",
    "zip": "85552"
  },
  {
    "address": "605 Fremont St",
    "city": "Tombstone",
    "county": "Cochise County",
    "created_at": "2012-01-04T20:13:38Z",
    "id": 3635,
    "latitude": "31.712660",
    "longitude": "-110.063840",
    "mascot": "Yellow Jackets",
    "name": "Tombstone High School",
    "primary_color": "Gold",
    "secondary_color": "Black",
    "state": "AZ",
    "timezone": "America/Phoenix",
    "updated_at": "2012-07-07T22:59:17Z",
    "zip": "85638"
  },
  {
    "address": "240 N Bisbee Ave",
    "city": "Willcox",
    "county": "Cochise County",
    "created_at": "2012-01-04T20:13:38Z",
    "id": 3636,
    "latitude": "32.256212",
    "longitude": "-109.841350",
    "mascot": "Cowboys",
    "name": "Willcox High School",
    "primary_color": "Red",
    "secondary_color": "White",
    "state": "AZ",
    "timezone": "America/Phoenix",
    "updated_at": "2012-07-07T22:59:18Z",
    "zip": "85643"
  },
  {
    "address": "160 Warrior Dr",
    "city": "Tuba City",
    "county": "Coconino County",
    "created_at": "2012-01-04T20:13:38Z",
    "id": 3637,
    "latitude": "36.124283",
    "longitude": "-111.220752",
    "mascot": "Knights",
    "name": "Greyhills Academy High School",
    "primary_color": "Gray",
    "secondary_color": "Teal",
    "state": "AZ",
    "timezone": "America/Denver",
    "updated_at": "2012-07-07T22:59:19Z",
    "zip": "86045"
  },
  {
    "address": "State Hwy 264",
    "city": "Keams Canyon",
    "county": "Navajo County",
    "created_at": "2012-01-04T20:13:38Z",
    "id": 3638,
    "latitude": "35.812986",
    "longitude": "-110.201901",
    "mascot": "Bruins",
    "name": "Hopi Junior Senior High School",
    "primary_color": "Royal",
    "secondary_color": "Gray",
    "state": "AZ",
    "timezone": "America/Phoenix",
    "updated_at": "2012-07-07T22:59:20Z",
    "zip": "86034"
  },
  {
    "address": "Hwy. 191 N.",
    "city": "Many Farms",
    "county": "Apache County",
    "created_at": "2012-01-04T20:13:38Z",
    "id": 3639,
    "latitude": "36.307953",
    "longitude": "-109.609206",
    "mascot": "Lobo",
    "name": "Many Farms High School",
    "primary_color": "Cardinal",
    "secondary_color": "Silver",
    "state": "AZ",
    "timezone": "America/Denver",
    "updated_at": "2012-07-07T22:59:21Z",
    "zip": "86538"
  },
  {
    "address": "1 Mile N on Navajo Rt 41",
    "city": "Pinon",
    "county": "Navajo County",
    "created_at": "2012-01-04T20:13:38Z",
    "id": 3640,
    "latitude": "36.413130",
    "longitude": "-110.373976",
    "mascot": "Eagles",
    "name": "Pinon High School",
    "primary_color": "Teal",
    "secondary_color": "White",
    "state": "AZ",
    "timezone": "America/Denver",
    "updated_at": "2012-07-07T22:59:21Z",
    "zip": "86510"
  },
  {
    "address": "N HWY 160",
    "city": "Teec Nos Pos",
    "county": "Apache County",
    "created_at": "2012-01-04T20:13:38Z",
    "id": 3641,
    "latitude": "36.939720",
    "longitude": "-109.680309",
    "mascot": "Redskins",
    "name": "Red Mesa High School",
    "primary_color": "Red",
    "secondary_color": "White",
    "state": "AZ",
    "timezone": "America/Denver",
    "updated_at": "2012-07-07T22:59:22Z",
    "zip": "86514"
  },
  {
    "address": "RRTP #PTT HC 61 Box 1480",
    "city": "Chinle",
    "county": "Apache County",
    "created_at": "2012-01-04T20:13:38Z",
    "id": 3642,
    "latitude": "36.121859",
    "longitude": "-109.577517",
    "mascot": "Sundevil",
    "name": "Rough Rock High School",
    "primary_color": "Maroon",
    "secondary_color": "Gold",
    "state": "AZ",
    "timezone": "America/Denver",
    "updated_at": "2012-07-07T22:59:22Z",
    "zip": "86503"
  },
  {
    "address": "360 S Redskin Dr",
    "city": "Saint Johns",
    "county": "Apache County",
    "created_at": "2012-01-04T20:13:38Z",
    "id": 3643,
    "latitude": "34.500781",
    "longitude": "-109.385899",
    "mascot": "Redskins",
    "name": "Saint Johns High School",
    "primary_color": "Red",
    "secondary_color": "White",
    "state": "AZ",
    "timezone": "America/Phoenix",
    "updated_at": "2012-07-07T22:59:23Z",
    "zip": "85936"
  },
  {
    "address": "I40 & S Hwy 191",
    "city": "Sanders",
    "county": "Apache County",
    "created_at": "2012-01-04T20:13:38Z",
    "id": 3644,
    "latitude": "35.215040",
    "longitude": "-109.332651",
    "mascot": "Pirates",
    "name": "Valley High School",
    "primary_color": "Gold",
    "secondary_color": "Royal",
    "state": "AZ",
    "timezone": "America/Phoenix",
    "updated_at": "2012-07-07T22:59:23Z",
    "zip": "86512"
  },
  {
    "address": "Rt 19 Mile Post 19.5",
    "city": "Sells",
    "county": "Pima County",
    "created_at": "2012-01-04T20:13:38Z",
    "id": 3645,
    "latitude": "31.913490",
    "longitude": "-111.887546",
    "mascot": "Warriors",
    "name": "Baboquivari Middle Senior High School",
    "primary_color": "Gold",
    "secondary_color": "Royal",
    "state": "AZ",
    "timezone": "America/Phoenix",
    "updated_at": "2012-07-07T22:59:24Z",
    "zip": "85634"
  },
  {
    "address": "824 Thorne Ave",
    "city": "Winkelman",
    "county": "Gila County",
    "created_at": "2012-01-04T20:13:38Z",
    "id": 3646,
    "latitude": "32.994871",
    "longitude": "-110.771067",
    "mascot": "Lobos",
    "name": "Hayden High School",
    "primary_color": "Royal",
    "secondary_color": "White",
    "state": "AZ",
    "timezone": "America/Phoenix",
    "updated_at": "2012-07-07T22:59:24Z",
    "zip": "85292"
  },
  {
    "address": "4739 E Ragus High School",
    "city": "Miami",
    "county": "Gila County",
    "created_at": "2012-01-04T20:13:38Z",
    "id": 3647,
    "latitude": "33.399908",
    "longitude": "-110.873091",
    "mascot": "Vandals",
    "name": "Miami High School",
    "primary_color": "Kelly Green",
    "secondary_color": "White",
    "state": "AZ",
    "timezone": "America/Phoenix",
    "updated_at": "2012-07-07T22:59:25Z",
    "zip": "85539"
  },
  {
    "address": "9500 N Oracle Rd",
    "city": "Tucson",
    "county": "Pima County",
    "created_at": "2012-01-04T20:13:38Z",
    "id": 3648,
    "latitude": "32.378852",
    "longitude": "-110.964310",
    "mascot": "Lions",
    "name": "Palo Verde Christian At Pusch Ridge",
    "primary_color": "Gold",
    "secondary_color": "Royal",
    "state": "AZ",
    "timezone": "America/Phoenix",
    "updated_at": "2012-07-07T22:59:26Z",
    "zip": "85737"
  },
  {
    "address": "701 N Hwy 177",
    "city": "Kearny",
    "county": "Pinal County",
    "created_at": "2012-01-04T20:13:38Z",
    "id": 3649,
    "latitude": "33.076260",
    "longitude": "-110.922529",
    "mascot": "Bearcats",
    "name": "Ray High School",
    "primary_color": "Maroon",
    "secondary_color": "White",
    "state": "AZ",
    "timezone": "America/Phoenix",
    "updated_at": "2012-07-07T22:59:26Z",
    "zip": "85237"
  },
  {
    "address": "Hwy Mile Post 270",
    "city": "San Carlos",
    "county": "Graham County",
    "created_at": "2012-01-04T20:13:38Z",
    "id": 3650,
    "latitude": "33.376130",
    "longitude": "-110.177469",
    "mascot": "Braves",
    "name": "San Carlos High School",
    "primary_color": "Red",
    "secondary_color": "White",
    "state": "AZ",
    "timezone": "America/Phoenix",
    "updated_at": "2012-07-07T22:59:27Z",
    "zip": "85550"
  },
  {
    "address": "711 McNab Parkway",
    "city": "San Manuel",
    "county": "Pinal County",
    "created_at": "2012-01-04T20:13:38Z",
    "id": 3651,
    "latitude": "32.597460",
    "longitude": "-110.632348",
    "mascot": "Miners",
    "name": "San Manuel Jr. Sr. High",
    "primary_color": "Red",
    "secondary_color": "Royal",
    "state": "AZ",
    "timezone": "America/Phoenix",
    "updated_at": "2012-07-07T22:59:29Z",
    "zip": "85631"
  },
  {
    "address": "100 Mary Dr",
    "city": "Superior",
    "county": "Pinal County",
    "created_at": "2012-01-04T20:13:38Z",
    "id": 3652,
    "latitude": "33.279139",
    "longitude": "-111.110783",
    "mascot": "Panthers",
    "name": "Superior High School",
    "primary_color": "Orange",
    "secondary_color": "Black",
    "state": "AZ",
    "timezone": "America/Phoenix",
    "updated_at": "2012-07-07T22:59:30Z",
    "zip": "85273"
  },
  {
    "address": "9168 S Ave 36 E",
    "city": "Wellton",
    "county": "Yuma County",
    "created_at": "2012-01-04T20:13:38Z",
    "id": 3653,
    "latitude": "32.691876",
    "longitude": "-114.022153",
    "mascot": "Rams",
    "name": "Antelope Union High School",
    "primary_color": "Royal",
    "secondary_color": "Red",
    "state": "AZ",
    "timezone": "America/Phoenix",
    "updated_at": "2012-07-07T22:59:30Z",
    "zip": "85356"
  },
  {
    "address": "6036 S 27th Ave",
    "city": "Phoenix",
    "county": "Maricopa County",
    "created_at": "2012-01-04T20:13:38Z",
    "id": 3654,
    "latitude": "33.391862",
    "longitude": "-112.116379",
    "mascot": "Coyotes",
    "name": "Arizona Lutheran Academy",
    "primary_color": "Black",
    "secondary_color": "Gold",
    "state": "AZ",
    "timezone": "America/Phoenix",
    "updated_at": "2012-07-07T22:59:31Z",
    "zip": "85041"
  },
  {
    "address": "4602 N 31st Ave",
    "city": "Phoenix",
    "county": "Maricopa County",
    "created_at": "2012-01-04T20:13:38Z",
    "id": 3655,
    "latitude": "33.504196",
    "longitude": "-112.125558",
    "mascot": "Golden Eagles",
    "name": "Bourgade Catholic High School",
    "primary_color": "Gold",
    "secondary_color": "Navy",
    "state": "AZ",
    "timezone": "America/Phoenix",
    "updated_at": "2012-07-07T22:59:31Z",
    "zip": "85017"
  },
  {
    "address": "1751 W Indian School Rd",
    "city": "Phoenix",
    "county": "Maricopa County",
    "created_at": "2012-01-04T20:13:38Z",
    "id": 3656,
    "latitude": "33.494983",
    "longitude": "-112.097536",
    "mascot": "Cougars",
    "name": "Phoenix Christian Junior Senior High",
    "primary_color": "Gray",
    "secondary_color": "Kelly Green",
    "state": "AZ",
    "timezone": "America/Phoenix",
    "updated_at": "2012-07-07T22:59:32Z",
    "zip": "85015"
  },
  {
    "address": "75th Avenue & McDowell",
    "city": "Phoenix",
    "county": "Maricopa County",
    "created_at": "2012-01-04T20:13:38Z",
    "id": 3657,
    "latitude": "33.428413",
    "longitude": "-112.221161",
    "mascot": "",
    "name": "Precision Academy",
    "primary_color": "",
    "secondary_color": "",
    "state": "AZ",
    "timezone": "America/Phoenix",
    "updated_at": "2012-07-07T22:59:35Z",
    "zip": "85043"
  },
  {
    "address": "38201 W. Indian School Road",
    "city": "Tonopah",
    "county": "Maricopa County",
    "created_at": "2012-01-04T20:13:38Z",
    "id": 3658,
    "latitude": "33.493712",
    "longitude": "-112.873264",
    "mascot": "The Phoenix",
    "name": "Tonopah Valley High School",
    "primary_color": "Scarlett",
    "secondary_color": "Black",
    "state": "AZ",
    "timezone": "America/Phoenix",
    "updated_at": "2012-07-07T22:59:35Z",
    "zip": "85354"
  },
  {
    "address": "2045 W Northern Ave",
    "city": "Phoenix",
    "county": "Maricopa County",
    "created_at": "2012-01-04T20:13:38Z",
    "id": 3659,
    "latitude": "33.553102",
    "longitude": "-112.102601",
    "mascot": "Warriors",
    "name": "Westwind Academy",
    "primary_color": "Royal",
    "secondary_color": "Gray",
    "state": "AZ",
    "timezone": "America/Phoenix",
    "updated_at": "2012-07-07T22:59:36Z",
    "zip": "85021"
  },
  {
    "address": "2100 W 28th St",
    "city": "Yuma",
    "county": "Yuma County",
    "created_at": "2012-01-04T20:13:38Z",
    "id": 3660,
    "latitude": "32.676760",
    "longitude": "-114.645839",
    "mascot": "Shamrocks",
    "name": "Yuma Catholic High School",
    "primary_color": "",
    "secondary_color": "",
    "state": "AZ",
    "timezone": "America/Phoenix",
    "updated_at": "2012-07-07T22:59:37Z",
    "zip": "85364"
  },
  {
    "address": "200 Falcon Way",
    "city": "Whiteriver",
    "county": "Navajo County",
    "created_at": "2012-01-04T20:13:38Z",
    "id": 3661,
    "latitude": "33.828564",
    "longitude": "-109.972545",
    "mascot": "Falcons",
    "name": "Alchesay High School",
    "primary_color": "Gold",
    "secondary_color": "Columbia Blue",
    "state": "AZ",
    "timezone": "America/Phoenix",
    "updated_at": "2012-07-07T22:59:37Z",
    "zip": "85941"
  },
  {
    "address": "1200 W White Mountain Blvd",
    "city": "Lakeside",
    "county": "Navajo County",
    "created_at": "2012-01-04T20:13:38Z",
    "id": 3662,
    "latitude": "34.147563",
    "longitude": "-109.968497",
    "mascot": "Yellow Jackets",
    "name": "Blue Ridge High School",
    "primary_color": "Purple",
    "secondary_color": "Gold",
    "state": "AZ",
    "timezone": "America/Phoenix",
    "updated_at": "2012-07-07T22:59:39Z",
    "zip": "85929"
  },
  {
    "address": "301 S McLane",
    "city": "Payson",
    "county": "Gila County",
    "created_at": "2012-01-04T20:13:38Z",
    "id": 3663,
    "latitude": "34.236885",
    "longitude": "-111.334662",
    "mascot": "Longhorns",
    "name": "Payson High School",
    "primary_color": "Gold",
    "secondary_color": "Purple",
    "state": "AZ",
    "timezone": "America/Phoenix",
    "updated_at": "2012-07-07T22:59:40Z",
    "zip": "85541"
  },
  {
    "address": "550 North Butler St., ",
    "city": "Eagar",
    "county": "Apache County",
    "created_at": "2012-01-04T20:13:38Z",
    "id": 3664,
    "latitude": "34.120705",
    "longitude": "-109.287292",
    "mascot": "Elks",
    "name": "Round Valley High School",
    "primary_color": "Black",
    "secondary_color": "Gold",
    "state": "AZ",
    "timezone": "America/Phoenix",
    "updated_at": "2012-07-07T22:59:40Z",
    "zip": "85925"
  },
  {
    "address": "500 W. Old Linden Rd., ",
    "city": "Show Low",
    "county": "Navajo County",
    "created_at": "2012-01-04T20:13:38Z",
    "id": 3665,
    "latitude": "34.256958",
    "longitude": "-110.047856",
    "mascot": "Cougars",
    "name": "Show Low High School",
    "primary_color": "Gold",
    "secondary_color": "Hunter Green",
    "state": "AZ",
    "timezone": "America/Phoenix",
    "updated_at": "2012-07-07T22:59:41Z",
    "zip": "85901"
  },
  {
    "address": "682 W Schoolbus Ln",
    "city": "Snowflake",
    "county": "Navajo County",
    "created_at": "2012-01-04T20:13:38Z",
    "id": 3666,
    "latitude": "34.504807",
    "longitude": "-110.088737",
    "mascot": "Lobos",
    "name": "Snowflake High School",
    "primary_color": "Royal",
    "secondary_color": "White",
    "state": "AZ",
    "timezone": "America/Phoenix",
    "updated_at": "2012-07-07T22:59:42Z",
    "zip": "85937"
  },
  {
    "address": "US Hwy 191 Indian Rt 7",
    "city": "Chinle",
    "county": "Apache County",
    "created_at": "2012-01-04T20:13:38Z",
    "id": 3667,
    "latitude": "36.237355",
    "longitude": "-109.600554",
    "mascot": "Wildcats",
    "name": "Chinle High School",
    "primary_color": "Gold",
    "secondary_color": "Black",
    "state": "AZ",
    "timezone": "America/Denver",
    "updated_at": "2012-07-07T22:59:42Z",
    "zip": "86503"
  },
  {
    "address": "Hwy 264",
    "city": "Ganado",
    "county": "Apache County",
    "created_at": "2012-01-04T20:13:38Z",
    "id": 3668,
    "latitude": "35.715213",
    "longitude": "-109.443955",
    "mascot": "Hornets",
    "name": "Ganado High School",
    "primary_color": "Maroon",
    "secondary_color": "Navy",
    "state": "AZ",
    "timezone": "America/Denver",
    "updated_at": "2012-07-07T22:59:44Z",
    "zip": "86505"
  },
  {
    "address": "455 N 8th Ave",
    "city": "Holbrook",
    "county": "Navajo County",
    "created_at": "2012-01-04T20:13:39Z",
    "id": 3669,
    "latitude": "34.905814",
    "longitude": "-110.168938",
    "mascot": "Roadrunners",
    "name": "Holbrook High School",
    "primary_color": "Royal",
    "secondary_color": "Red",
    "state": "AZ",
    "timezone": "America/Phoenix",
    "updated_at": "2012-07-07T22:59:44Z",
    "zip": "86025"
  },
  {
    "address": "Hwy 163",
    "city": "Kayenta",
    "county": "Navajo County",
    "created_at": "2012-01-04T20:13:39Z",
    "id": 3670,
    "latitude": "36.729585",
    "longitude": "-110.245369",
    "mascot": "Mustangs",
    "name": "Monument Valley High School",
    "primary_color": "Red",
    "secondary_color": "Gray",
    "state": "AZ",
    "timezone": "America/Denver",
    "updated_at": "2012-07-07T22:59:45Z",
    "zip": "86033"
  },
  {
    "address": "Warrior Dr",
    "city": "Tuba City",
    "county": "Coconino County",
    "created_at": "2012-01-04T20:13:39Z",
    "id": 3671,
    "latitude": "36.124329",
    "longitude": "-111.220766",
    "mascot": "Lady Warriors And Warriors",
    "name": "Tuba City High School",
    "primary_color": "Hunter Green",
    "secondary_color": "White",
    "state": "AZ",
    "timezone": "America/Denver",
    "updated_at": "2012-07-07T22:59:46Z",
    "zip": "86045"
  },
  {
    "address": "Navajo Rt 12",
    "city": "Fort Defiance",
    "county": "Apache County",
    "created_at": "2012-01-04T20:13:39Z",
    "id": 3672,
    "latitude": "35.789040",
    "longitude": "-109.083199",
    "mascot": "Scouts",
    "name": "Window Rock High School",
    "primary_color": "Columbia Blue",
    "secondary_color": "White",
    "state": "AZ",
    "timezone": "America/Denver",
    "updated_at": "2012-07-07T22:59:46Z",
    "zip": "86504"
  },
  {
    "address": "800 Apache Ave",
    "city": "Winslow",
    "county": "Navajo County",
    "created_at": "2012-01-04T20:13:39Z",
    "id": 3673,
    "latitude": "35.027828",
    "longitude": "-110.692886",
    "mascot": "Bulldogs",
    "name": "Winslow High School",
    "primary_color": "Maroon",
    "secondary_color": "White",
    "state": "AZ",
    "timezone": "America/Phoenix",
    "updated_at": "2012-07-07T22:59:47Z",
    "zip": "86047"
  },
  {
    "address": "800 W Northern Ave",
    "city": "Coolidge",
    "county": "Pinal County",
    "created_at": "2012-01-04T20:13:39Z",
    "id": 3674,
    "latitude": "32.980645",
    "longitude": "-111.530661",
    "mascot": "Bears",
    "name": "Coolidge High School",
    "primary_color": "Royal",
    "secondary_color": "Red",
    "state": "AZ",
    "timezone": "America/Phoenix",
    "updated_at": "2012-07-07T22:59:48Z",
    "zip": "85228"
  },
  {
    "address": "10701 E. Mary Ann Cleveland Way",
    "city": "Tuscon",
    "county": "Pima County",
    "created_at": "2012-01-04T20:13:39Z",
    "id": 3675,
    "latitude": "32.086899",
    "longitude": "-110.765301",
    "mascot": "Ravens",
    "name": "Empire High School",
    "primary_color": "Red",
    "secondary_color": "Black",
    "state": "AZ",
    "timezone": "America/Phoenix",
    "updated_at": "2012-07-07T22:59:49Z",
    "zip": "85747"
  },
  {
    "address": "1000 S Main St",
    "city": "Florence",
    "county": "Pinal County",
    "created_at": "2012-01-04T20:13:39Z",
    "id": 3676,
    "latitude": "33.022937",
    "longitude": "-111.387597",
    "mascot": "Gophers",
    "name": "Florence High School",
    "primary_color": "Red",
    "secondary_color": "White",
    "state": "AZ",
    "timezone": "America/Phoenix",
    "updated_at": "2012-07-07T22:59:49Z",
    "zip": "85232"
  },
  {
    "address": "16100 E Palisades Blvd",
    "city": "Fountain Hills",
    "county": "Maricopa County",
    "created_at": "2012-01-04T20:13:39Z",
    "id": 3677,
    "latitude": "33.613702",
    "longitude": "-111.732309",
    "mascot": "Falcons",
    "name": "Fountain Hills High School",
    "primary_color": "Royal",
    "secondary_color": "Gray",
    "state": "AZ",
    "timezone": "America/Phoenix",
    "updated_at": "2012-07-07T22:59:50Z",
    "zip": "85268"
  },
  {
    "address": "455 Willow St",
    "city": "Globe",
    "county": "Gila County",
    "created_at": "2012-01-04T20:13:39Z",
    "id": 3678,
    "latitude": "33.397879",
    "longitude": "-110.790026",
    "mascot": "Tigers",
    "name": "Globe High School",
    "primary_color": "Orange",
    "secondary_color": "Black",
    "state": "AZ",
    "timezone": "America/Phoenix",
    "updated_at": "2012-07-07T22:59:51Z",
    "zip": "85501"
  },
  {
    "address": "45012 W Honeycutt Ave",
    "city": "Maricopa",
    "county": "Pinal County",
    "created_at": "2012-01-04T20:13:39Z",
    "id": 3679,
    "latitude": "33.052988",
    "longitude": "-112.051059",
    "mascot": "Rams",
    "name": "Maricopa High School",
    "primary_color": "Red",
    "secondary_color": "Black",
    "state": "AZ",
    "timezone": "America/Phoenix",
    "updated_at": "2012-07-07T22:59:52Z",
    "zip": "85239"
  },
  {
    "address": "1400 11th St",
    "city": "Safford",
    "county": "Graham County",
    "created_at": "2012-01-04T20:13:39Z",
    "id": 3680,
    "latitude": "32.827575",
    "longitude": "-109.721651",
    "mascot": "Bulldogs",
    "name": "Safford High School",
    "primary_color": "Royal",
    "secondary_color": "White",
    "state": "AZ",
    "timezone": "America/Phoenix",
    "updated_at": "2012-07-07T22:59:52Z",
    "zip": "85546"
  },
  {
    "address": "900 N Main St",
    "city": "Eloy",
    "county": "Pinal County",
    "created_at": "2012-01-04T20:13:39Z",
    "id": 3681,
    "latitude": "32.758559",
    "longitude": "-111.554848",
    "mascot": "Devils",
    "name": "Santa Cruz Valley Union High School",
    "primary_color": "Red",
    "secondary_color": "Gray",
    "state": "AZ",
    "timezone": "America/Phoenix",
    "updated_at": "2012-07-07T22:59:53Z",
    "zip": "85231"
  },
  {
    "address": "760 E Center St",
    "city": "Chino Valley",
    "county": "Yavapai County",
    "created_at": "2012-01-04T20:13:39Z",
    "id": 3682,
    "latitude": "34.745605",
    "longitude": "-112.451658",
    "mascot": "Cougars",
    "name": "Chino Valley High School",
    "primary_color": "Royal",
    "secondary_color": "Gray",
    "state": "AZ",
    "timezone": "America/Phoenix",
    "updated_at": "2012-07-07T22:59:55Z",
    "zip": "86323"
  },
  {
    "address": "510 N Central Ave",
    "city": "Avondale",
    "county": "Maricopa County",
    "created_at": "2012-01-04T20:13:39Z",
    "id": 3683,
    "latitude": "33.440101",
    "longitude": "-112.349675",
    "mascot": "Sidewinders",
    "name": "Estrella High School",
    "primary_color": "Red",
    "secondary_color": "Black",
    "state": "AZ",
    "timezone": "America/Phoenix",
    "updated_at": "2012-07-07T22:59:55Z",
    "zip": "85323"
  },
  {
    "address": "1600 S Kofa Ave",
    "city": "Parker",
    "county": "La Paz County",
    "created_at": "2012-01-04T20:13:39Z",
    "id": 3684,
    "latitude": "34.143246",
    "longitude": "-114.287892",
    "mascot": "Broncs",
    "name": "Parker High School",
    "primary_color": "Gold",
    "secondary_color": "Royal",
    "state": "AZ",
    "timezone": "America/Phoenix",
    "updated_at": "2012-07-07T22:59:56Z",
    "zip": "85344"
  },
  {
    "address": "2250 E Laguna",
    "city": "Mohave Valley",
    "county": "Mohave County",
    "created_at": "2012-01-04T20:13:39Z",
    "id": 3685,
    "latitude": "34.895202",
    "longitude": "-114.570525",
    "mascot": "Dust Devils",
    "name": "River Valley High School",
    "primary_color": "Red",
    "secondary_color": "Gray",
    "state": "AZ",
    "timezone": "America/Phoenix",
    "updated_at": "2012-07-07T22:59:57Z",
    "zip": "86440"
  },
  {
    "address": "995 Upper Red Rock Loop Rd",
    "city": "Sedona",
    "county": "Yavapai County",
    "created_at": "2012-01-04T20:13:39Z",
    "id": 3686,
    "latitude": "34.848552",
    "longitude": "-111.828902",
    "mascot": "Scorpions",
    "name": "Sedona-Red Rock High School",
    "primary_color": "Gray",
    "secondary_color": "Purple",
    "state": "AZ",
    "timezone": "America/Phoenix",
    "updated_at": "2012-07-07T22:59:58Z",
    "zip": "86336"
  },
  {
    "address": "8325 S. Central Ave.",
    "city": "Phoenix",
    "county": "Maricopa County",
    "created_at": "2012-01-04T20:13:39Z",
    "id": 3687,
    "latitude": "33.371391",
    "longitude": "-112.073221",
    "mascot": "Griffins",
    "name": "South Pointe High School",
    "primary_color": "Purple",
    "secondary_color": "Gold",
    "state": "AZ",
    "timezone": "America/Phoenix",
    "updated_at": "2012-07-07T22:59:59Z",
    "zip": "85042"
  },
  {
    "address": "1090 S Vulture Mine Rd",
    "city": "Wickenburg",
    "county": "Maricopa County",
    "created_at": "2012-01-04T20:13:39Z",
    "id": 3688,
    "latitude": "33.952839",
    "longitude": "-112.771955",
    "mascot": "Wranglers",
    "name": "Wickenburg High School",
    "primary_color": "Purple",
    "secondary_color": "Gold",
    "state": "AZ",
    "timezone": "America/Phoenix",
    "updated_at": "2012-07-07T22:59:59Z",
    "zip": "85390"
  },
  {
    "address": "8828 N 31st Ave",
    "city": "Phoenix",
    "county": "Maricopa County",
    "created_at": "2012-01-04T20:13:39Z",
    "id": 3689,
    "latitude": "33.566281",
    "longitude": "-112.125564",
    "mascot": "Colts",
    "name": "Cortez High School",
    "primary_color": "Red",
    "secondary_color": "Black",
    "state": "AZ",
    "timezone": "America/Phoenix",
    "updated_at": "2012-07-07T23:00:00Z",
    "zip": "85051"
  },
  {
    "address": "6216 W Glendale Ave",
    "city": "Glendale",
    "county": "Maricopa County",
    "created_at": "2012-01-04T20:13:39Z",
    "id": 3690,
    "latitude": "33.538471",
    "longitude": "-112.193321",
    "mascot": "Cardinals",
    "name": "Glendale High School",
    "primary_color": "Red",
    "secondary_color": "Gold",
    "state": "AZ",
    "timezone": "America/Phoenix",
    "updated_at": "2012-07-07T23:00:01Z",
    "zip": "85301"
  },
  {
    "address": "3930 W Greenway Rd",
    "city": "Phoenix",
    "county": "Maricopa County",
    "created_at": "2012-01-04T20:13:39Z",
    "id": 3691,
    "latitude": "33.625211",
    "longitude": "-112.143263",
    "mascot": "Greenway Demons",
    "name": "Greenway High School",
    "primary_color": "Hunter Green",
    "secondary_color": "Gold",
    "state": "AZ",
    "timezone": "America/Phoenix",
    "updated_at": "2012-07-07T23:00:02Z",
    "zip": "85053"
  },
  {
    "address": "3625 W Cactus Rd",
    "city": "Phoenix",
    "county": "Maricopa County",
    "created_at": "2012-01-04T20:13:39Z",
    "id": 3692,
    "latitude": "33.596375",
    "longitude": "-112.136517",
    "mascot": "Rockets",
    "name": "Moon Valley High School",
    "primary_color": "Red",
    "secondary_color": "Royal",
    "state": "AZ",
    "timezone": "America/Phoenix",
    "updated_at": "2012-07-07T23:00:03Z",
    "zip": "85029"
  },
  {
    "address": "9701 E. Bell Road",
    "city": "Scottsdale",
    "county": "Maricopa County",
    "created_at": "2012-01-04T20:13:39Z",
    "id": 3693,
    "latitude": "33.640071",
    "longitude": "-111.876263",
    "mascot": "Saint Bernard",
    "name": "Notre Dame Preparatory High School",
    "primary_color": "Purple",
    "secondary_color": "Vegas Gold",
    "state": "AZ",
    "timezone": "America/Phoenix",
    "updated_at": "2012-07-07T23:00:04Z",
    "zip": "85260"
  },
  {
    "address": "2217 W Glendale Ave",
    "city": "Phoenix",
    "county": "Maricopa County",
    "created_at": "2012-01-04T20:13:39Z",
    "id": 3694,
    "latitude": "33.538593",
    "longitude": "-112.106397",
    "mascot": "Rams",
    "name": "Washington High School",
    "primary_color": "Purple",
    "secondary_color": "White",
    "state": "AZ",
    "timezone": "America/Phoenix",
    "updated_at": "2012-07-07T23:00:05Z",
    "zip": "85021"
  },
  {
    "address": "2525 S Ironwood Dr",
    "city": "Apache Junction",
    "county": "Pinal County",
    "created_at": "2012-01-04T20:13:39Z",
    "id": 3695,
    "latitude": "33.391933",
    "longitude": "-111.563380",
    "mascot": "Prospectors",
    "name": "Apache Junction High School",
    "primary_color": "Gold",
    "secondary_color": "Black",
    "state": "AZ",
    "timezone": "America/Phoenix",
    "updated_at": "2012-07-07T23:00:06Z",
    "zip": "85220"
  },
  {
    "address": "5802 E Dove Valley Road",
    "city": "Cave Creek",
    "county": "Maricopa County",
    "created_at": "2012-01-04T20:13:39Z",
    "id": 3696,
    "latitude": "33.783539",
    "longitude": "-111.955990",
    "mascot": "Falcons",
    "name": "Cactus Shadows High School",
    "primary_color": "Navy",
    "secondary_color": "Gray",
    "state": "AZ",
    "timezone": "America/Phoenix",
    "updated_at": "2012-07-07T23:00:08Z",
    "zip": "85331"
  },
  {
    "address": "6935 E Gold Dust Ave",
    "city": "Scottsdale",
    "county": "Maricopa County",
    "created_at": "2012-01-04T20:13:39Z",
    "id": 3697,
    "latitude": "33.578476",
    "longitude": "-111.932174",
    "mascot": "Firebirds",
    "name": "Chaparral High School",
    "primary_color": "Yellow",
    "secondary_color": "Red",
    "state": "AZ",
    "timezone": "America/Phoenix",
    "updated_at": "2012-07-07T23:00:08Z",
    "zip": "85253"
  },
  {
    "address": "1830 E Del Rio Dr",
    "city": "Tempe",
    "county": "Maricopa County",
    "created_at": "2012-01-04T20:13:39Z",
    "id": 3698,
    "latitude": "33.396581",
    "longitude": "-111.907382",
    "mascot": "Chargers",
    "name": "McClintock High School",
    "primary_color": "Red",
    "secondary_color": "Navy",
    "state": "AZ",
    "timezone": "America/Phoenix",
    "updated_at": "2012-07-07T23:00:16Z",
    "zip": "85282"
  },
  {
    "address": "3950 E Bell Rd",
    "city": "Phoenix",
    "county": "Maricopa County",
    "created_at": "2012-01-04T20:13:39Z",
    "id": 3699,
    "latitude": "33.640779",
    "longitude": "-111.997349",
    "mascot": "Trojans",
    "name": "Paradise Valley High School",
    "primary_color": "Red",
    "secondary_color": "White",
    "state": "AZ",
    "timezone": "America/Phoenix",
    "updated_at": "2012-07-07T23:00:17Z",
    "zip": "85032"
  },
  {
    "address": "6250 N 82nd St",
    "city": "Scottsdale",
    "county": "Maricopa County",
    "created_at": "2012-01-04T20:13:39Z",
    "id": 3700,
    "latitude": "33.528439",
    "longitude": "-111.904437",
    "mascot": "Sabercats",
    "name": "Saguaro High School",
    "primary_color": "Gold",
    "secondary_color": "Black",
    "state": "AZ",
    "timezone": "America/Phoenix",
    "updated_at": "2012-07-07T23:00:18Z",
    "zip": "85250"
  },
  {
    "address": "2902 E Shea Blvd",
    "city": "Phoenix",
    "county": "Maricopa County",
    "created_at": "2012-01-04T20:13:39Z",
    "id": 3701,
    "latitude": "33.582343",
    "longitude": "-112.020559",
    "mascot": "Matadores",
    "name": "Shadow Mountain High School",
    "primary_color": "Navy",
    "secondary_color": "Gold",
    "state": "AZ",
    "timezone": "America/Phoenix",
    "updated_at": "2012-07-07T23:00:19Z",
    "zip": "85028"
  },
  {
    "address": "4703 E Indian School Rd",
    "city": "Phoenix",
    "county": "Maricopa County",
    "created_at": "2012-01-04T20:13:39Z",
    "id": 3702,
    "latitude": "33.494677",
    "longitude": "-111.980754",
    "mascot": "Titans",
    "name": "Arcadia High School",
    "primary_color": "Royal",
    "secondary_color": "Red",
    "state": "AZ",
    "timezone": "America/Phoenix",
    "updated_at": "2012-07-07T23:00:20Z",
    "zip": "85018"
  },
  {
    "address": "2501 N 74th St",
    "city": "Scottsdale",
    "county": "Maricopa County",
    "created_at": "2012-01-04T20:13:39Z",
    "id": 3703,
    "latitude": "33.475699",
    "longitude": "-111.921851",
    "mascot": "Spanish Dons",
    "name": "Coronado High School",
    "primary_color": "Red",
    "secondary_color": "Navy",
    "state": "AZ",
    "timezone": "America/Phoenix",
    "updated_at": "2012-07-07T23:00:20Z",
    "zip": "85257"
  },
  {
    "address": "4068 E. Pecos Rd.",
    "city": "Gilbert",
    "county": "Maricopa County",
    "created_at": "2012-01-04T20:13:39Z",
    "id": 3704,
    "latitude": "33.292703",
    "longitude": "-111.702157",
    "mascot": "Knights",
    "name": "Higley High School",
    "primary_color": "Navy",
    "secondary_color": "Silver",
    "state": "AZ",
    "timezone": "America/Phoenix",
    "updated_at": "2012-07-07T23:00:21Z",
    "zip": "85297"
  },
  {
    "address": "1919 E. Queen Creek Rd.",
    "city": "Gilbert",
    "county": "Maricopa County",
    "created_at": "2012-01-04T20:13:39Z",
    "id": 3705,
    "latitude": "33.263149",
    "longitude": "-111.748227",
    "mascot": "Puma",
    "name": "Perry High School",
    "primary_color": "Navy Blue",
    "secondary_color": "Cardinal Red ",
    "state": "AZ",
    "timezone": "America/Phoenix",
    "updated_at": "2012-07-07T23:00:22Z",
    "zip": "85296"
  },
  {
    "address": "20435 S Ellsworth Rd",
    "city": "Queen Creek",
    "county": "Maricopa County",
    "created_at": "2012-01-04T20:13:39Z",
    "id": 3706,
    "latitude": "33.263230",
    "longitude": "-111.634839",
    "mascot": "Bulldogs",
    "name": "Queen Creek High School",
    "primary_color": "Purple",
    "secondary_color": "Gold",
    "state": "AZ",
    "timezone": "America/Phoenix",
    "updated_at": "2012-07-07T23:00:23Z",
    "zip": "85242"
  },
  {
    "address": "1150 N Dobson Rd",
    "city": "Chandler",
    "county": "Maricopa County",
    "created_at": "2012-01-04T20:13:39Z",
    "id": 3707,
    "latitude": "33.323466",
    "longitude": "-111.876407",
    "mascot": "Sentinels",
    "name": "Seton Catholic High School",
    "primary_color": "Red",
    "secondary_color": "Gold",
    "state": "AZ",
    "timezone": "America/Phoenix",
    "updated_at": "2012-07-07T23:00:24Z",
    "zip": "85224"
  },
  {
    "address": "1730 S Mill Ave",
    "city": "Tempe",
    "county": "Maricopa County",
    "created_at": "2012-01-04T20:13:39Z",
    "id": 3708,
    "latitude": "33.408453",
    "longitude": "-111.939856",
    "mascot": "Buffaloes",
    "name": "Tempe High School",
    "primary_color": "Royal",
    "secondary_color": "White",
    "state": "AZ",
    "timezone": "America/Phoenix",
    "updated_at": "2012-07-07T23:00:25Z",
    "zip": "85281"
  },
  {
    "address": "790 E Rodeo Dr",
    "city": "Williams",
    "county": "Coconino County",
    "created_at": "2012-01-04T20:13:39Z",
    "id": 3709,
    "latitude": "35.258113",
    "longitude": "-112.181293",
    "mascot": "",
    "name": "Williams Academy",
    "primary_color": "Royal",
    "secondary_color": "White",
    "state": "AZ",
    "timezone": "America/Phoenix",
    "updated_at": "2012-07-07T23:00:26Z",
    "zip": "86046"
  },
  {
    "address": "125 W Yavapai Rd",
    "city": "Tucson",
    "county": "Pima County",
    "created_at": "2012-01-04T20:13:39Z",
    "id": 3710,
    "latitude": "32.269500",
    "longitude": "-110.977155",
    "mascot": "Panthers",
    "name": "Amphitheater High School",
    "primary_color": "Hunter Green",
    "secondary_color": "Black",
    "state": "AZ",
    "timezone": "America/Phoenix",
    "updated_at": "2012-07-07T23:00:27Z",
    "zip": "85705"
  },
  {
    "address": "3645 E Pima St",
    "city": "Tucson",
    "county": "Pima County",
    "created_at": "2012-01-04T20:13:39Z",
    "id": 3711,
    "latitude": "32.243392",
    "longitude": "-110.915149",
    "mascot": "",
    "name": "Catalina Magnet High School",
    "primary_color": "Royal",
    "secondary_color": "White",
    "state": "AZ",
    "timezone": "America/Phoenix",
    "updated_at": "2012-07-07T23:00:27Z",
    "zip": "85716"
  },
  {
    "address": "1500 15th St",
    "city": "Douglas",
    "county": "Cochise County",
    "created_at": "2012-01-04T20:13:39Z",
    "id": 3712,
    "latitude": "31.349588",
    "longitude": "-109.538765",
    "mascot": "Bulldogs",
    "name": "Douglas High School",
    "primary_color": "Gold",
    "secondary_color": "Black",
    "state": "AZ",
    "timezone": "America/Phoenix",
    "updated_at": "2012-07-07T23:00:28Z",
    "zip": "85607"
  },
  {
    "address": "1302 S Avenida Vega",
    "city": "Tucson",
    "county": "Pima County",
    "created_at": "2012-01-04T20:13:39Z",
    "id": 3713,
    "latitude": "32.205411",
    "longitude": "-110.843919",
    "mascot": "Titans",
    "name": "Palo Verde High School",
    "primary_color": "Gold",
    "secondary_color": "Royal",
    "state": "AZ",
    "timezone": "America/Phoenix",
    "updated_at": "2012-07-07T23:00:29Z",
    "zip": "85710"
  },
  {
    "address": "1374 W Frontage Rd",
    "city": "Rio Rico",
    "county": "Santa Cruz County",
    "created_at": "2012-01-04T20:13:39Z",
    "id": 3714,
    "latitude": "31.504737",
    "longitude": "-111.012767",
    "mascot": "Hawks",
    "name": "Rio Rico High School",
    "primary_color": "Maroon",
    "secondary_color": "Gold",
    "state": "AZ",
    "timezone": "America/Phoenix",
    "updated_at": "2012-07-07T23:00:30Z",
    "zip": "85648"
  },
  {
    "address": "350 W Sahuarita Rd",
    "city": "Sahuarita",
    "county": "Pima County",
    "created_at": "2012-01-04T20:13:39Z",
    "id": 3715,
    "latitude": "31.957911",
    "longitude": "-110.974239",
    "mascot": "Mustangs",
    "name": "Sahuarita High School",
    "primary_color": "Royal",
    "secondary_color": "Gold",
    "state": "AZ",
    "timezone": "America/Phoenix",
    "updated_at": "2012-07-07T23:00:31Z",
    "zip": "85629"
  },
  {
    "address": "3951 S Pantano Rd",
    "city": "Tucson",
    "county": "Pima County",
    "created_at": "2012-01-04T20:13:39Z",
    "id": 3716,
    "latitude": "32.173790",
    "longitude": "-110.823811",
    "mascot": "Eagles",
    "name": "Santa Rita High School",
    "primary_color": "Kelly Green",
    "secondary_color": "Gold",
    "state": "AZ",
    "timezone": "America/Phoenix",
    "updated_at": "2012-07-07T23:00:32Z",
    "zip": "85730"
  },
  {
    "address": "6000 Long Look Dr",
    "city": "Prescott Valley",
    "county": "Yavapai County",
    "created_at": "2012-01-04T20:13:39Z",
    "id": 3717,
    "latitude": "34.600372",
    "longitude": "-112.343028",
    "mascot": "Bears",
    "name": "Bradshaw Mountain High School",
    "primary_color": "Red",
    "secondary_color": "Black",
    "state": "AZ",
    "timezone": "America/Phoenix",
    "updated_at": "2012-07-07T23:00:32Z",
    "zip": "86314"
  },
  {
    "address": "2801 N Izabel",
    "city": "Flagstaff",
    "county": "Coconino County",
    "created_at": "2012-01-04T20:13:39Z",
    "id": 3718,
    "latitude": "35.215312",
    "longitude": "-111.622502",
    "mascot": "Panthers",
    "name": "Coconino High School",
    "primary_color": "Red",
    "secondary_color": "Black",
    "state": "AZ",
    "timezone": "America/Phoenix",
    "updated_at": "2012-07-07T23:00:33Z",
    "zip": "86004"
  },
  {
    "address": "400 W Elm Ave",
    "city": "Flagstaff",
    "county": "Coconino County",
    "created_at": "2012-01-04T20:13:39Z",
    "id": 3719,
    "latitude": "35.203606",
    "longitude": "-111.651588",
    "mascot": "Eagles",
    "name": "Flagstaff High School",
    "primary_color": "Kelly Green",
    "secondary_color": "Brown",
    "state": "AZ",
    "timezone": "America/Phoenix",
    "updated_at": "2012-07-07T23:00:34Z",
    "zip": "86001"
  },
  {
    "address": "1801 E Fur St",
    "city": "Cottonwood",
    "county": "Yavapai County",
    "created_at": "2012-01-04T20:13:39Z",
    "id": 3720,
    "latitude": "34.718620",
    "longitude": "-112.014082",
    "mascot": "Pirates",
    "name": "Mingus Union High School",
    "primary_color": "Red",
    "secondary_color": "Gray",
    "state": "AZ",
    "timezone": "America/Phoenix",
    "updated_at": "2012-07-07T23:00:35Z",
    "zip": "86326"
  },
  {
    "address": "434 Lake Powell Blvd",
    "city": "Page",
    "county": "Coconino County",
    "created_at": "2012-01-04T20:13:39Z",
    "id": 3721,
    "latitude": "36.910575",
    "longitude": "-111.457573",
    "mascot": "Sand Devils",
    "name": "Page High School",
    "primary_color": "Red",
    "secondary_color": "Black",
    "state": "AZ",
    "timezone": "America/Phoenix",
    "updated_at": "2012-07-07T23:00:35Z",
    "zip": "86040"
  },
  {
    "address": "3950 E Butler Ave",
    "city": "Flagstaff",
    "county": "Coconino County",
    "created_at": "2012-01-04T20:13:39Z",
    "id": 3722,
    "latitude": "35.194427",
    "longitude": "-111.600936",
    "mascot": "Sinagua Mustangs",
    "name": "Sinagua High School",
    "primary_color": "Gray",
    "secondary_color": "Royal",
    "state": "AZ",
    "timezone": "America/Phoenix",
    "updated_at": "2012-07-07T23:00:36Z",
    "zip": "86004"
  },
  {
    "address": "12775 E Old Vail Rd",
    "city": "Vail",
    "county": "Pima County",
    "created_at": "2012-01-04T20:13:39Z",
    "id": 3723,
    "latitude": "32.050112",
    "longitude": "-110.715997",
    "mascot": "Bobcats",
    "name": "Cienega High School",
    "primary_color": "Navy",
    "secondary_color": "White",
    "state": "AZ",
    "timezone": "America/Phoenix",
    "updated_at": "2012-07-07T23:00:37Z",
    "zip": "85641"
  },
  {
    "address": "4101 E Valencia Rd",
    "city": "Tucson",
    "county": "Pima County",
    "created_at": "2012-01-04T20:13:39Z",
    "id": 3724,
    "latitude": "32.134367",
    "longitude": "-110.904170",
    "mascot": "Jaguars",
    "name": "Desert View High School",
    "primary_color": "Gray",
    "secondary_color": "Maroon",
    "state": "AZ",
    "timezone": "America/Phoenix",
    "updated_at": "2012-07-07T23:00:37Z",
    "zip": "85706"
  },
  {
    "address": "3725 N Flowing Wells Rd",
    "city": "Tucson",
    "county": "Pima County",
    "created_at": "2012-01-04T20:13:39Z",
    "id": 3725,
    "latitude": "32.274584",
    "longitude": "-110.995043",
    "mascot": "Caballeros",
    "name": "Flowing Wells High School",
    "primary_color": "Gold",
    "secondary_color": "Navy",
    "state": "AZ",
    "timezone": "America/Phoenix",
    "updated_at": "2012-07-07T23:00:38Z",
    "zip": "85705"
  },
  {
    "address": "1905 N Apache Blvd",
    "city": "Nogales",
    "county": "Santa Cruz County",
    "created_at": "2012-01-04T20:13:39Z",
    "id": 3726,
    "latitude": "31.367626",
    "longitude": "-110.951348",
    "mascot": "Apaches",
    "name": "Nogales High School",
    "primary_color": "Gold",
    "secondary_color": "Maroon",
    "state": "AZ",
    "timezone": "America/Phoenix",
    "updated_at": "2012-07-07T23:00:39Z",
    "zip": "85621"
  },
  {
    "address": "5000 N Bowes Rd",
    "city": "Tucson",
    "county": "Pima County",
    "created_at": "2012-01-04T20:13:39Z",
    "id": 3727,
    "latitude": "32.299125",
    "longitude": "-110.789480",
    "mascot": "Saber Cats",
    "name": "Sabino High School",
    "primary_color": "Gold",
    "secondary_color": "Purple",
    "state": "AZ",
    "timezone": "America/Phoenix",
    "updated_at": "2012-07-07T23:00:40Z",
    "zip": "85749"
  },
  {
    "address": "545 N Camino Seco",
    "city": "Tucson",
    "county": "Pima County",
    "created_at": "2012-01-04T20:13:39Z",
    "id": 3728,
    "latitude": "32.227918",
    "longitude": "-110.806909",
    "mascot": "Cougars",
    "name": "Sahuaro High School",
    "primary_color": "Red",
    "secondary_color": "Navy",
    "state": "AZ",
    "timezone": "America/Phoenix",
    "updated_at": "2012-07-07T23:00:40Z",
    "zip": "85710"
  },
  {
    "address": "902 Eason Ave",
    "city": "Buckeye",
    "county": "Maricopa County",
    "created_at": "2012-01-04T20:13:39Z",
    "id": 3729,
    "latitude": "33.373145",
    "longitude": "-112.577483",
    "mascot": "Hawks",
    "name": "Buckeye Union High School",
    "primary_color": "Gold",
    "secondary_color": "Royal",
    "state": "AZ",
    "timezone": "America/Phoenix",
    "updated_at": "2012-07-07T23:00:41Z",
    "zip": "85326"
  },
  {
    "address": "15778 W. Yuma Rd",
    "city": "Goodyear",
    "county": "Maricopa County",
    "created_at": "2012-01-04T20:13:39Z",
    "id": 3730,
    "latitude": "33.435605",
    "longitude": "-112.398713",
    "mascot": "Scorpions",
    "name": "Desert Edge High School",
    "primary_color": "Black",
    "secondary_color": "Silver",
    "state": "AZ",
    "timezone": "America/Phoenix",
    "updated_at": "2012-07-07T23:00:42Z",
    "zip": "85338"
  },
  {
    "address": "11425 N Dysart Rd",
    "city": "El Mirage",
    "county": "Maricopa County",
    "created_at": "2012-01-04T20:13:39Z",
    "id": 3731,
    "latitude": "33.588206",
    "longitude": "-112.341925",
    "mascot": "Demons",
    "name": "Dysart High School",
    "primary_color": "Red",
    "secondary_color": "White",
    "state": "AZ",
    "timezone": "America/Phoenix",
    "updated_at": "2012-07-07T23:00:42Z",
    "zip": "85335"
  },
  {
    "address": "2251 Hwy 95",
    "city": "Bullhead City",
    "county": "Mohave County",
    "created_at": "2012-01-04T20:13:39Z",
    "id": 3732,
    "latitude": "35.105286",
    "longitude": "-114.598047",
    "mascot": "Thunderbirds",
    "name": "Mohave High School",
    "primary_color": "Gold",
    "secondary_color": "Kelly Green",
    "state": "AZ",
    "timezone": "America/Phoenix",
    "updated_at": "2012-07-07T23:00:43Z",
    "zip": "86442"
  },
  {
    "address": "8990 W Orangewood",
    "city": "Glendale",
    "county": "Maricopa County",
    "created_at": "2012-01-04T20:13:39Z",
    "id": 3733,
    "latitude": "33.544804",
    "longitude": "-112.254251",
    "mascot": "Cougars",
    "name": "Raymond S. Kellis High School",
    "primary_color": "Navy Blue",
    "secondary_color": "Vegas Gold",
    "state": "AZ",
    "timezone": "America/Phoenix",
    "updated_at": "2012-07-07T23:00:44Z",
    "zip": "85305"
  },
  {
    "address": "20050 W Indian School Rd",
    "city": "Buckeye",
    "county": "Maricopa County",
    "created_at": "2012-01-04T20:13:39Z",
    "id": 3734,
    "latitude": "33.493678",
    "longitude": "-112.490807",
    "mascot": "Vipers",
    "name": "Verrado High School",
    "primary_color": "Black",
    "secondary_color": "Gold",
    "state": "AZ",
    "timezone": "America/Phoenix",
    "updated_at": "2012-07-07T23:00:45Z",
    "zip": "85396"
  },
  {
    "address": "3000 S. Apache Road",
    "city": "Buckeye",
    "county": "Maricopa County",
    "created_at": "2012-01-04T20:13:39Z",
    "id": 3735,
    "latitude": "33.418468",
    "longitude": "-112.573716",
    "mascot": "Rough Riders",
    "name": "Youngker High School",
    "primary_color": "Green ",
    "secondary_color": "Black",
    "state": "AZ",
    "timezone": "America/Phoenix",
    "updated_at": "2012-07-07T23:00:45Z",
    "zip": "85326"
  },
  {
    "address": "25 W Calle Concordia",
    "city": "Oro Valley",
    "county": "Pima County",
    "created_at": "2012-01-04T20:13:39Z",
    "id": 3736,
    "latitude": "32.401833",
    "longitude": "-110.979524",
    "mascot": "Dorados",
    "name": "Canyon Del Oro High School",
    "primary_color": "Gold",
    "secondary_color": "Hunter Green",
    "state": "AZ",
    "timezone": "America/Phoenix",
    "updated_at": "2012-07-07T23:00:47Z",
    "zip": "85737"
  },
  {
    "address": "4300 E Sunrise Dr",
    "city": "Tucson",
    "county": "Pima County",
    "created_at": "2012-01-04T20:13:39Z",
    "id": 3737,
    "latitude": "32.308212",
    "longitude": "-110.900258",
    "mascot": "Falcons",
    "name": "Catalina Foothills High School",
    "primary_color": "Gray",
    "secondary_color": "Royal",
    "state": "AZ",
    "timezone": "America/Phoenix",
    "updated_at": "2012-07-07T23:00:47Z",
    "zip": "85718"
  },
  {
    "address": "2001 W Starr Pass Blvd",
    "city": "Tucson",
    "county": "Pima County",
    "created_at": "2012-01-04T20:13:39Z",
    "id": 3738,
    "latitude": "32.206900",
    "longitude": "-111.009802",
    "mascot": "Charger Horses",
    "name": "Cholla High School",
    "primary_color": "Orange",
    "secondary_color": "Navy",
    "state": "AZ",
    "timezone": "America/Phoenix",
    "updated_at": "2012-07-07T23:00:48Z",
    "zip": "85713"
  },
  {
    "address": "12000 W Emigh Rd",
    "city": "Tucson",
    "county": "Pima County",
    "created_at": "2012-01-04T20:13:39Z",
    "id": 3739,
    "latitude": "32.366181",
    "longitude": "-111.216899",
    "mascot": "Tigers",
    "name": "Marana High School",
    "primary_color": "Gold",
    "secondary_color": "Royal",
    "state": "AZ",
    "timezone": "America/Phoenix",
    "updated_at": "2012-07-07T23:00:49Z",
    "zip": "85743"
  },
  {
    "address": "3500 S 12th Ave",
    "city": "Tucson",
    "county": "Pima County",
    "created_at": "2012-01-04T20:13:39Z",
    "id": 3740,
    "latitude": "32.182964",
    "longitude": "-110.977605",
    "mascot": "Warriors",
    "name": "Pueblo High School",
    "primary_color": "Royal",
    "secondary_color": "Columbia Blue",
    "state": "AZ",
    "timezone": "America/Phoenix",
    "updated_at": "2012-07-07T23:00:50Z",
    "zip": "85713"
  },
  {
    "address": "530 E Riley Dr",
    "city": "Avondale",
    "county": "Maricopa County",
    "created_at": "2012-01-04T20:13:39Z",
    "id": 3741,
    "latitude": "33.438968",
    "longitude": "-112.344239",
    "mascot": "Owls",
    "name": "Agua Fria Union High School South Campus",
    "primary_color": "Gray",
    "secondary_color": "Red",
    "state": "AZ",
    "timezone": "America/Phoenix",
    "updated_at": "2012-07-07T23:00:51Z",
    "zip": "85323"
  },
  {
    "address": "6330 W Greenway Rd",
    "city": "Glendale",
    "county": "Maricopa County",
    "created_at": "2012-01-04T20:13:39Z",
    "id": 3742,
    "latitude": "33.625129",
    "longitude": "-112.195239",
    "mascot": "Cobras",
    "name": "Cactus High School",
    "primary_color": "Columbia Blue",
    "secondary_color": "Gray",
    "state": "AZ",
    "timezone": "America/Phoenix",
    "updated_at": "2012-07-07T23:00:53Z",
    "zip": "85306"
  },
  {
    "address": "9126 W. Camelback Rd.",
    "city": "Glendale",
    "county": "Maricopa County",
    "created_at": "2012-01-04T20:13:39Z",
    "id": 3743,
    "latitude": "33.508792",
    "longitude": "-112.255665",
    "mascot": "Aztecs",
    "name": "Copper Canyon High School",
    "primary_color": "Purple",
    "secondary_color": "Teal",
    "state": "AZ",
    "timezone": "America/Phoenix",
    "updated_at": "2012-07-07T23:00:54Z",
    "zip": "85305"
  },
  {
    "address": "2675 Palo Verde S Blvd",
    "city": "Lake Havasu City",
    "county": "Mohave County",
    "created_at": "2012-01-04T20:13:39Z",
    "id": 3744,
    "latitude": "34.483957",
    "longitude": "-114.335717",
    "mascot": "Knights",
    "name": "Lake Havasu High School",
    "primary_color": "Gold",
    "secondary_color": "Purple",
    "state": "AZ",
    "timezone": "America/Phoenix",
    "updated_at": "2012-07-07T23:00:55Z",
    "zip": "86403"
  },
  {
    "address": "482 Hagen Rd",
    "city": "Globe",
    "county": "Gila County",
    "created_at": "2012-01-04T20:13:39Z",
    "id": 3745,
    "latitude": "33.384941",
    "longitude": "-110.775824",
    "mascot": "",
    "name": "Liberty High School",
    "primary_color": "",
    "secondary_color": "",
    "state": "AZ",
    "timezone": "America/Phoenix",
    "updated_at": "2012-07-07T23:00:56Z",
    "zip": "85501"
  },
  {
    "address": "14802 W Wigwam Blvd",
    "city": "Goodyear",
    "county": "Maricopa County",
    "created_at": "2012-01-04T20:13:39Z",
    "id": 3746,
    "latitude": "33.493459",
    "longitude": "-112.375497",
    "mascot": "Tigers",
    "name": "Millennium High School",
    "primary_color": "Purple",
    "secondary_color": "Gray",
    "state": "AZ",
    "timezone": "America/Phoenix",
    "updated_at": "2012-07-07T23:00:56Z",
    "zip": "85338"
  },
  {
    "address": "11200 N 83rd Ave",
    "city": "Peoria",
    "county": "Maricopa County",
    "created_at": "2012-01-04T20:13:39Z",
    "id": 3747,
    "latitude": "33.586499",
    "longitude": "-112.237711",
    "mascot": "Panthers",
    "name": "Peoria High School",
    "primary_color": "Gold",
    "secondary_color": "Kelly Green",
    "state": "AZ",
    "timezone": "America/Phoenix",
    "updated_at": "2012-07-07T23:00:57Z",
    "zip": "85345"
  },
  {
    "address": "8045 N 47th Ave",
    "city": "Glendale",
    "county": "Maricopa County",
    "created_at": "2012-01-04T20:13:39Z",
    "id": 3748,
    "latitude": "33.553756",
    "longitude": "-112.160206",
    "mascot": "Hawks",
    "name": "Apollo High School",
    "primary_color": "Gold",
    "secondary_color": "Navy",
    "state": "AZ",
    "timezone": "America/Phoenix",
    "updated_at": "2012-07-07T23:00:58Z",
    "zip": "85302"
  },
  {
    "address": "6602 N 75th Ave",
    "city": "Glendale",
    "county": "Maricopa County",
    "created_at": "2012-01-04T20:13:39Z",
    "id": 3749,
    "latitude": "33.532337",
    "longitude": "-112.220526",
    "mascot": "Patriots",
    "name": "Independence High School",
    "primary_color": "Red",
    "secondary_color": "Royal",
    "state": "AZ",
    "timezone": "America/Phoenix",
    "updated_at": "2012-07-07T23:00:59Z",
    "zip": "85303"
  },
  {
    "address": "1050 N Ruth St",
    "city": "Prescott",
    "county": "Yavapai County",
    "created_at": "2012-01-04T20:13:39Z",
    "id": 3750,
    "latitude": "34.562045",
    "longitude": "-112.476655",
    "mascot": "Badgers",
    "name": "Prescott High School",
    "primary_color": "Gold",
    "secondary_color": "Royal",
    "state": "AZ",
    "timezone": "America/Phoenix",
    "updated_at": "2012-07-07T23:01:00Z",
    "zip": "86301"
  },
  {
    "address": "25250 N. 35th Avenue",
    "city": "Phoenix",
    "county": "Maricopa County",
    "created_at": "2012-01-04T20:13:39Z",
    "id": 3751,
    "latitude": "33.715272",
    "longitude": "-112.135026",
    "mascot": "Eagles",
    "name": "Sandra Day O'Conner High School",
    "primary_color": "Royal Blue",
    "secondary_color": "Metallic Gold",
    "state": "AZ",
    "timezone": "America/Phoenix",
    "updated_at": "2012-07-07T23:01:01Z",
    "zip": "85083"
  },
  {
    "address": "35 W Dunlap St",
    "city": "Phoenix",
    "county": "Maricopa County",
    "created_at": "2012-01-04T20:13:39Z",
    "id": 3752,
    "latitude": "33.567680",
    "longitude": "-112.075805",
    "mascot": "Vikings",
    "name": "Sunnyslope High School",
    "primary_color": "Kelly Green",
    "secondary_color": "Gold",
    "state": "AZ",
    "timezone": "America/Phoenix",
    "updated_at": "2012-07-07T23:01:02Z",
    "zip": "85021"
  },
  {
    "address": "1750 W Thunderbird Rd",
    "city": "Phoenix",
    "county": "Maricopa County",
    "created_at": "2012-01-04T20:13:40Z",
    "id": 3753,
    "latitude": "33.611106",
    "longitude": "-112.096220",
    "mascot": "Thunderbird Chiefs",
    "name": "Thunderbird High School",
    "primary_color": "Royal",
    "secondary_color": "Orange",
    "state": "AZ",
    "timezone": "America/Phoenix",
    "updated_at": "2012-07-07T23:01:02Z",
    "zip": "85023"
  },
  {
    "address": "5990 S. Val Vista Drive",
    "city": "Chandler",
    "county": "Maricopa County",
    "created_at": "2012-01-04T20:13:40Z",
    "id": 3754,
    "latitude": "33.219552",
    "longitude": "-111.755477",
    "mascot": "Bears",
    "name": "Basha High School",
    "primary_color": "Hunter Green",
    "secondary_color": "Las Vegas Gold",
    "state": "AZ",
    "timezone": "America/Phoenix",
    "updated_at": "2012-07-07T23:01:03Z",
    "zip": "85249"
  },
  {
    "address": "1001 E Knox Rd",
    "city": "Tempe",
    "county": "Maricopa County",
    "created_at": "2012-01-04T20:13:40Z",
    "id": 3755,
    "latitude": "33.327339",
    "longitude": "-111.926003",
    "mascot": "Aztecs",
    "name": "Corona Del Sol High School",
    "primary_color": "Yellow",
    "secondary_color": "Orange",
    "state": "AZ",
    "timezone": "America/Phoenix",
    "updated_at": "2012-07-07T23:01:04Z",
    "zip": "85284"
  },
  {
    "address": "16440 S 32nd St",
    "city": "Phoenix",
    "county": "Maricopa County",
    "created_at": "2012-01-04T20:13:40Z",
    "id": 3756,
    "latitude": "33.297279",
    "longitude": "-112.014617",
    "mascot": "Thunder",
    "name": "Desert Vista High School",
    "primary_color": "Royal",
    "secondary_color": "Gold",
    "state": "AZ",
    "timezone": "America/Phoenix",
    "updated_at": "2012-07-07T23:01:05Z",
    "zip": "85044"
  },
  {
    "address": "4201 E Knox Rd",
    "city": "Phoenix",
    "county": "Maricopa County",
    "created_at": "2012-01-04T20:13:40Z",
    "id": 3757,
    "latitude": "33.326973",
    "longitude": "-111.992246",
    "mascot": "Pride",
    "name": "Mountain Pointe High School",
    "primary_color": "Maroon",
    "secondary_color": "Gold",
    "state": "AZ",
    "timezone": "America/Phoenix",
    "updated_at": "2012-07-07T23:01:06Z",
    "zip": "85044"
  },
  {
    "address": "4701 N Central Ave",
    "city": "Phoenix",
    "county": "Maricopa County",
    "created_at": "2012-01-04T20:13:40Z",
    "id": 3758,
    "latitude": "33.504584",
    "longitude": "-112.073663",
    "mascot": "Broncos",
    "name": "Brophy College Preparatory School",
    "primary_color": "Red",
    "secondary_color": "White",
    "state": "AZ",
    "timezone": "America/Phoenix",
    "updated_at": "2012-07-07T23:01:07Z",
    "zip": "85012"
  },
  {
    "address": "12575 E Via Linda",
    "city": "Scottsdale",
    "county": "Maricopa County",
    "created_at": "2012-01-04T20:13:40Z",
    "id": 3759,
    "latitude": "33.589622",
    "longitude": "-111.810318",
    "mascot": "Wolves",
    "name": "Desert Mountain High School",
    "primary_color": "Gray",
    "secondary_color": "Maroon",
    "state": "AZ",
    "timezone": "America/Phoenix",
    "updated_at": "2012-07-07T23:01:08Z",
    "zip": "85259"
  },
  {
    "address": "22800 N 67th Ave",
    "city": "Glendale",
    "county": "Maricopa County",
    "created_at": "2012-01-04T20:13:40Z",
    "id": 3760,
    "latitude": "33.690481",
    "longitude": "-112.203091",
    "mascot": "Mountain Lions",
    "name": "Mountain Ridge High School",
    "primary_color": "Maroon",
    "secondary_color": "Hunter Green",
    "state": "AZ",
    "timezone": "America/Phoenix",
    "updated_at": "2012-07-07T23:01:08Z",
    "zip": "85310"
  },
  {
    "address": "2525 N 3rd St",
    "city": "Phoenix",
    "county": "Maricopa County",
    "created_at": "2012-01-04T20:13:40Z",
    "id": 3761,
    "latitude": "33.475472",
    "longitude": "-112.069421",
    "mascot": "Knights",
    "name": "Saint Marys High School",
    "primary_color": "Kelly Green",
    "secondary_color": "White",
    "state": "AZ",
    "timezone": "America/Phoenix",
    "updated_at": "2012-07-07T23:01:09Z",
    "zip": "85004"
  },
  {
    "address": "4710 N 5th St",
    "city": "Pheonix",
    "county": "Maricopa County",
    "created_at": "2012-01-04T20:13:40Z",
    "id": 3762,
    "latitude": "33.505750",
    "longitude": "-112.067187",
    "mascot": "Gators",
    "name": "Xavier College Preparatory School",
    "primary_color": "Royal",
    "secondary_color": "White",
    "state": "AZ",
    "timezone": "America/Phoenix",
    "updated_at": "2012-07-07T23:01:09Z",
    "zip": "85012"
  },
  {
    "address": "14388 N 79th Ave",
    "city": "Peoria",
    "county": "Maricopa County",
    "created_at": "2012-01-04T20:13:40Z",
    "id": 3763,
    "latitude": "33.615548",
    "longitude": "-112.228807",
    "mascot": "Coyotes",
    "name": "Centennial High School",
    "primary_color": "Red",
    "secondary_color": "Royal",
    "state": "AZ",
    "timezone": "America/Phoenix",
    "updated_at": "2012-07-07T23:01:10Z",
    "zip": "85381"
  },
  {
    "address": "6051 W Sweetwater Ave",
    "city": "Glendale",
    "county": "Maricopa County",
    "created_at": "2012-01-04T20:13:40Z",
    "id": 3764,
    "latitude": "33.603512",
    "longitude": "-112.189073",
    "mascot": "Eagles",
    "name": "Ironwood High School",
    "primary_color": "Gray",
    "secondary_color": "Maroon",
    "state": "AZ",
    "timezone": "America/Phoenix",
    "updated_at": "2012-07-07T23:01:10Z",
    "zip": "85304"
  },
  {
    "address": "11650 W Whyman Ave",
    "city": "Avondale",
    "county": "Maricopa County",
    "created_at": "2012-01-04T20:13:40Z",
    "id": 3765,
    "latitude": "33.424065",
    "longitude": "-112.309695",
    "mascot": "Wolves",
    "name": "La Joya Community School",
    "primary_color": "Navy",
    "secondary_color": "Yellow",
    "state": "AZ",
    "timezone": "America/Phoenix",
    "updated_at": "2012-07-07T23:01:11Z",
    "zip": "85323"
  },
  {
    "address": "21200 N 83rd Ave",
    "city": "Peoria",
    "county": "Maricopa County",
    "created_at": "2012-01-04T20:13:40Z",
    "id": 3766,
    "latitude": "33.676576",
    "longitude": "-112.237820",
    "mascot": "Mustangs",
    "name": "Sunrise Mountain High School",
    "primary_color": "Gold",
    "secondary_color": "Purple",
    "state": "AZ",
    "timezone": "America/Phoenix",
    "updated_at": "2012-07-07T23:01:12Z",
    "zip": "85382"
  },
  {
    "address": "9419 W Van Buren",
    "city": "Tolleson",
    "county": "Maricopa County",
    "created_at": "2012-01-04T20:13:40Z",
    "id": 3767,
    "latitude": "33.450317",
    "longitude": "-112.262655",
    "mascot": "Wolverines",
    "name": "Tolleson Union High School",
    "primary_color": "Maroon",
    "secondary_color": "Gold",
    "state": "AZ",
    "timezone": "America/Phoenix",
    "updated_at": "2012-07-07T23:01:12Z",
    "zip": "85353"
  },
  {
    "address": "10850 W Garden Lakes Pky",
    "city": "Avondale",
    "county": "Maricopa County",
    "created_at": "2012-01-04T20:13:40Z",
    "id": 3768,
    "latitude": "33.488890",
    "longitude": "-112.293799",
    "mascot": "Knights",
    "name": "Westview High School",
    "primary_color": "Royal",
    "secondary_color": "Gray",
    "state": "AZ",
    "timezone": "America/Phoenix",
    "updated_at": "2012-07-07T23:01:13Z",
    "zip": "85323"
  },
  {
    "address": "1501 W Guadalupe Rd",
    "city": "Mesa",
    "county": "Maricopa County",
    "created_at": "2012-01-04T20:13:40Z",
    "id": 3769,
    "latitude": "33.364190",
    "longitude": "-111.864359",
    "mascot": "Mustangs",
    "name": "Dobson High School",
    "primary_color": "Royal",
    "secondary_color": "White",
    "state": "AZ",
    "timezone": "America/Phoenix",
    "updated_at": "2012-07-07T23:01:13Z",
    "zip": "85202"
  },
  {
    "address": "1630 E Southern Ave",
    "city": "Mesa",
    "county": "Maricopa County",
    "created_at": "2012-01-04T20:13:40Z",
    "id": 3770,
    "latitude": "33.393468",
    "longitude": "-111.795877",
    "mascot": "Jackrabbits",
    "name": "Mesa Senior High School",
    "primary_color": "Gold",
    "secondary_color": "Purple",
    "state": "AZ",
    "timezone": "America/Phoenix",
    "updated_at": "2012-07-07T23:01:14Z",
    "zip": "85204"
  },
  {
    "address": "2700 E Brown Rd",
    "city": "Mesa",
    "county": "Maricopa County",
    "created_at": "2012-01-04T20:13:40Z",
    "id": 3771,
    "latitude": "33.437252",
    "longitude": "-111.772720",
    "mascot": "Toros",
    "name": "Mountain View Senior High School",
    "primary_color": "Royal",
    "secondary_color": "Red",
    "state": "AZ",
    "timezone": "America/Phoenix",
    "updated_at": "2012-07-07T23:01:14Z",
    "zip": "85213"
  },
  {
    "address": "7301 E Brown Rd",
    "city": "Mesa",
    "county": "Maricopa County",
    "created_at": "2012-01-04T20:13:40Z",
    "id": 3772,
    "latitude": "33.436922",
    "longitude": "-111.675807",
    "mascot": "Mountain Lions",
    "name": "Red Mountain High School",
    "primary_color": "Red",
    "secondary_color": "Black",
    "state": "AZ",
    "timezone": "America/Phoenix",
    "updated_at": "2012-07-07T23:01:15Z",
    "zip": "85207"
  },
  {
    "address": "945 W 8th St",
    "city": "Mesa",
    "county": "Maricopa County",
    "created_at": "2012-01-04T20:13:40Z",
    "id": 3773,
    "latitude": "33.429474",
    "longitude": "-111.851231",
    "mascot": "Warriors",
    "name": "Westwood High School",
    "primary_color": "Orange",
    "secondary_color": "Royal",
    "state": "AZ",
    "timezone": "America/Phoenix",
    "updated_at": "2012-07-07T23:01:16Z",
    "zip": "85201"
  },
  {
    "address": "350 N Arizona Ave",
    "city": "Chandler",
    "county": "Maricopa County",
    "created_at": "2012-01-04T20:13:40Z",
    "id": 3774,
    "latitude": "33.308966",
    "longitude": "-111.841473",
    "mascot": "Wolves",
    "name": "Chandler High School",
    "primary_color": "Royal",
    "secondary_color": "White",
    "state": "AZ",
    "timezone": "America/Phoenix",
    "updated_at": "2012-07-07T23:01:17Z",
    "zip": "85225"
  },
  {
    "address": "1101 E Elliot Rd",
    "city": "Gilbert",
    "county": "Maricopa County",
    "created_at": "2012-01-04T20:13:40Z",
    "id": 3775,
    "latitude": "33.350105",
    "longitude": "-111.765493",
    "mascot": "Tigers",
    "name": "Gilbert High School",
    "primary_color": "Gold",
    "secondary_color": "Black",
    "state": "AZ",
    "timezone": "America/Phoenix",
    "updated_at": "2012-07-07T23:01:17Z",
    "zip": "85296"
  },
  {
    "address": "3700 S Arizona Ave",
    "city": "Chandler",
    "county": "Maricopa County",
    "created_at": "2012-01-04T20:13:40Z",
    "id": 3776,
    "latitude": "33.252572",
    "longitude": "-111.841368",
    "mascot": "Husky Dogs",
    "name": "Hamilton High School",
    "primary_color": "Black",
    "secondary_color": "Maroon",
    "state": "AZ",
    "timezone": "America/Phoenix",
    "updated_at": "2012-07-07T23:01:18Z",
    "zip": "85248"
  },
  {
    "address": "4301 East Guadalupe Road",
    "city": "Gilbert",
    "county": "Maricopa County",
    "created_at": "2012-01-04T20:13:40Z",
    "id": 3777,
    "latitude": "33.364953",
    "longitude": "-111.699778",
    "mascot": "Hawks",
    "name": "Highland High School",
    "primary_color": "Teal",
    "secondary_color": "Black",
    "state": "AZ",
    "timezone": "America/Phoenix",
    "updated_at": "2012-07-07T23:01:18Z",
    "zip": "85234"
  },
  {
    "address": "500 S McQueen Ave",
    "city": "Gilbert",
    "county": "Maricopa County",
    "created_at": "2012-01-04T20:13:40Z",
    "id": 3778,
    "latitude": "33.340434",
    "longitude": "-111.824405",
    "mascot": "Wildcats",
    "name": "Mesquite High School",
    "primary_color": "Gray",
    "secondary_color": "White",
    "state": "AZ",
    "timezone": "America/Phoenix",
    "updated_at": "2012-07-07T23:01:19Z",
    "zip": "85233"
  },
  {
    "address": "4100 W 20th St",
    "city": "Yuma",
    "county": "Yuma County",
    "created_at": "2012-01-04T20:13:40Z",
    "id": 3779,
    "latitude": "32.691178",
    "longitude": "-114.667834",
    "mascot": "Raiders",
    "name": "Cibola High School",
    "primary_color": "Gold",
    "secondary_color": "Black",
    "state": "AZ",
    "timezone": "America/Phoenix",
    "updated_at": "2012-07-07T23:01:20Z",
    "zip": "85364"
  },
  {
    "address": "1976 Thatcher Blvd",
    "city": "Safford",
    "county": "Graham County",
    "created_at": "2012-01-04T20:13:40Z",
    "id": 3780,
    "latitude": "32.836001",
    "longitude": "-109.732637",
    "mascot": "",
    "name": "Gila Preparatory Academy",
    "primary_color": "",
    "secondary_color": "",
    "state": "AZ",
    "timezone": "America/Phoenix",
    "updated_at": "2012-07-07T23:01:20Z",
    "zip": "85546"
  },
  {
    "address": "3100 South Ave A",
    "city": "Yuma",
    "county": "Yuma County",
    "created_at": "2012-01-04T20:13:40Z",
    "id": 3781,
    "latitude": "32.684850",
    "longitude": "-114.624614",
    "mascot": "Kings",
    "name": "Kofa High School",
    "primary_color": "Red",
    "secondary_color": "White",
    "state": "AZ",
    "timezone": "America/Phoenix",
    "updated_at": "2012-07-07T23:01:21Z",
    "zip": "85364"
  },
  {
    "address": "400 6th Ave",
    "city": "Yuma",
    "county": "Yuma County",
    "created_at": "2012-01-04T20:13:40Z",
    "id": 3782,
    "latitude": "32.719536",
    "longitude": "-114.627044",
    "mascot": "Criminals",
    "name": "Yuma High School",
    "primary_color": "Navy",
    "secondary_color": "White",
    "state": "AZ",
    "timezone": "America/Phoenix",
    "updated_at": "2012-07-07T23:01:22Z",
    "zip": "85364"
  },
  {
    "address": "1250 N. 8th Ave.",
    "city": "San Luis",
    "county": "Yuma County",
    "created_at": "2012-01-04T20:13:40Z",
    "id": 3783,
    "latitude": "32.499868",
    "longitude": "-114.761309",
    "mascot": "Sidewinders",
    "name": "San Luis High School",
    "primary_color": "Green ",
    "secondary_color": "Black",
    "state": "AZ",
    "timezone": "America/Phoenix",
    "updated_at": "2012-07-07T23:01:24Z",
    "zip": "85349"
  },
  {
    "address": "3839 W Camelback Rd",
    "city": "Phoenix",
    "county": "Maricopa County",
    "created_at": "2012-01-04T20:13:40Z",
    "id": 3784,
    "latitude": "33.509442",
    "longitude": "-112.141569",
    "mascot": "Lions",
    "name": "Alhambra High School",
    "primary_color": "Red",
    "secondary_color": "Hunter Green",
    "state": "AZ",
    "timezone": "America/Phoenix",
    "updated_at": "2012-07-07T23:01:24Z",
    "zip": "85019"
  },
  {
    "address": "3921 W Baseline Rd",
    "city": "Laveen",
    "county": "Maricopa County",
    "created_at": "2012-01-04T20:13:40Z",
    "id": 3785,
    "latitude": "33.377561",
    "longitude": "-112.143112",
    "mascot": "Unicorns",
    "name": "Cesar Chavez High School",
    "primary_color": "Gray",
    "secondary_color": "Purple",
    "state": "AZ",
    "timezone": "America/Phoenix",
    "updated_at": "2012-07-07T23:01:25Z",
    "zip": "85339"
  },
  {
    "address": "3415 N 59th Ave",
    "city": "Phoenix",
    "county": "Maricopa County",
    "created_at": "2012-01-04T20:13:40Z",
    "id": 3786,
    "latitude": "33.488112",
    "longitude": "-112.186411",
    "mascot": "Panthers",
    "name": "Maryvale High School",
    "primary_color": "Gold",
    "secondary_color": "Black",
    "state": "AZ",
    "timezone": "America/Phoenix",
    "updated_at": "2012-07-07T23:01:26Z",
    "zip": "85033"
  },
  {
    "address": "1700 E Union Hills Dr",
    "city": "Phoenix",
    "county": "Maricopa County",
    "created_at": "2012-01-04T20:13:40Z",
    "id": 3787,
    "latitude": "33.654960",
    "longitude": "-112.046152",
    "mascot": "Rattlers",
    "name": "North Canyon High School",
    "primary_color": "Purple",
    "secondary_color": "White",
    "state": "AZ",
    "timezone": "America/Phoenix",
    "updated_at": "2012-07-07T23:01:28Z",
    "zip": "85024"
  },
  {
    "address": "7402 W Catalina Dr",
    "city": "Phoenix",
    "county": "Maricopa County",
    "created_at": "2012-01-04T20:13:40Z",
    "id": 3788,
    "latitude": "33.482124",
    "longitude": "-112.218682",
    "mascot": "Bruins",
    "name": "Trevor Browne High School",
    "primary_color": "Orange",
    "secondary_color": "Brown",
    "state": "AZ",
    "timezone": "America/Phoenix",
    "updated_at": "2012-07-07T23:01:28Z",
    "zip": "85033"
  },
  {
    "address": "8225 S. 59 Ave",
    "city": "Laveen",
    "county": "Maricopa County",
    "created_at": "2012-01-04T20:13:40Z",
    "id": 3789,
    "latitude": "33.371756",
    "longitude": "-112.183713",
    "mascot": "Stampede",
    "name": "Betty H. Fairfax High School",
    "primary_color": "Midnight Blue",
    "secondary_color": "Sky Blue",
    "state": "AZ",
    "timezone": "America/Phoenix",
    "updated_at": "2012-07-07T23:01:29Z",
    "zip": "85339"
  },
  {
    "address": "4612 N 28th St",
    "city": "Phoenix",
    "county": "Maricopa County",
    "created_at": "2012-01-04T20:13:40Z",
    "id": 3790,
    "latitude": "33.504429",
    "longitude": "-112.021607",
    "mascot": "Spartans",
    "name": "Camelback High School",
    "primary_color": "Orange",
    "secondary_color": "Royal",
    "state": "AZ",
    "timezone": "America/Phoenix",
    "updated_at": "2012-07-07T23:01:30Z",
    "zip": "85016"
  },
  {
    "address": "3333 W Roosevelt Ave",
    "city": "Phoenix",
    "county": "Maricopa County",
    "created_at": "2012-01-04T20:13:40Z",
    "id": 3791,
    "latitude": "33.458664",
    "longitude": "-112.129904",
    "mascot": "Falcons",
    "name": "Carl Hayden Community High School",
    "primary_color": "Gold",
    "secondary_color": "Royal",
    "state": "AZ",
    "timezone": "America/Phoenix",
    "updated_at": "2012-07-07T23:01:31Z",
    "zip": "85009"
  },
  {
    "address": "4525 N Central Ave",
    "city": "Phoenix",
    "county": "Maricopa County",
    "created_at": "2012-01-04T20:13:40Z",
    "id": 3792,
    "latitude": "33.501861",
    "longitude": "-112.073641",
    "mascot": "Bobcats",
    "name": "Central High School",
    "primary_color": "Gray",
    "secondary_color": "Red",
    "state": "AZ",
    "timezone": "America/Phoenix",
    "updated_at": "2012-07-07T23:01:32Z",
    "zip": "85012"
  },
  {
    "address": "1101 E Thomas Rd",
    "city": "Phoenix",
    "county": "Maricopa County",
    "created_at": "2012-01-04T20:13:40Z",
    "id": 3793,
    "latitude": "33.480231",
    "longitude": "-112.059470",
    "mascot": "Mustangs",
    "name": "North High School",
    "primary_color": "Royal",
    "secondary_color": "Red",
    "state": "AZ",
    "timezone": "America/Phoenix",
    "updated_at": "2012-07-07T23:01:32Z",
    "zip": "85014"
  },
  {
    "address": "5401 S 7th St",
    "city": "Phoenix",
    "county": "Maricopa County",
    "created_at": "2012-01-04T20:13:40Z",
    "id": 3794,
    "latitude": "33.397533",
    "longitude": "-112.064632",
    "mascot": "Jaguars",
    "name": "South Mountain High School",
    "primary_color": "Columbia Blue",
    "secondary_color": "Red",
    "state": "AZ",
    "timezone": "America/Phoenix",
    "updated_at": "2012-07-07T23:01:33Z",
    "zip": "85040"
  },
  {
    "address": "2820 W Rose Garden Ln",
    "city": "Phoenix",
    "county": "Maricopa County",
    "created_at": "2012-01-04T20:13:40Z",
    "id": 3795,
    "latitude": "33.676495",
    "longitude": "-112.120322",
    "mascot": "Bulldogs",
    "name": "Barry Goldwater High School",
    "primary_color": "Gold",
    "secondary_color": "Black",
    "state": "AZ",
    "timezone": "America/Phoenix",
    "updated_at": "2012-07-07T23:01:34Z",
    "zip": "85027"
  },
  {
    "address": "40404 N. Gavilan Peak Pkwy",
    "city": "Anthem",
    "county": "Maricopa County",
    "created_at": "2012-01-04T20:13:40Z",
    "id": 3796,
    "latitude": "33.852296",
    "longitude": "-112.138778",
    "mascot": "Jaguars",
    "name": "Boulder Creek High School",
    "primary_color": "Red",
    "secondary_color": "Black",
    "state": "AZ",
    "timezone": "America/Phoenix",
    "updated_at": "2012-07-07T23:01:35Z",
    "zip": "85086"
  },
  {
    "address": "18424 N 51st Ave",
    "city": "Glendale",
    "county": "Maricopa County",
    "created_at": "2012-01-04T20:13:40Z",
    "id": 3797,
    "latitude": "33.653340",
    "longitude": "-112.168867",
    "mascot": "Skyhawks",
    "name": "Deer Valley High School",
    "primary_color": "Gray",
    "secondary_color": "Royal",
    "state": "AZ",
    "timezone": "America/Phoenix",
    "updated_at": "2012-07-07T23:01:35Z",
    "zip": "85308"
  },
  {
    "address": "4182 Bank Street",
    "city": "Kingman",
    "county": "Mohave County",
    "created_at": "2012-01-04T20:13:40Z",
    "id": 3798,
    "latitude": "35.245308",
    "longitude": "-114.011499",
    "mascot": "Bulldogs",
    "name": "Kingman High School",
    "primary_color": "Gold",
    "secondary_color": "Royal",
    "state": "AZ",
    "timezone": "America/Phoenix",
    "updated_at": "2012-07-07T23:01:37Z",
    "zip": "86409"
  },
  {
    "address": "15550 N Parkview Pl",
    "city": "Surprise",
    "county": "Maricopa County",
    "created_at": "2012-01-04T20:13:40Z",
    "id": 3799,
    "latitude": "33.626616",
    "longitude": "-112.383506",
    "mascot": "Monsoon",
    "name": "Valley Vista High School",
    "primary_color": "Purple",
    "secondary_color": "Black",
    "state": "AZ",
    "timezone": "America/Phoenix",
    "updated_at": "2012-07-07T23:01:37Z",
    "zip": "85374"
  },
  {
    "address": "5601 E Greenway Rd",
    "city": "Scottsdale",
    "county": "Maricopa County",
    "created_at": "2012-01-04T20:13:40Z",
    "id": 3800,
    "latitude": "33.625900",
    "longitude": "-111.960043",
    "mascot": "Huskies",
    "name": "Horizon High School",
    "primary_color": "Kelly Green",
    "secondary_color": "Gold",
    "state": "AZ",
    "timezone": "America/Phoenix",
    "updated_at": "2012-07-07T23:01:38Z",
    "zip": "85254"
  },
  {
    "address": "6000 S Lakeshore Dr",
    "city": "Tempe",
    "county": "Maricopa County",
    "created_at": "2012-01-04T20:13:40Z",
    "id": 3801,
    "latitude": "33.365215",
    "longitude": "-111.919917",
    "mascot": "Padres",
    "name": "Marcos De Niza High School",
    "primary_color": "Gold",
    "secondary_color": "Brown",
    "state": "AZ",
    "timezone": "America/Phoenix",
    "updated_at": "2012-07-07T23:01:39Z",
    "zip": "85283"
  },
  {
    "address": "409 W McMurray Blvd",
    "city": "Casa Grande",
    "county": "Pinal County",
    "created_at": "2012-01-04T20:13:40Z",
    "id": 3802,
    "latitude": "32.886847",
    "longitude": "-111.757649",
    "mascot": "Pioneers",
    "name": "Pinnacle High School",
    "primary_color": "Maroon",
    "secondary_color": "Red",
    "state": "AZ",
    "timezone": "America/Phoenix",
    "updated_at": "2012-07-07T23:01:40Z",
    "zip": "85222"
  },
  {
    "address": "845 S Crismon Rd",
    "city": "Mesa",
    "county": "Maricopa County",
    "created_at": "2012-01-04T20:13:40Z",
    "id": 3803,
    "latitude": "33.399627",
    "longitude": "-111.615385",
    "mascot": "Coyotes",
    "name": "Skyline High School",
    "primary_color": "Gold",
    "secondary_color": "Hunter Green",
    "state": "AZ",
    "timezone": "America/Phoenix",
    "updated_at": "2012-07-07T23:01:40Z",
    "zip": "85208"
  },
  {
    "address": "10045 E. Madero Ave.",
    "city": "Mesa",
    "county": "Maricopa County",
    "created_at": "2012-01-04T20:13:40Z",
    "id": 3804,
    "latitude": "33.371547",
    "longitude": "-111.617774",
    "mascot": "Jaguars",
    "name": "Desert Ridge High School",
    "primary_color": "Black",
    "secondary_color": "Cardinal Red ",
    "state": "AZ",
    "timezone": "America/Phoenix",
    "updated_at": "2012-07-07T23:01:41Z",
    "zip": "85209"
  },
  {
    "address": "5225 Buena School Blvd",
    "city": "Sierra Vista",
    "county": "Cochise County",
    "created_at": "2012-01-04T20:13:40Z",
    "id": 3805,
    "latitude": "31.569579",
    "longitude": "-110.234461",
    "mascot": "Colts",
    "name": "Buena High School",
    "primary_color": "Royal",
    "secondary_color": "White",
    "state": "AZ",
    "timezone": "America/Phoenix",
    "updated_at": "2012-07-07T23:01:42Z",
    "zip": "85635"
  },
  {
    "address": "2730 N Trekell Rd",
    "city": "Casa Grande",
    "county": "Pinal County",
    "created_at": "2012-01-04T20:13:40Z",
    "id": 3806,
    "latitude": "32.934221",
    "longitude": "-111.739467",
    "mascot": "Cougars",
    "name": "Casa Grande Union High School",
    "primary_color": "Gold",
    "secondary_color": "Royal",
    "state": "AZ",
    "timezone": "America/Phoenix",
    "updated_at": "2012-07-07T23:01:44Z",
    "zip": "85222"
  },
  {
    "address": "1545 E Copper St",
    "city": "Tucson",
    "county": "Pima County",
    "created_at": "2012-01-04T20:13:40Z",
    "id": 3807,
    "latitude": "32.254017",
    "longitude": "-110.949164",
    "mascot": "Lancers",
    "name": "Salpointe High School",
    "primary_color": "Maroon",
    "secondary_color": "Gold",
    "state": "AZ",
    "timezone": "America/Phoenix",
    "updated_at": "2012-07-07T23:01:45Z",
    "zip": "85719"
  },
  {
    "address": "400 N 2nd Ave",
    "city": "Tucson",
    "county": "Pima County",
    "created_at": "2012-01-04T20:13:40Z",
    "id": 3808,
    "latitude": "32.224672",
    "longitude": "-110.962477",
    "mascot": "Badgers",
    "name": "Tucson Magnet High School",
    "primary_color": "Red",
    "secondary_color": "White",
    "state": "AZ",
    "timezone": "America/Phoenix",
    "updated_at": "2012-07-07T23:01:46Z",
    "zip": "85705"
  },
  {
    "address": "2245 Ironwood Hills Dr",
    "city": "Tucson",
    "county": "Pima County",
    "created_at": "2012-01-04T20:13:40Z",
    "id": 3809,
    "latitude": "32.250701",
    "longitude": "-111.015349",
    "mascot": "",
    "name": "Ironwood Hills Christian School",
    "primary_color": "Gold",
    "secondary_color": "Purple",
    "state": "AZ",
    "timezone": "America/Phoenix",
    "updated_at": "2012-07-07T23:01:47Z",
    "zip": "85745"
  },
  {
    "address": "3901 W Linda Vista Blvd",
    "city": "Tucson",
    "county": "Pima County",
    "created_at": "2012-01-04T20:13:40Z",
    "id": 3810,
    "latitude": "32.380753",
    "longitude": "-111.048642",
    "mascot": "Mountain Lions",
    "name": "Mountain View High School",
    "primary_color": "Gray",
    "secondary_color": "Black",
    "state": "AZ",
    "timezone": "America/Phoenix",
    "updated_at": "2012-07-07T23:01:48Z",
    "zip": "85742"
  },
  {
    "address": "421 N Arcadia Blvd",
    "city": "Tucson",
    "county": "Pima County",
    "created_at": "2012-01-04T20:13:40Z",
    "id": 3811,
    "latitude": "32.226266",
    "longitude": "-110.888070",
    "mascot": "Rangers",
    "name": "Rincon High School",
    "primary_color": "Purple",
    "secondary_color": "White",
    "state": "AZ",
    "timezone": "America/Phoenix",
    "updated_at": "2012-07-07T23:01:48Z",
    "zip": "85711"
  },
  {
    "address": "1725 E Bilby Rd",
    "city": "Tucson",
    "county": "Pima County",
    "created_at": "2012-01-04T20:13:40Z",
    "id": 3812,
    "latitude": "32.141331",
    "longitude": "-110.945782",
    "mascot": "Blue Devils",
    "name": "Sunnyside High School",
    "primary_color": "Royal",
    "secondary_color": "White",
    "state": "AZ",
    "timezone": "America/Phoenix",
    "updated_at": "2012-07-07T23:01:49Z",
    "zip": "85706"
  },
  {
    "address": "3115 W Missouri Ave",
    "city": "Phoenix",
    "county": "Maricopa County",
    "created_at": "2012-01-04T20:13:40Z",
    "id": 3813,
    "latitude": "33.516712",
    "longitude": "-112.126300",
    "mascot": "",
    "name": "ABC's Little Canyon Special School",
    "primary_color": "",
    "secondary_color": "",
    "state": "AZ",
    "timezone": "America/Phoenix",
    "updated_at": "2012-07-07T23:01:50Z",
    "zip": "85017"
  },
  {
    "address": "594 S Campbell",
    "city": "Tucson",
    "county": "Pima County",
    "created_at": "2012-01-04T20:13:40Z",
    "id": 3814,
    "latitude": "32.214384",
    "longitude": "-110.943721",
    "mascot": "",
    "name": "Accomodation Senior High School",
    "primary_color": "",
    "secondary_color": "",
    "state": "AZ",
    "timezone": "America/Phoenix",
    "updated_at": "2012-07-07T23:01:50Z",
    "zip": "85719"
  },
  {
    "address": "8556 East Loos Drive",
    "city": "Prescott Valley",
    "county": "Yavapai County",
    "created_at": "2012-01-04T20:13:40Z",
    "id": 3815,
    "latitude": "34.604262",
    "longitude": "-112.315981",
    "mascot": "",
    "name": "Acorn Montessori School",
    "primary_color": "",
    "secondary_color": "",
    "state": "AZ",
    "timezone": "America/Phoenix",
    "updated_at": "2012-07-07T23:01:51Z",
    "zip": "86314"
  },
  {
    "address": "5625 S. 51st Ave., ",
    "city": "Laveen",
    "county": "Maricopa County",
    "created_at": "2012-01-04T20:13:40Z",
    "id": 3816,
    "latitude": "33.395067",
    "longitude": "-112.168188",
    "mascot": "",
    "name": "Air Academy Charter High School",
    "primary_color": "",
    "secondary_color": "",
    "state": "AZ",
    "timezone": "America/Phoenix",
    "updated_at": "2012-07-07T23:01:52Z",
    "zip": "85339"
  },
  {
    "address": "5101 S Liberty Ave",
    "city": "Tucson",
    "county": "Pima County",
    "created_at": "2012-01-04T20:13:40Z",
    "id": 3817,
    "latitude": "32.159448",
    "longitude": "-110.973201",
    "mascot": "",
    "name": "Alternative Ed Center For Sunnyside",
    "primary_color": "Royal",
    "secondary_color": "White",
    "state": "AZ",
    "timezone": "America/Phoenix",
    "updated_at": "2012-07-07T23:01:53Z",
    "zip": "85706"
  },
  {
    "address": "2030 E Cherry St",
    "city": "Cottonwood",
    "county": "Yavapai County",
    "created_at": "2012-01-04T20:13:40Z",
    "id": 3818,
    "latitude": "34.732280",
    "longitude": "-112.005646",
    "mascot": "Patriots",
    "name": "American Heritage Academy",
    "primary_color": "Red",
    "secondary_color": "Navy",
    "state": "AZ",
    "timezone": "America/Phoenix",
    "updated_at": "2012-07-07T23:01:53Z",
    "zip": "86326"
  },
  {
    "address": "2030 E Cherry St",
    "city": "Cottonwood",
    "county": "Yavapai County",
    "created_at": "2012-01-04T20:13:40Z",
    "id": 3819,
    "latitude": "34.732280",
    "longitude": "-112.005646",
    "mascot": "",
    "name": "American Heritage Academy",
    "primary_color": "",
    "secondary_color": "",
    "state": "AZ",
    "timezone": "America/Phoenix",
    "updated_at": "2012-07-07T23:01:54Z",
    "zip": "86326"
  },
  {
    "address": "924 Mission Ln #1",
    "city": "Show Low",
    "county": "Navajo County",
    "created_at": "2012-01-04T20:13:40Z",
    "id": 3820,
    "latitude": "34.277604",
    "longitude": "-110.147783",
    "mascot": "Eagles",
    "name": "American Indian Christian Mission School",
    "primary_color": "Purple",
    "secondary_color": "White",
    "state": "AZ",
    "timezone": "America/Phoenix",
    "updated_at": "2012-07-07T23:01:55Z",
    "zip": "85901"
  },
  {
    "address": "945 W. Apache Trail",
    "city": "Apache Junction",
    "county": "Pinal County",
    "created_at": "2012-01-04T20:13:40Z",
    "id": 3821,
    "latitude": "33.415056",
    "longitude": "-111.556284",
    "mascot": "Coyotes",
    "name": "Apex Academy",
    "primary_color": "Red",
    "secondary_color": "Tan",
    "state": "AZ",
    "timezone": "America/Phoenix",
    "updated_at": "2012-07-07T23:01:56Z",
    "zip": "85220"
  },
  {
    "address": "7050 S 24th St",
    "city": "Phoenix",
    "county": "Maricopa County",
    "created_at": "2012-01-04T20:13:40Z",
    "id": 3822,
    "latitude": "33.382708",
    "longitude": "-112.030262",
    "mascot": "",
    "name": "Arizona Agribusiness & Equine Center",
    "primary_color": "",
    "secondary_color": "",
    "state": "AZ",
    "timezone": "America/Phoenix",
    "updated_at": "2012-07-07T23:01:56Z",
    "zip": "85040"
  },
  {
    "address": "649 N 6th Ave",
    "city": "Phoenix",
    "county": "Maricopa County",
    "created_at": "2012-01-04T20:13:40Z",
    "id": 3823,
    "latitude": "33.455699",
    "longitude": "-112.081391",
    "mascot": "",
    "name": "Arizona Call-A-Teen Center Of Excellence",
    "primary_color": "",
    "secondary_color": "",
    "state": "AZ",
    "timezone": "America/Phoenix",
    "updated_at": "2012-07-07T23:01:57Z",
    "zip": "85003"
  },
  {
    "address": "151 N Centennial Way",
    "city": "Mesa",
    "county": "Maricopa County",
    "created_at": "2012-01-04T20:13:40Z",
    "id": 3824,
    "latitude": "33.418645",
    "longitude": "-111.828751",
    "mascot": "",
    "name": "Arizona Career Academy",
    "primary_color": "",
    "secondary_color": "",
    "state": "AZ",
    "timezone": "America/Phoenix",
    "updated_at": "2012-07-07T23:01:58Z",
    "zip": "85201"
  },
  {
    "address": "16025 N Dysart",
    "city": "Surprise",
    "county": "Maricopa County",
    "created_at": "2012-01-04T20:13:40Z",
    "id": 3825,
    "latitude": "33.629884",
    "longitude": "-112.342078",
    "mascot": "",
    "name": "Arizona Charter Academy",
    "primary_color": "",
    "secondary_color": "",
    "state": "AZ",
    "timezone": "America/Phoenix",
    "updated_at": "2012-07-07T23:01:59Z",
    "zip": "85374"
  },
  {
    "address": "1313 N 2nd St",
    "city": "Phoenix",
    "county": "Maricopa County",
    "created_at": "2012-01-04T20:13:40Z",
    "id": 3826,
    "latitude": "33.462910",
    "longitude": "-112.071210",
    "mascot": "",
    "name": "Arizona School For The Arts",
    "primary_color": "Red",
    "secondary_color": "Black",
    "state": "AZ",
    "timezone": "America/Phoenix",
    "updated_at": "2012-07-07T23:01:59Z",
    "zip": "85004"
  },
  {
    "address": "4710 E Baseline Rd",
    "city": "Mesa",
    "county": "Maricopa County",
    "created_at": "2012-01-04T20:13:40Z",
    "id": 3827,
    "latitude": "33.379238",
    "longitude": "-111.732428",
    "mascot": "",
    "name": "Arrowhead Academy",
    "primary_color": "",
    "secondary_color": "",
    "state": "AZ",
    "timezone": "America/Phoenix",
    "updated_at": "2012-07-07T23:02:00Z",
    "zip": "85206"
  },
  {
    "address": "4030 W Yorkshire Dr",
    "city": "Glendale",
    "county": "Maricopa County",
    "created_at": "2012-01-04T20:13:40Z",
    "id": 3828,
    "latitude": "33.661883",
    "longitude": "-112.145970",
    "mascot": "",
    "name": "Arrowhead Christian Academy",
    "primary_color": "",
    "secondary_color": "",
    "state": "AZ",
    "timezone": "America/Phoenix",
    "updated_at": "2012-07-07T23:02:01Z",
    "zip": "85308"
  },
  {
    "address": "3376 S. 6th Avenue",
    "city": "Tucson",
    "county": "Pima County",
    "created_at": "2012-01-04T20:13:40Z",
    "id": 3829,
    "latitude": "32.185497",
    "longitude": "-110.968337",
    "mascot": "",
    "name": "Aztlan Academy",
    "primary_color": "",
    "secondary_color": "",
    "state": "AZ",
    "timezone": "America/Phoenix",
    "updated_at": "2012-07-07T23:02:01Z",
    "zip": "85713"
  },
  {
    "address": "PO Box 960",
    "city": "Bapchule",
    "county": "Pinal County",
    "created_at": "2012-01-04T20:13:40Z",
    "id": 3830,
    "latitude": "33.132120",
    "longitude": "-111.973089",
    "mascot": "Badgers",
    "name": "Baptist Indian Chapel School",
    "primary_color": "Royal",
    "secondary_color": "White",
    "state": "AZ",
    "timezone": "America/Phoenix",
    "updated_at": "2012-07-07T23:02:02Z",
    "zip": "85221"
  },
  {
    "address": "3825 E 2nd St",
    "city": "Tucson",
    "county": "Pima County",
    "created_at": "2012-01-04T20:13:40Z",
    "id": 3831,
    "latitude": "32.234370",
    "longitude": "-110.911181",
    "mascot": "",
    "name": "BASIS School",
    "primary_color": "",
    "secondary_color": "",
    "state": "AZ",
    "timezone": "America/Phoenix",
    "updated_at": "2012-07-07T23:02:03Z",
    "zip": "85716"
  },
  {
    "address": "1200 Park Terrace Ave",
    "city": "Lake Havasu",
    "county": "Mohave County",
    "created_at": "2012-01-04T20:13:40Z",
    "id": 3832,
    "latitude": "34.508869",
    "longitude": "-114.351118",
    "mascot": "",
    "name": "Bethany Bible Church",
    "primary_color": "",
    "secondary_color": "",
    "state": "AZ",
    "timezone": "America/Phoenix",
    "updated_at": "2012-07-07T23:02:03Z",
    "zip": "86404"
  },
  {
    "address": "Rt 1 Box 95 Hwy 87",
    "city": "Coolidge",
    "county": "Pinal County",
    "created_at": "2012-01-04T20:13:40Z",
    "id": 3833,
    "latitude": "32.977625",
    "longitude": "-111.517029",
    "mascot": "Baskets",
    "name": "Blackwater Community School",
    "primary_color": "Turquoise",
    "secondary_color": "Black",
    "state": "AZ",
    "timezone": "America/Phoenix",
    "updated_at": "2012-07-07T23:02:04Z",
    "zip": "85228"
  },
  {
    "address": "3635 N 27th Ave",
    "city": "Phoenix",
    "county": "Maricopa County",
    "created_at": "2012-01-04T20:13:40Z",
    "id": 3834,
    "latitude": "33.490096",
    "longitude": "-112.117051",
    "mascot": "",
    "name": "Bostrom Alternative Center",
    "primary_color": "Red",
    "secondary_color": "Kelly Green",
    "state": "AZ",
    "timezone": "America/Phoenix",
    "updated_at": "2012-07-07T23:02:05Z",
    "zip": "85017"
  },
  {
    "address": "3535 N 27th Ave",
    "city": "Phoenix",
    "county": "Maricopa County",
    "created_at": "2012-01-04T20:13:40Z",
    "id": 3835,
    "latitude": "33.489224",
    "longitude": "-112.117051",
    "mascot": "Bulldogs",
    "name": "Bostrom High School",
    "primary_color": "Red",
    "secondary_color": "Black",
    "state": "AZ",
    "timezone": "America/Phoenix",
    "updated_at": "2012-07-07T23:02:06Z",
    "zip": "85017"
  },
  {
    "address": "4949 E Southern Ave",
    "city": "Mesa",
    "county": "Maricopa County",
    "created_at": "2012-01-04T20:13:40Z",
    "id": 3836,
    "latitude": "33.393818",
    "longitude": "-111.724637",
    "mascot": "Bobcats",
    "name": "Brimhall Junior High School",
    "primary_color": "Columbia Blue",
    "secondary_color": "Navy",
    "state": "AZ",
    "timezone": "America/Phoenix",
    "updated_at": "2012-07-07T23:02:06Z",
    "zip": "85206"
  },
  {
    "address": "402 E Narramore Ave",
    "city": "Buckeye",
    "county": "Maricopa County",
    "created_at": "2012-01-04T20:13:40Z",
    "id": 3837,
    "latitude": "33.374058",
    "longitude": "-112.586228",
    "mascot": "Hawks",
    "name": "Buckeye Academy",
    "primary_color": "Blue",
    "secondary_color": "Yellow",
    "state": "AZ",
    "timezone": "America/Phoenix",
    "updated_at": "2012-07-07T23:02:07Z",
    "zip": "85326"
  },
  {
    "address": "2433 E Adobe Rd",
    "city": "Mesa",
    "county": "Maricopa County",
    "created_at": "2012-01-04T20:13:40Z",
    "id": 3838,
    "latitude": "33.429942",
    "longitude": "-111.778898",
    "mascot": "Panthers",
    "name": "C D Poston Junior High School",
    "primary_color": "Teal",
    "secondary_color": "White",
    "state": "AZ",
    "timezone": "America/Phoenix",
    "updated_at": "2012-07-07T23:02:08Z",
    "zip": "85213"
  },
  {
    "address": "200 N Stone Ave",
    "city": "Tucson",
    "county": "Pima County",
    "created_at": "2012-01-04T20:13:40Z",
    "id": 3839,
    "latitude": "32.224384",
    "longitude": "-110.971641",
    "mascot": "",
    "name": "Calli Ollin Academy",
    "primary_color": "",
    "secondary_color": "",
    "state": "AZ",
    "timezone": "America/Phoenix",
    "updated_at": "2012-07-07T23:02:08Z",
    "zip": "85701"
  },
  {
    "address": "3816 N. 27th Avenue",
    "city": "Phoenix",
    "county": "Maricopa County",
    "created_at": "2012-01-04T20:13:40Z",
    "id": 3840,
    "latitude": "33.492046",
    "longitude": "-112.117057",
    "mascot": "",
    "name": "Career Success High School",
    "primary_color": "",
    "secondary_color": "",
    "state": "AZ",
    "timezone": "America/Phoenix",
    "updated_at": "2012-07-07T23:02:14Z",
    "zip": "85017"
  },
  {
    "address": "3120 N 32nd St",
    "city": "Phoenix",
    "county": "Maricopa County",
    "created_at": "2012-01-04T20:13:40Z",
    "id": 3841,
    "latitude": "33.484755",
    "longitude": "-112.012927",
    "mascot": "",
    "name": "Career Success Sage Campus",
    "primary_color": "",
    "secondary_color": "",
    "state": "AZ",
    "timezone": "America/Phoenix",
    "updated_at": "2012-07-07T23:02:15Z",
    "zip": "85018"
  },
  {
    "address": "525 N Westwood",
    "city": "Mesa",
    "county": "Maricopa County",
    "created_at": "2012-01-04T20:13:41Z",
    "id": 3842,
    "latitude": "33.424500",
    "longitude": "-111.852281",
    "mascot": "Cougars",
    "name": "Carson Junior High School",
    "primary_color": "Red",
    "secondary_color": "Black",
    "state": "AZ",
    "timezone": "America/Phoenix",
    "updated_at": "2012-07-07T23:02:16Z",
    "zip": "85201"
  },
  {
    "address": "650 E Wilcox Dr",
    "city": "Sierra Vista",
    "county": "Cochise County",
    "created_at": "2012-01-04T20:13:41Z",
    "id": 3843,
    "latitude": "31.552286",
    "longitude": "-110.292792",
    "mascot": "",
    "name": "Center For Academic Success",
    "primary_color": "",
    "secondary_color": "",
    "state": "AZ",
    "timezone": "America/Phoenix",
    "updated_at": "2012-07-07T23:02:16Z",
    "zip": "85635"
  },
  {
    "address": "8470 N Overfield Rd",
    "city": "Coolidge",
    "county": "Pinal County",
    "created_at": "2012-01-04T20:13:41Z",
    "id": 3844,
    "latitude": "32.955532",
    "longitude": "-111.652347",
    "mascot": "",
    "name": "Central Arizona College Development",
    "primary_color": "",
    "secondary_color": "",
    "state": "AZ",
    "timezone": "America/Phoenix",
    "updated_at": "2012-07-07T23:02:17Z",
    "zip": "85228"
  },
  {
    "address": "30 Hwy 260 E",
    "city": "Camp Verde",
    "county": "Yavapai County",
    "created_at": "2012-01-04T20:13:41Z",
    "id": 3845,
    "latitude": "34.554123",
    "longitude": "-111.853847",
    "mascot": "",
    "name": "Chester Newton Charter & Montessori",
    "primary_color": "",
    "secondary_color": "",
    "state": "AZ",
    "timezone": "America/Phoenix",
    "updated_at": "2012-07-07T23:02:18Z",
    "zip": "86322"
  },
  {
    "address": "1985 North Rd 1 W",
    "city": "Chino Valley",
    "county": "Yavapai County",
    "created_at": "2012-01-04T20:13:41Z",
    "id": 3846,
    "latitude": "34.773575",
    "longitude": "-112.465141",
    "mascot": "",
    "name": "Chino Valley Excel Campus",
    "primary_color": "Royal",
    "secondary_color": "White",
    "state": "AZ",
    "timezone": "America/Phoenix",
    "updated_at": "2012-07-07T23:02:20Z",
    "zip": "86323"
  },
  {
    "address": "3901 E Indian School Rd",
    "city": "Phoenix",
    "county": "Maricopa County",
    "created_at": "2012-01-04T20:13:41Z",
    "id": 3847,
    "latitude": "33.495091",
    "longitude": "-111.997415",
    "mascot": "Crusaders",
    "name": "Christ Lutheran School",
    "primary_color": "Navy",
    "secondary_color": "White",
    "state": "AZ",
    "timezone": "America/Phoenix",
    "updated_at": "2012-07-07T23:02:21Z",
    "zip": "85018"
  },
  {
    "address": "50 N Colvin St",
    "city": "Colorado City",
    "county": "Mohave County",
    "created_at": "2012-01-04T20:13:41Z",
    "id": 3848,
    "latitude": "36.991380",
    "longitude": "-112.971691",
    "mascot": "",
    "name": "Colorado City Unified School",
    "primary_color": "",
    "secondary_color": "",
    "state": "AZ",
    "timezone": "America/Phoenix",
    "updated_at": "2012-07-07T23:02:22Z",
    "zip": "86021"
  },
  {
    "address": "500 W Guadalupe Rd",
    "city": "Tempe",
    "county": "Maricopa County",
    "created_at": "2012-01-04T20:13:41Z",
    "id": 3849,
    "latitude": "33.363678",
    "longitude": "-111.949508",
    "mascot": "Dream Catchers",
    "name": "Compadre High School",
    "primary_color": "Purple",
    "secondary_color": "Teal",
    "state": "AZ",
    "timezone": "America/Phoenix",
    "updated_at": "2012-07-07T23:02:22Z",
    "zip": "85283"
  },
  {
    "address": "450 N. Arizona Blvd.",
    "city": "Coolidge",
    "county": "Pinal County",
    "created_at": "2012-01-04T20:13:41Z",
    "id": 3850,
    "latitude": "32.981309",
    "longitude": "-111.524007",
    "mascot": "Grizzlies",
    "name": "Coolidge High School Success Center",
    "primary_color": "Black",
    "secondary_color": "Red",
    "state": "AZ",
    "timezone": "America/Phoenix",
    "updated_at": "2012-07-07T23:02:23Z",
    "zip": "85228"
  },
  {
    "address": "1710 S Hwy 260",
    "city": "Cottonwood",
    "county": "Yavapai County",
    "created_at": "2012-01-04T20:13:41Z",
    "id": 3851,
    "latitude": "34.709449",
    "longitude": "-111.995163",
    "mascot": "Cougars",
    "name": "Cornerstone Christian Academy",
    "primary_color": "Red",
    "secondary_color": "Royal",
    "state": "AZ",
    "timezone": "America/Phoenix",
    "updated_at": "2012-07-07T23:02:24Z",
    "zip": "86326"
  },
  {
    "address": "1229 E Cherry St",
    "city": "Cottonwood",
    "county": "Yavapai County",
    "created_at": "2012-01-04T20:13:41Z",
    "id": 3852,
    "latitude": "34.732232",
    "longitude": "-112.013719",
    "mascot": "",
    "name": "Cottonwood Excel Campus",
    "primary_color": "Red",
    "secondary_color": "White",
    "state": "AZ",
    "timezone": "America/Phoenix",
    "updated_at": "2012-07-07T23:02:24Z",
    "zip": "86326"
  },
  {
    "address": "6313 W Southern Ave",
    "city": "Laveen",
    "county": "Maricopa County",
    "created_at": "2012-01-04T20:13:41Z",
    "id": 3853,
    "latitude": "33.391925",
    "longitude": "-112.194301",
    "mascot": "",
    "name": "Country Gardens Charter School",
    "primary_color": "",
    "secondary_color": "",
    "state": "AZ",
    "timezone": "America/Phoenix",
    "updated_at": "2012-07-07T23:02:25Z",
    "zip": "85339"
  },
  {
    "address": "1117 E Devonshire St",
    "city": "Phoenix",
    "county": "Maricopa County",
    "created_at": "2012-01-04T20:13:41Z",
    "id": 3854,
    "latitude": "33.497258",
    "longitude": "-112.057986",
    "mascot": "Colts",
    "name": "Covenant Christian School",
    "primary_color": "Royal",
    "secondary_color": "Gold",
    "state": "AZ",
    "timezone": "America/Phoenix",
    "updated_at": "2012-07-07T23:02:26Z",
    "zip": "85014"
  },
  {
    "address": "1515 S Val Vista",
    "city": "Gilbert",
    "county": "Maricopa County",
    "created_at": "2012-01-04T20:13:41Z",
    "id": 3855,
    "latitude": "33.322271",
    "longitude": "-111.755705",
    "mascot": "Cougars",
    "name": "Desert Hills High School",
    "primary_color": "Navy",
    "secondary_color": "White",
    "state": "AZ",
    "timezone": "America/Phoenix",
    "updated_at": "2012-07-07T23:02:27Z",
    "zip": "85296"
  },
  {
    "address": "5757 W Ajo",
    "city": "Tucson",
    "county": "Pima County",
    "created_at": "2012-01-04T20:13:41Z",
    "id": 3856,
    "latitude": "32.166953",
    "longitude": "-111.087318",
    "mascot": "",
    "name": "Desert Mosaic School",
    "primary_color": "",
    "secondary_color": "",
    "state": "AZ",
    "timezone": "America/Phoenix",
    "updated_at": "2012-07-07T23:02:27Z",
    "zip": "85735"
  },
  {
    "address": "7785 W Peoria Ave",
    "city": "Peoria",
    "county": "Maricopa County",
    "created_at": "2012-01-04T20:13:41Z",
    "id": 3857,
    "latitude": "33.581228",
    "longitude": "-112.227174",
    "mascot": "",
    "name": "Desert Pointe Academy",
    "primary_color": "",
    "secondary_color": "",
    "state": "AZ",
    "timezone": "America/Phoenix",
    "updated_at": "2012-07-07T23:02:28Z",
    "zip": "85345"
  },
  {
    "address": "745 N Gilbert Rd Ste 124-314",
    "city": "Gilbert",
    "county": "Maricopa County",
    "created_at": "2012-01-04T20:13:41Z",
    "id": 3858,
    "latitude": "33.363049",
    "longitude": "-111.789787",
    "mascot": "",
    "name": "Desert Springs Scholastic Institute",
    "primary_color": "",
    "secondary_color": "",
    "state": "AZ",
    "timezone": "America/Phoenix",
    "updated_at": "2012-07-07T23:02:30Z",
    "zip": "85234"
  },
  {
    "address": "2818 Sweetwater Ave",
    "city": "Lake Havasu City",
    "county": "Mohave County",
    "created_at": "2012-01-04T20:13:41Z",
    "id": 3859,
    "latitude": "34.454871",
    "longitude": "-114.293694",
    "mascot": "",
    "name": "Desert Technology High School",
    "primary_color": "",
    "secondary_color": "",
    "state": "AZ",
    "timezone": "America/Phoenix",
    "updated_at": "2012-07-07T23:02:31Z",
    "zip": "86406"
  },
  {
    "address": "512 E Pierce St",
    "city": "Phoenix",
    "county": "Maricopa County",
    "created_at": "2012-01-04T20:13:41Z",
    "id": 3860,
    "latitude": "33.455526",
    "longitude": "-112.067206",
    "mascot": "Sharks",
    "name": "Desiderata Alternative School",
    "primary_color": "Gray",
    "secondary_color": "Purple",
    "state": "AZ",
    "timezone": "America/Phoenix",
    "updated_at": "2012-07-07T23:02:32Z",
    "zip": "85004"
  },
  {
    "address": "8C 63 Box 8",
    "city": "Winslow",
    "county": "Navajo County",
    "created_at": "2012-01-04T20:13:41Z",
    "id": 3861,
    "latitude": "35.127677",
    "longitude": "-110.500196",
    "mascot": "",
    "name": "DINE Southwest High School",
    "primary_color": "",
    "secondary_color": "",
    "state": "AZ",
    "timezone": "America/Phoenix",
    "updated_at": "2012-07-07T23:02:34Z",
    "zip": "86047"
  },
  {
    "address": "166 E Rodger Rd",
    "city": "Tucson",
    "county": "Pima County",
    "created_at": "2012-01-04T20:13:41Z",
    "id": 3862,
    "latitude": "32.266936",
    "longitude": "-110.987006",
    "mascot": "",
    "name": "Dove Christian School",
    "primary_color": "",
    "secondary_color": "",
    "state": "AZ",
    "timezone": "America/Phoenix",
    "updated_at": "2012-07-07T23:02:35Z",
    "zip": "85705"
  },
  {
    "address": "10202 N 19th Ave",
    "city": "Phoenix",
    "county": "Maricopa County",
    "created_at": "2012-01-04T20:13:41Z",
    "id": 3863,
    "latitude": "33.578648",
    "longitude": "-112.099597",
    "mascot": "Dragonflies",
    "name": "Dragonfleye Charter School",
    "primary_color": "Gray",
    "secondary_color": "Maroon",
    "state": "AZ",
    "timezone": "America/Phoenix",
    "updated_at": "2012-07-07T23:02:36Z",
    "zip": "85021"
  },
  {
    "address": "4744 W Grovers",
    "city": "Glendale",
    "county": "Maricopa County",
    "created_at": "2012-01-04T20:13:41Z",
    "id": 3864,
    "latitude": "33.647253",
    "longitude": "-112.161691",
    "mascot": "",
    "name": "E Institute",
    "primary_color": "",
    "secondary_color": "",
    "state": "AZ",
    "timezone": "America/Phoenix",
    "updated_at": "2012-07-07T23:02:37Z",
    "zip": "85308"
  },
  {
    "address": "423 S Colorado Rd",
    "city": "Golden Valley",
    "county": "Mohave County",
    "created_at": "2012-01-04T20:13:41Z",
    "id": 3865,
    "latitude": "35.216286",
    "longitude": "-114.236148",
    "mascot": "",
    "name": "Eagle Academy",
    "primary_color": "",
    "secondary_color": "",
    "state": "AZ",
    "timezone": "America/Phoenix",
    "updated_at": "2012-07-07T23:02:38Z",
    "zip": "86413"
  },
  {
    "address": "17019 S Greenfield Rd",
    "city": "Gilbert",
    "county": "Maricopa County",
    "created_at": "2012-01-04T20:13:41Z",
    "id": 3866,
    "latitude": "33.294685",
    "longitude": "-111.738284",
    "mascot": "",
    "name": "Eagles Aerie School",
    "primary_color": "",
    "secondary_color": "",
    "state": "AZ",
    "timezone": "America/Phoenix",
    "updated_at": "2012-07-07T23:02:39Z",
    "zip": "85297"
  },
  {
    "address": "1601 W Main St",
    "city": "Mesa",
    "county": "Maricopa County",
    "created_at": "2012-01-04T20:13:41Z",
    "id": 3867,
    "latitude": "33.414808",
    "longitude": "-111.865904",
    "mascot": "",
    "name": "East Valley Institute Of Technology",
    "primary_color": "",
    "secondary_color": "",
    "state": "AZ",
    "timezone": "America/Phoenix",
    "updated_at": "2012-07-07T23:02:40Z",
    "zip": "85210"
  },
  {
    "address": "8495 E Broadway Blvd",
    "city": "Tucson",
    "county": "Pima County",
    "created_at": "2012-01-04T20:13:41Z",
    "id": 3868,
    "latitude": "32.221037",
    "longitude": "-110.811072",
    "mascot": "",
    "name": "Eastpointe High School",
    "primary_color": "",
    "secondary_color": "",
    "state": "AZ",
    "timezone": "America/Phoenix",
    "updated_at": "2012-07-07T23:02:40Z",
    "zip": "85710"
  },
  {
    "address": "12221 E Pecos Rd",
    "city": "Chandler",
    "county": "Maricopa County",
    "created_at": "2012-01-04T20:13:41Z",
    "id": 3869,
    "latitude": "33.291783",
    "longitude": "-111.819763",
    "mascot": "",
    "name": "Ecotech Agricultural Charter School",
    "primary_color": "",
    "secondary_color": "",
    "state": "AZ",
    "timezone": "America/Phoenix",
    "updated_at": "2012-07-07T23:02:41Z",
    "zip": "85225"
  },
  {
    "address": "2555 East 1st Street",
    "city": "Tucson",
    "county": "Pima County",
    "created_at": "2012-01-04T20:13:41Z",
    "id": 3870,
    "latitude": "32.234948",
    "longitude": "-110.934528",
    "mascot": "",
    "name": "Edge Charter School - Himmel Park",
    "primary_color": "",
    "secondary_color": "",
    "state": "AZ",
    "timezone": "America/Phoenix",
    "updated_at": "2012-07-07T23:02:41Z",
    "zip": "85716"
  },
  {
    "address": "231 W. Giaconda Way",
    "city": "Tucson",
    "county": "Pima County",
    "created_at": "2012-01-04T20:13:41Z",
    "id": 3871,
    "latitude": "32.334850",
    "longitude": "-110.975657",
    "mascot": "",
    "name": "Edge Charter School - Northwest",
    "primary_color": "",
    "secondary_color": "",
    "state": "AZ",
    "timezone": "America/Phoenix",
    "updated_at": "2012-07-07T23:02:42Z",
    "zip": "85716"
  },
  {
    "address": "15500 S Sahuarita Park Rd",
    "city": "Sahuarita",
    "county": "Pima County",
    "created_at": "2012-01-04T20:13:41Z",
    "id": 3872,
    "latitude": "31.967275",
    "longitude": "-110.928775",
    "mascot": "",
    "name": "Edge Charter School - Sahuarita",
    "primary_color": "",
    "secondary_color": "",
    "state": "AZ",
    "timezone": "America/Phoenix",
    "updated_at": "2012-07-07T23:02:42Z",
    "zip": "85629"
  },
  {
    "address": "2800 E Broadway",
    "city": "Tucson",
    "county": "Pima County",
    "created_at": "2012-01-04T20:13:41Z",
    "id": 3873,
    "latitude": "32.221563",
    "longitude": "-110.930725",
    "mascot": "",
    "name": "Edge Charter School Child & Family",
    "primary_color": "",
    "secondary_color": "",
    "state": "AZ",
    "timezone": "America/Phoenix",
    "updated_at": "2012-07-07T23:02:43Z",
    "zip": "85716"
  },
  {
    "address": "3842 W 16th St",
    "city": "Yuma",
    "county": "Yuma County",
    "created_at": "2012-01-04T20:13:41Z",
    "id": 3874,
    "latitude": "32.698452",
    "longitude": "-114.666002",
    "mascot": "",
    "name": "Educational Opportunity Center",
    "primary_color": "",
    "secondary_color": "",
    "state": "AZ",
    "timezone": "America/Phoenix",
    "updated_at": "2012-07-07T23:02:43Z",
    "zip": "85364"
  },
  {
    "address": "PO Box 406",
    "city": "San Manuel",
    "county": "Pinal County",
    "created_at": "2012-01-04T20:13:41Z",
    "id": 3875,
    "latitude": "32.700021",
    "longitude": "-110.678939",
    "mascot": "",
    "name": "El Camino Alternative School",
    "primary_color": "Red",
    "secondary_color": "Royal",
    "state": "AZ",
    "timezone": "America/Phoenix",
    "updated_at": "2012-07-07T23:02:44Z",
    "zip": "85631"
  },
  {
    "address": "255 N. Cottonwood St.",
    "city": "Colorado City",
    "county": "Mohave County",
    "created_at": "2012-01-04T20:13:41Z",
    "id": 3876,
    "latitude": "36.995083",
    "longitude": "-113.002892",
    "mascot": "Pioneers",
    "name": "El Capitan Public School",
    "primary_color": "Kelly Green",
    "secondary_color": "White",
    "state": "AZ",
    "timezone": "America/Phoenix",
    "updated_at": "2012-07-07T23:02:44Z",
    "zip": "86021"
  },
  {
    "address": "2200 N Arizona Ave Ste 17",
    "city": "Chandler",
    "county": "Maricopa County",
    "created_at": "2012-01-04T20:13:41Z",
    "id": 3877,
    "latitude": "33.339720",
    "longitude": "-111.841767",
    "mascot": "Wildcats",
    "name": "El Dorado High School",
    "primary_color": "Purple",
    "secondary_color": "Gold",
    "state": "AZ",
    "timezone": "America/Phoenix",
    "updated_at": "2012-07-07T23:02:45Z",
    "zip": "85224"
  },
  {
    "address": "4201 N Melpomene Way",
    "city": "Tucson",
    "county": "Pima County",
    "created_at": "2012-01-04T20:13:41Z",
    "id": 3878,
    "latitude": "32.285520",
    "longitude": "-110.755104",
    "mascot": "Bobcats",
    "name": "Emily Gray Junior High School",
    "primary_color": "Navy",
    "secondary_color": "White",
    "state": "AZ",
    "timezone": "America/Phoenix",
    "updated_at": "2012-07-07T23:02:45Z",
    "zip": "85749"
  },
  {
    "address": "10839 E Apache Tr",
    "city": "Apache Junction",
    "county": "Pinal County",
    "created_at": "2012-01-04T20:13:41Z",
    "id": 3879,
    "latitude": "33.423140",
    "longitude": "-111.546119",
    "mascot": "Knights",
    "name": "Excalibur Charter School",
    "primary_color": "Silver",
    "secondary_color": "Turquoise",
    "state": "AZ",
    "timezone": "America/Phoenix",
    "updated_at": "2012-07-07T23:02:46Z",
    "zip": "85220"
  },
  {
    "address": "1385 Gemini St",
    "city": "Fort Mohave",
    "county": "Mohave County",
    "created_at": "2012-01-04T20:13:41Z",
    "id": 3880,
    "latitude": "35.020682",
    "longitude": "-114.600439",
    "mascot": "",
    "name": "Excel Education Center",
    "primary_color": "",
    "secondary_color": "",
    "state": "AZ",
    "timezone": "America/Phoenix",
    "updated_at": "2012-07-07T23:02:46Z",
    "zip": "86426"
  },
  {
    "address": "2229 E Spruce St",
    "city": "Flagstaff",
    "county": "Coconino County",
    "created_at": "2012-01-04T20:13:41Z",
    "id": 3881,
    "latitude": "35.204207",
    "longitude": "-111.616439",
    "mascot": "",
    "name": "Excel Education Centers",
    "primary_color": "",
    "secondary_color": "",
    "state": "AZ",
    "timezone": "America/Phoenix",
    "updated_at": "2012-07-07T23:02:47Z",
    "zip": "86004"
  },
  {
    "address": "Hwy 70 Moonbase Rd",
    "city": "Peridot",
    "county": "Gila County",
    "created_at": "2012-01-04T20:13:41Z",
    "id": 3882,
    "latitude": "33.351590",
    "longitude": "-110.648069",
    "mascot": "",
    "name": "Excel Education Centers Inc",
    "primary_color": "",
    "secondary_color": "",
    "state": "AZ",
    "timezone": "America/Phoenix",
    "updated_at": "2012-07-07T23:02:48Z",
    "zip": "85542"
  },
  {
    "address": "7515 E Long Look Dr",
    "city": "Prescott Valley",
    "county": "Yavapai County",
    "created_at": "2012-01-04T20:13:41Z",
    "id": 3883,
    "latitude": "34.600571",
    "longitude": "-112.333195",
    "mascot": "",
    "name": "Excel Prescott Valley Campus",
    "primary_color": "Red",
    "secondary_color": "White",
    "state": "AZ",
    "timezone": "America/Phoenix",
    "updated_at": "2012-07-07T23:02:48Z",
    "zip": "86314"
  },
  {
    "address": "11080 S Brandywine Ln",
    "city": "Tucson",
    "county": "Pima County",
    "created_at": "2012-01-04T20:13:41Z",
    "id": 3884,
    "latitude": "32.049867",
    "longitude": "-111.269469",
    "mascot": "Braves",
    "name": "Faith Baptist Academy",
    "primary_color": "Red",
    "secondary_color": "White",
    "state": "AZ",
    "timezone": "America/Phoenix",
    "updated_at": "2012-07-07T23:02:49Z",
    "zip": "85736"
  },
  {
    "address": "1720 E Broadway Rd",
    "city": "Mesa",
    "county": "Maricopa County",
    "created_at": "2012-01-04T20:13:41Z",
    "id": 3885,
    "latitude": "33.408045",
    "longitude": "-111.794320",
    "mascot": "Falcons",
    "name": "Faith Christian School",
    "primary_color": "Red",
    "secondary_color": "Black",
    "state": "AZ",
    "timezone": "America/Phoenix",
    "updated_at": "2012-07-07T23:02:49Z",
    "zip": "85204"
  },
  {
    "address": "8500 E Ocotillo Dr",
    "city": "Tucson",
    "county": "Pima County",
    "created_at": "2012-01-04T20:13:41Z",
    "id": 3886,
    "latitude": "32.301702",
    "longitude": "-110.813884",
    "mascot": "",
    "name": "Fenster School Of Southern Arizona",
    "primary_color": "Kelly Green",
    "secondary_color": "White",
    "state": "AZ",
    "timezone": "America/Phoenix",
    "updated_at": "2012-07-07T23:02:50Z",
    "zip": "85750"
  },
  {
    "address": "3100 N Ft Valley Rd #41",
    "city": "Flagstaff",
    "county": "Coconino County",
    "created_at": "2012-01-04T20:13:41Z",
    "id": 3887,
    "latitude": "35.233755",
    "longitude": "-111.663431",
    "mascot": "",
    "name": "Flagstaff Arts & Leadership Academy",
    "primary_color": "",
    "secondary_color": "",
    "state": "AZ",
    "timezone": "America/Phoenix",
    "updated_at": "2012-07-07T23:02:51Z",
    "zip": "86001"
  },
  {
    "address": "7191 E Ashler Hills Dr",
    "city": "Scottsdale",
    "county": "Maricopa County",
    "created_at": "2012-01-04T20:13:41Z",
    "id": 3888,
    "latitude": "33.777510",
    "longitude": "-111.926208",
    "mascot": "Blackhawk",
    "name": "Foothills Academy",
    "primary_color": "Orange",
    "secondary_color": "Black",
    "state": "AZ",
    "timezone": "America/Phoenix",
    "updated_at": "2012-07-07T23:02:51Z",
    "zip": "85262"
  },
  {
    "address": "725 E Main St",
    "city": "Springerville",
    "county": "Apache County",
    "created_at": "2012-01-04T20:13:41Z",
    "id": 3889,
    "latitude": "34.132818",
    "longitude": "-109.277144",
    "mascot": "",
    "name": "Four Winds Academy Charter School",
    "primary_color": "",
    "secondary_color": "",
    "state": "AZ",
    "timezone": "America/Phoenix",
    "updated_at": "2012-07-07T23:02:52Z",
    "zip": "85938"
  },
  {
    "address": "1001 N Power Rd",
    "city": "Mesa",
    "county": "Maricopa County",
    "created_at": "2012-01-04T20:13:41Z",
    "id": 3890,
    "latitude": "33.433949",
    "longitude": "-111.684256",
    "mascot": "Falcons",
    "name": "Fremont Junior High School",
    "primary_color": "Purple",
    "secondary_color": "White",
    "state": "AZ",
    "timezone": "America/Phoenix",
    "updated_at": "2012-07-07T23:02:52Z",
    "zip": "85205"
  },
  {
    "address": "3916 E Paradise Ln",
    "city": "Phoenix",
    "county": "Maricopa County",
    "created_at": "2012-01-04T20:13:41Z",
    "id": 3891,
    "latitude": "33.633435",
    "longitude": "-111.997975",
    "mascot": "Panthers",
    "name": "Gan Yeladeem: The Looking Glass School",
    "primary_color": "Red",
    "secondary_color": "White",
    "state": "AZ",
    "timezone": "America/Phoenix",
    "updated_at": "2012-07-07T23:02:53Z",
    "zip": "85032"
  },
  {
    "address": "108 N 40th St",
    "city": "Phoenix",
    "county": "Maricopa County",
    "created_at": "2012-01-04T20:13:41Z",
    "id": 3892,
    "latitude": "33.449151",
    "longitude": "-111.995370",
    "mascot": "Geckos",
    "name": "Gateway Community High School",
    "primary_color": "Navy",
    "secondary_color": "White",
    "state": "AZ",
    "timezone": "America/Phoenix",
    "updated_at": "2012-07-07T23:02:53Z",
    "zip": "85034"
  },
  {
    "address": "6801 N 43rd Ave",
    "city": "Phoenix",
    "county": "Maricopa County",
    "created_at": "2012-01-04T20:13:41Z",
    "id": 3893,
    "latitude": "33.536731",
    "longitude": "-112.151450",
    "mascot": "",
    "name": "Glenview Adventist School",
    "primary_color": "Pink",
    "secondary_color": "Aqua",
    "state": "AZ",
    "timezone": "America/Phoenix",
    "updated_at": "2012-07-07T23:02:54Z",
    "zip": "85019"
  },
  {
    "address": "2940 W Bethany Home Rd",
    "city": "Phoenix",
    "county": "Maricopa County",
    "created_at": "2012-01-04T20:13:41Z",
    "id": 3894,
    "latitude": "33.524012",
    "longitude": "-112.122158",
    "mascot": "Mustangs",
    "name": "Grace Christian School",
    "primary_color": "Maroon",
    "secondary_color": "White",
    "state": "AZ",
    "timezone": "America/Phoenix",
    "updated_at": "2012-07-07T23:02:54Z",
    "zip": "85017"
  },
  {
    "address": "1333 E 10th St",
    "city": "Tucson",
    "county": "Pima County",
    "created_at": "2012-01-04T20:13:41Z",
    "id": 3895,
    "latitude": "32.222544",
    "longitude": "-110.951835",
    "mascot": "Mountain Lions",
    "name": "Ha:san Preparatory & Leadership School",
    "primary_color": "Red",
    "secondary_color": "Purple",
    "state": "AZ",
    "timezone": "America/Phoenix",
    "updated_at": "2012-07-07T23:02:56Z",
    "zip": "85719"
  },
  {
    "address": "1550 W Summitt Pl",
    "city": "Chandler",
    "county": "Maricopa County",
    "created_at": "2012-01-04T20:13:41Z",
    "id": 3896,
    "latitude": "33.354323",
    "longitude": "-111.868549",
    "mascot": "Huskies",
    "name": "Hendrix Junior High School",
    "primary_color": "Gray",
    "secondary_color": "Red",
    "state": "AZ",
    "timezone": "America/Phoenix",
    "updated_at": "2012-07-07T23:02:56Z",
    "zip": "85224"
  },
  {
    "address": "2001 McLaws Rd Box 910",
    "city": "Holbrook",
    "county": "Navajo County",
    "created_at": "2012-01-04T20:13:41Z",
    "id": 3897,
    "latitude": "34.886727",
    "longitude": "-110.192508",
    "mascot": "Eagles",
    "name": "Holbrook SDA Indian School",
    "primary_color": "Royal",
    "secondary_color": "White",
    "state": "AZ",
    "timezone": "America/Phoenix",
    "updated_at": "2012-07-07T23:02:57Z",
    "zip": "86025"
  },
  {
    "address": "555 S Tucson Blvd",
    "city": "Tucson",
    "county": "Pima County",
    "created_at": "2012-01-04T20:13:41Z",
    "id": 3898,
    "latitude": "32.215205",
    "longitude": "-110.935091",
    "mascot": "",
    "name": "Howenstine High Magnet School",
    "primary_color": "Royal",
    "secondary_color": "White",
    "state": "AZ",
    "timezone": "America/Phoenix",
    "updated_at": "2012-07-07T23:02:57Z",
    "zip": "85716"
  },
  {
    "address": "1105 E Broadway Rd",
    "city": "Tempe",
    "county": "Maricopa County",
    "created_at": "2012-01-04T20:13:41Z",
    "id": 3899,
    "latitude": "33.407441",
    "longitude": "-111.921991",
    "mascot": "",
    "name": "Humanities & Sciences High School",
    "primary_color": "",
    "secondary_color": "",
    "state": "AZ",
    "timezone": "America/Phoenix",
    "updated_at": "2012-07-07T23:02:58Z",
    "zip": "85282"
  },
  {
    "address": "5201 N 7th St",
    "city": "Phoenix",
    "county": "Maricopa County",
    "created_at": "2012-01-04T20:13:41Z",
    "id": 3900,
    "latitude": "33.512953",
    "longitude": "-112.065000",
    "mascot": "",
    "name": "Humanities & Sciences Institute",
    "primary_color": "",
    "secondary_color": "",
    "state": "AZ",
    "timezone": "America/Phoenix",
    "updated_at": "2012-07-07T23:02:59Z",
    "zip": "85014"
  },
  {
    "address": "2000 South Rd 351",
    "city": "Teec Nos Pos",
    "county": "Apache County",
    "created_at": "2012-01-04T20:13:41Z",
    "id": 3901,
    "latitude": "36.781495",
    "longitude": "-109.386193",
    "mascot": "Falcons",
    "name": "Immanuel Mission School",
    "primary_color": "Royal",
    "secondary_color": "Red",
    "state": "AZ",
    "timezone": "America/Denver",
    "updated_at": "2012-07-07T23:02:59Z",
    "zip": "86514"
  },
  {
    "address": "1290 A Scottsdale Rd Ste 123",
    "city": "Tempe",
    "county": "Maricopa County",
    "created_at": "2012-01-04T20:13:41Z",
    "id": 3902,
    "latitude": "33.442986",
    "longitude": "-111.926414",
    "mascot": "",
    "name": "Integrity Education Center",
    "primary_color": "",
    "secondary_color": "",
    "state": "AZ",
    "timezone": "America/Phoenix",
    "updated_at": "2012-07-07T23:03:00Z",
    "zip": "85281"
  },
  {
    "address": "13806 N 51st St",
    "city": "Glendale",
    "county": "Maricopa County",
    "created_at": "2012-01-04T20:13:41Z",
    "id": 3903,
    "latitude": "33.611014",
    "longitude": "-112.168477",
    "mascot": "",
    "name": "Intelli School",
    "primary_color": "",
    "secondary_color": "",
    "state": "AZ",
    "timezone": "America/Phoenix",
    "updated_at": "2012-07-07T23:03:00Z",
    "zip": "85306"
  },
  {
    "address": "4744 W Grovers Ave",
    "city": "Glendale",
    "county": "Maricopa County",
    "created_at": "2012-01-04T20:13:41Z",
    "id": 3904,
    "latitude": "33.647253",
    "longitude": "-112.161691",
    "mascot": "Panthers",
    "name": "International Studies Academy",
    "primary_color": "Navy",
    "secondary_color": "White",
    "state": "AZ",
    "timezone": "America/Phoenix",
    "updated_at": "2012-07-07T23:03:01Z",
    "zip": "85308"
  },
  {
    "address": "3830 N 67th Ave",
    "city": "Phoenix",
    "county": "Maricopa County",
    "created_at": "2012-01-04T20:13:41Z",
    "id": 3905,
    "latitude": "33.492206",
    "longitude": "-112.203247",
    "mascot": "",
    "name": "James Sandoval High School",
    "primary_color": "",
    "secondary_color": "",
    "state": "AZ",
    "timezone": "America/Phoenix",
    "updated_at": "2012-07-07T23:03:02Z",
    "zip": "85033"
  },
  {
    "address": "367 N. 21st Ave",
    "city": "Avondale",
    "county": "Maricopa County",
    "created_at": "2012-01-04T20:13:41Z",
    "id": 3906,
    "latitude": "33.453570",
    "longitude": "-112.104438",
    "mascot": "",
    "name": "JWJ Academy",
    "primary_color": "",
    "secondary_color": "",
    "state": "AZ",
    "timezone": "America/Phoenix",
    "updated_at": "2012-07-07T23:03:02Z",
    "zip": "85009"
  },
  {
    "address": "367 N 21st Ave",
    "city": "Phoenix",
    "county": "Maricopa County",
    "created_at": "2012-01-04T20:13:41Z",
    "id": 3907,
    "latitude": "33.453570",
    "longitude": "-112.104438",
    "mascot": "",
    "name": "JWJ Academy",
    "primary_color": "",
    "secondary_color": "",
    "state": "AZ",
    "timezone": "America/Phoenix",
    "updated_at": "2012-07-07T23:03:04Z",
    "zip": "85009"
  },
  {
    "address": "325 N Washington Street",
    "city": "Prescott",
    "county": "Yavapai County",
    "created_at": "2012-01-04T20:13:41Z",
    "id": 3908,
    "latitude": "34.545851",
    "longitude": "-112.460367",
    "mascot": "Eagles",
    "name": "Kestrel High School",
    "primary_color": "Teal",
    "secondary_color": "White",
    "state": "AZ",
    "timezone": "America/Phoenix",
    "updated_at": "2012-07-07T23:03:05Z",
    "zip": "86301"
  },
  {
    "address": "2055 N Grand Ave",
    "city": "Nogales",
    "county": "Santa Cruz County",
    "created_at": "2012-01-04T20:13:41Z",
    "id": 3909,
    "latitude": "31.369387",
    "longitude": "-110.931391",
    "mascot": "",
    "name": "Kino Academy",
    "primary_color": "",
    "secondary_color": "",
    "state": "AZ",
    "timezone": "America/Phoenix",
    "updated_at": "2012-07-07T23:03:06Z",
    "zip": "85621"
  },
  {
    "address": "848 N Horne St",
    "city": "Mesa",
    "county": "Maricopa County",
    "created_at": "2012-01-04T20:13:41Z",
    "id": 3910,
    "latitude": "33.430774",
    "longitude": "-111.814014",
    "mascot": "Kolts",
    "name": "Kino Junior High School",
    "primary_color": "Kelly Green",
    "secondary_color": "White",
    "state": "AZ",
    "timezone": "America/Phoenix",
    "updated_at": "2012-07-07T23:03:06Z",
    "zip": "85203"
  },
  {
    "address": "1055 Empire Dr",
    "city": "Lake Havasu",
    "county": "Mohave County",
    "created_at": "2012-01-04T20:13:41Z",
    "id": 3911,
    "latitude": "34.504482",
    "longitude": "-114.354441",
    "mascot": "",
    "name": "Lake Havasu Charter School",
    "primary_color": "",
    "secondary_color": "",
    "state": "AZ",
    "timezone": "America/Phoenix",
    "updated_at": "2012-07-07T23:03:07Z",
    "zip": "86404"
  },
  {
    "address": "1130 W 23rd St",
    "city": "Tempe",
    "county": "Maricopa County",
    "created_at": "2012-01-04T20:13:41Z",
    "id": 3912,
    "latitude": "33.403747",
    "longitude": "-111.956305",
    "mascot": "",
    "name": "Learning Crossroads Basic Academy",
    "primary_color": "",
    "secondary_color": "",
    "state": "AZ",
    "timezone": "America/Phoenix",
    "updated_at": "2012-07-07T23:03:07Z",
    "zip": "85282"
  },
  {
    "address": "2929 E McKellips Rd",
    "city": "Mesa",
    "county": "Maricopa County",
    "created_at": "2012-01-04T20:13:41Z",
    "id": 3913,
    "latitude": "33.451814",
    "longitude": "-111.768362",
    "mascot": "Eagles",
    "name": "Life School Gold",
    "primary_color": "Kelly Green",
    "secondary_color": "White",
    "state": "AZ",
    "timezone": "America/Phoenix",
    "updated_at": "2012-07-07T23:03:08Z",
    "zip": "85213"
  },
  {
    "address": "2624 W Lone Cactus Dr",
    "city": "Phoenix",
    "county": "Maricopa County",
    "created_at": "2012-01-04T20:13:41Z",
    "id": 3914,
    "latitude": "33.679861",
    "longitude": "-112.115096",
    "mascot": "Cacti",
    "name": "Lone Cactus School",
    "primary_color": "Gold",
    "secondary_color": "Kelly Green",
    "state": "AZ",
    "timezone": "America/Phoenix",
    "updated_at": "2012-07-07T23:03:08Z",
    "zip": "85027"
  },
  {
    "address": "1557 W Prince Rd",
    "city": "Tucson",
    "county": "Pima County",
    "created_at": "2012-01-04T20:13:41Z",
    "id": 3915,
    "latitude": "32.272236",
    "longitude": "-110.999782",
    "mascot": "",
    "name": "Mathematics & Sciences Achievement",
    "primary_color": "",
    "secondary_color": "",
    "state": "AZ",
    "timezone": "America/Phoenix",
    "updated_at": "2012-07-07T23:03:09Z",
    "zip": "85705"
  },
  {
    "address": "3660 W Glendale Ave",
    "city": "Phoenix",
    "county": "Maricopa County",
    "created_at": "2012-01-04T20:13:41Z",
    "id": 3916,
    "latitude": "33.538498",
    "longitude": "-112.138093",
    "mascot": "",
    "name": "Maya High School",
    "primary_color": "",
    "secondary_color": "",
    "state": "AZ",
    "timezone": "America/Phoenix",
    "updated_at": "2012-07-07T23:03:10Z",
    "zip": "85051"
  },
  {
    "address": "1900 W Thomas Rd",
    "city": "Phoenix",
    "county": "Maricopa County",
    "created_at": "2012-01-04T20:13:41Z",
    "id": 3917,
    "latitude": "33.480630",
    "longitude": "-112.100153",
    "mascot": "Knights",
    "name": "Metro Technical Vocational Institute",
    "primary_color": "Maroon",
    "secondary_color": "Gray",
    "state": "AZ",
    "timezone": "America/Phoenix",
    "updated_at": "2012-07-07T23:03:10Z",
    "zip": "85015"
  },
  {
    "address": "7318 West Lynwood St.",
    "city": "Phoenix",
    "county": "Maricopa County",
    "created_at": "2012-01-04T20:13:41Z",
    "id": 3918,
    "latitude": "33.464489",
    "longitude": "-112.216523",
    "mascot": "",
    "name": "Midtown High School",
    "primary_color": "",
    "secondary_color": "",
    "state": "AZ",
    "timezone": "America/Phoenix",
    "updated_at": "2012-07-07T23:03:11Z",
    "zip": "85043"
  },
  {
    "address": "2925 W Polk St",
    "city": "Phoenix",
    "county": "Maricopa County",
    "created_at": "2012-01-04T20:13:41Z",
    "id": 3919,
    "latitude": "33.453057",
    "longitude": "-112.122631",
    "mascot": "Soldados",
    "name": "Mission Christian School",
    "primary_color": "Purple",
    "secondary_color": "White",
    "state": "AZ",
    "timezone": "America/Phoenix",
    "updated_at": "2012-07-07T23:03:11Z",
    "zip": "85009"
  },
  {
    "address": "625 Marina Blvd",
    "city": "Bullhead City",
    "county": "Mohave County",
    "created_at": "2012-01-04T20:13:41Z",
    "id": 3920,
    "latitude": "35.100730",
    "longitude": "-114.625490",
    "mascot": "",
    "name": "Mohave Accelerated Elementary School",
    "primary_color": "",
    "secondary_color": "",
    "state": "AZ",
    "timezone": "America/Phoenix",
    "updated_at": "2012-07-07T23:03:12Z",
    "zip": "86439"
  },
  {
    "address": "2834 E Southern Ave",
    "city": "Mesa",
    "county": "Maricopa County",
    "created_at": "2012-01-04T20:13:41Z",
    "id": 3921,
    "latitude": "33.393658",
    "longitude": "-111.769479",
    "mascot": "Mustangs",
    "name": "Montessori Education Center",
    "primary_color": "Royal",
    "secondary_color": "White",
    "state": "AZ",
    "timezone": "America/Phoenix",
    "updated_at": "2012-07-07T23:03:13Z",
    "zip": "85204"
  },
  {
    "address": "3200 E Ogden Ranch Rd",
    "city": "Cottonwood",
    "county": "Yavapai County",
    "created_at": "2012-01-04T20:13:41Z",
    "id": 3922,
    "latitude": "34.670079",
    "longitude": "-112.037898",
    "mascot": "Warriors",
    "name": "Montezuma Christian School",
    "primary_color": "Black",
    "secondary_color": "Aqua",
    "state": "AZ",
    "timezone": "America/Phoenix",
    "updated_at": "2012-07-07T23:03:13Z",
    "zip": "86326"
  },
  {
    "address": "300 W Discovery Park Blvd",
    "city": "Safford",
    "county": "Graham County",
    "created_at": "2012-01-04T20:13:41Z",
    "id": 3923,
    "latitude": "32.802409",
    "longitude": "-109.709668",
    "mascot": "Wolverines",
    "name": "Mount Graham High School",
    "primary_color": "Hunter Green",
    "secondary_color": "Black",
    "state": "AZ",
    "timezone": "America/Phoenix",
    "updated_at": "2012-07-07T23:03:15Z",
    "zip": "85546"
  },
  {
    "address": "16500 Pierce Ferry Road",
    "city": "Dolan Springs",
    "county": "Mohave County",
    "created_at": "2012-01-04T20:13:41Z",
    "id": 3924,
    "latitude": "35.604281",
    "longitude": "-114.256112",
    "mascot": "Panthers",
    "name": "Mount Tipton School",
    "primary_color": "Gold",
    "secondary_color": "Kelly Green",
    "state": "AZ",
    "timezone": "America/Phoenix",
    "updated_at": "2012-07-07T23:03:16Z",
    "zip": "86441"
  },
  {
    "address": "3686 W Orange Grove Ste 180",
    "city": "Tucson",
    "county": "Pima County",
    "created_at": "2012-01-04T20:13:41Z",
    "id": 3925,
    "latitude": "32.323360",
    "longitude": "-111.043040",
    "mascot": "",
    "name": "Mountain Rose Academy",
    "primary_color": "",
    "secondary_color": "",
    "state": "AZ",
    "timezone": "America/Phoenix",
    "updated_at": "2012-07-07T23:03:17Z",
    "zip": "85741"
  },
  {
    "address": "1190 W Cleveland",
    "city": "Saint Johns",
    "county": "Apache County",
    "created_at": "2012-01-04T20:13:41Z",
    "id": 3926,
    "latitude": "34.506450",
    "longitude": "-109.382338",
    "mascot": "",
    "name": "Mountainaire Academy",
    "primary_color": "",
    "secondary_color": "",
    "state": "AZ",
    "timezone": "America/Phoenix",
    "updated_at": "2012-07-07T23:03:17Z",
    "zip": "85936"
  },
  {
    "address": "9621 W Speckled Gecko Dr",
    "city": "Peoria",
    "county": "Maricopa County",
    "created_at": "2012-01-04T20:13:41Z",
    "id": 3927,
    "latitude": "33.686702",
    "longitude": "-112.265974",
    "mascot": "Lions",
    "name": "New Liberty High School",
    "primary_color": "Red",
    "secondary_color": "Black",
    "state": "AZ",
    "timezone": "America/Phoenix",
    "updated_at": "2012-07-07T23:03:18Z",
    "zip": "85383"
  },
  {
    "address": "510 Acoma Blvd N",
    "city": "Lake Havasu City",
    "county": "Mohave County",
    "created_at": "2012-01-04T20:13:41Z",
    "id": 3928,
    "latitude": "34.491240",
    "longitude": "-114.330292",
    "mascot": "",
    "name": "New Life Christian School",
    "primary_color": "",
    "secondary_color": "",
    "state": "AZ",
    "timezone": "America/Phoenix",
    "updated_at": "2012-07-07T23:03:18Z",
    "zip": "86403"
  },
  {
    "address": "1313 N 2nd St Ste 200",
    "city": "Phoenix",
    "county": "Maricopa County",
    "created_at": "2012-01-04T20:13:41Z",
    "id": 3929,
    "latitude": "33.462910",
    "longitude": "-112.071210",
    "mascot": "",
    "name": "New World Educational Center",
    "primary_color": "Maroon",
    "secondary_color": "White",
    "state": "AZ",
    "timezone": "America/Phoenix",
    "updated_at": "2012-07-07T23:03:19Z",
    "zip": "85004"
  },
  {
    "address": "4710 E Baseline Rd",
    "city": "Mesa",
    "county": "Maricopa County",
    "created_at": "2012-01-04T20:13:41Z",
    "id": 3930,
    "latitude": "33.379238",
    "longitude": "-111.732428",
    "mascot": "",
    "name": "New World Educational Center",
    "primary_color": "Navy",
    "secondary_color": "Red",
    "state": "AZ",
    "timezone": "America/Phoenix",
    "updated_at": "2012-07-07T23:03:20Z",
    "zip": "85206"
  },
  {
    "address": "10720 W Indian School Road",
    "city": "Phoenix",
    "county": "Maricopa County",
    "created_at": "2012-01-04T20:13:41Z",
    "id": 3931,
    "latitude": "33.493616",
    "longitude": "-112.291077",
    "mascot": "",
    "name": "North Star Charter School",
    "primary_color": "",
    "secondary_color": "",
    "state": "AZ",
    "timezone": "America/Phoenix",
    "updated_at": "2012-07-07T23:03:20Z",
    "zip": "85037"
  },
  {
    "address": "502 Airport Rd",
    "city": "Winslow",
    "county": "Navajo County",
    "created_at": "2012-01-04T20:13:42Z",
    "id": 3932,
    "latitude": "35.017418",
    "longitude": "-110.715575",
    "mascot": "",
    "name": "Northern AZ Academy for Career Dev.",
    "primary_color": "",
    "secondary_color": "",
    "state": "AZ",
    "timezone": "America/Phoenix",
    "updated_at": "2012-07-07T23:03:21Z",
    "zip": "86047"
  },
  {
    "address": "333 Papermill Rd",
    "city": "Taylor",
    "county": "Navajo County",
    "created_at": "2012-01-04T20:13:42Z",
    "id": 3933,
    "latitude": "34.469559",
    "longitude": "-110.097281",
    "mascot": "",
    "name": "Northern AZ Academy for Career Dev.",
    "primary_color": "",
    "secondary_color": "",
    "state": "AZ",
    "timezone": "America/Phoenix",
    "updated_at": "2012-07-07T23:03:22Z",
    "zip": "85939"
  },
  {
    "address": "1165 Willow Pt Rd",
    "city": "Cornville",
    "county": "Yavapai County",
    "created_at": "2012-01-04T20:13:42Z",
    "id": 3934,
    "latitude": "34.752162",
    "longitude": "-111.894500",
    "mascot": "Wildcats",
    "name": "Oak Creek Ranch School",
    "primary_color": "Royal",
    "secondary_color": "White",
    "state": "AZ",
    "timezone": "America/Phoenix",
    "updated_at": "2012-07-07T23:03:23Z",
    "zip": "86325"
  },
  {
    "address": "2616 E Greenway Rd",
    "city": "Phoenix",
    "county": "Maricopa County",
    "created_at": "2012-01-04T20:13:42Z",
    "id": 3935,
    "latitude": "33.626312",
    "longitude": "-112.025940",
    "mascot": "",
    "name": "Ocotillo High School",
    "primary_color": "",
    "secondary_color": "",
    "state": "AZ",
    "timezone": "America/Phoenix",
    "updated_at": "2012-07-07T23:03:23Z",
    "zip": "85032"
  },
  {
    "address": "4220 W Northern Ste 111",
    "city": "Phoenix",
    "county": "Maricopa County",
    "created_at": "2012-01-04T20:13:42Z",
    "id": 3936,
    "latitude": "33.553088",
    "longitude": "-112.149994",
    "mascot": "",
    "name": "Ombudsman Learning Center-Metro",
    "primary_color": "",
    "secondary_color": "",
    "state": "AZ",
    "timezone": "America/Phoenix",
    "updated_at": "2012-07-07T23:03:24Z",
    "zip": "85031"
  },
  {
    "address": "3242 E Bell Rd Ste 10",
    "city": "Phoenix",
    "county": "Maricopa County",
    "created_at": "2012-01-04T20:13:42Z",
    "id": 3937,
    "latitude": "33.640691",
    "longitude": "-112.012216",
    "mascot": "",
    "name": "Ombudsman Learning Center-Northeast",
    "primary_color": "",
    "secondary_color": "",
    "state": "AZ",
    "timezone": "America/Phoenix",
    "updated_at": "2012-07-07T23:03:25Z",
    "zip": "85032"
  },
  {
    "address": "525 W Southern",
    "city": "Mesa",
    "county": "Maricopa County",
    "created_at": "2012-01-04T20:13:42Z",
    "id": 3938,
    "latitude": "33.393210",
    "longitude": "-111.843581",
    "mascot": "",
    "name": "Ombudsman School",
    "primary_color": "",
    "secondary_color": "",
    "state": "AZ",
    "timezone": "America/Phoenix",
    "updated_at": "2012-07-07T23:03:26Z",
    "zip": "85210"
  },
  {
    "address": "3618 W Bell",
    "city": "Glendale",
    "county": "Maricopa County",
    "created_at": "2012-01-04T20:13:42Z",
    "id": 3939,
    "latitude": "33.639624",
    "longitude": "-112.136918",
    "mascot": "",
    "name": "Ombudsman School",
    "primary_color": "",
    "secondary_color": "",
    "state": "AZ",
    "timezone": "America/Phoenix",
    "updated_at": "2012-07-07T23:03:26Z",
    "zip": "85308"
  },
  {
    "address": "3935 E Meadowbrook",
    "city": "Phoenix",
    "county": "Maricopa County",
    "created_at": "2012-01-04T20:13:42Z",
    "id": 3940,
    "latitude": "33.503520",
    "longitude": "-111.996415",
    "mascot": "",
    "name": "Ombudsman School",
    "primary_color": "",
    "secondary_color": "",
    "state": "AZ",
    "timezone": "America/Phoenix",
    "updated_at": "2012-07-07T23:03:27Z",
    "zip": "85018"
  },
  {
    "address": "1402 San Antonio",
    "city": "Douglas",
    "county": "Cochise County",
    "created_at": "2012-01-04T20:13:42Z",
    "id": 3941,
    "latitude": "31.348711",
    "longitude": "-109.532277",
    "mascot": "",
    "name": "Omega Alpha Academy School",
    "primary_color": "Purple",
    "secondary_color": "Gold",
    "state": "AZ",
    "timezone": "America/Phoenix",
    "updated_at": "2012-07-07T23:03:28Z",
    "zip": "85607"
  },
  {
    "address": "35 E Wilcox Dr",
    "city": "Sierra Vista",
    "county": "Cochise County",
    "created_at": "2012-01-04T20:13:42Z",
    "id": 3942,
    "latitude": "31.552193",
    "longitude": "-110.299211",
    "mascot": "",
    "name": "Omega Alpha Academy School",
    "primary_color": "",
    "secondary_color": "",
    "state": "AZ",
    "timezone": "America/Phoenix",
    "updated_at": "2012-07-07T23:03:28Z",
    "zip": "85635"
  },
  {
    "address": "725 N Carpenter Dr",
    "city": "Oracle",
    "county": "Pinal County",
    "created_at": "2012-01-04T20:13:42Z",
    "id": 3943,
    "latitude": "32.607812",
    "longitude": "-110.760754",
    "mascot": "",
    "name": "Oracle Ridge School",
    "primary_color": "Royal",
    "secondary_color": "White",
    "state": "AZ",
    "timezone": "America/Phoenix",
    "updated_at": "2012-07-07T23:03:29Z",
    "zip": "85623"
  },
  {
    "address": "460 S Main St",
    "city": "Camp Verde",
    "county": "Yavapai County",
    "created_at": "2012-01-04T20:13:42Z",
    "id": 3944,
    "latitude": "34.562880",
    "longitude": "-111.853959",
    "mascot": "",
    "name": "PACE Preparatory Academy",
    "primary_color": "",
    "secondary_color": "",
    "state": "AZ",
    "timezone": "America/Phoenix",
    "updated_at": "2012-07-07T23:03:30Z",
    "zip": "86322"
  },
  {
    "address": "12900 E Prescott Ranch Dells Rd",
    "city": "Humboldt",
    "county": "Yavapai County",
    "created_at": "2012-01-04T20:13:42Z",
    "id": 3945,
    "latitude": "34.500600",
    "longitude": "-112.242603",
    "mascot": "",
    "name": "PACE Preparatory Academy",
    "primary_color": "",
    "secondary_color": "",
    "state": "AZ",
    "timezone": "America/Phoenix",
    "updated_at": "2012-07-07T23:03:30Z",
    "zip": "86329"
  },
  {
    "address": "2542 N 76th Pl",
    "city": "Mesa",
    "county": "Maricopa County",
    "created_at": "2012-01-04T20:13:42Z",
    "id": 3946,
    "latitude": "33.462078",
    "longitude": "-111.666157",
    "mascot": "",
    "name": "Pathfinder Academy",
    "primary_color": "",
    "secondary_color": "",
    "state": "AZ",
    "timezone": "America/Phoenix",
    "updated_at": "2012-07-07T23:03:31Z",
    "zip": "85207"
  },
  {
    "address": "675 Sunland Dr",
    "city": "Camp Verde",
    "county": "Yavapai County",
    "created_at": "2012-01-04T20:13:42Z",
    "id": 3947,
    "latitude": "34.559511",
    "longitude": "-111.857539",
    "mascot": "",
    "name": "Pathways Preparatory Academy",
    "primary_color": "",
    "secondary_color": "",
    "state": "AZ",
    "timezone": "America/Phoenix",
    "updated_at": "2012-07-07T23:03:31Z",
    "zip": "86322"
  },
  {
    "address": "501 S McLane Rd",
    "city": "Payson",
    "county": "Gila County",
    "created_at": "2012-01-04T20:13:42Z",
    "id": 3948,
    "latitude": "34.235097",
    "longitude": "-111.336344",
    "mascot": "Dragons",
    "name": "Payson Center For Success",
    "primary_color": "Hunter Green",
    "secondary_color": "Black",
    "state": "AZ",
    "timezone": "America/Phoenix",
    "updated_at": "2012-07-07T23:03:32Z",
    "zip": "85541"
  },
  {
    "address": "213 S Colcord Rd",
    "city": "Payson",
    "county": "Gila County",
    "created_at": "2012-01-04T20:13:42Z",
    "id": 3949,
    "latitude": "34.238978",
    "longitude": "-111.325636",
    "mascot": "Eagles",
    "name": "Payson Community Christian School",
    "primary_color": "Kelly Green",
    "secondary_color": "White",
    "state": "AZ",
    "timezone": "America/Phoenix",
    "updated_at": "2012-07-07T23:03:33Z",
    "zip": "85541"
  },
  {
    "address": "8885 W Peoria Ave",
    "city": "Peoria",
    "county": "Maricopa County",
    "created_at": "2012-01-04T20:13:42Z",
    "id": 3950,
    "latitude": "33.580872",
    "longitude": "-112.250221",
    "mascot": "Bulldogs",
    "name": "Peoria Accelerated High School",
    "primary_color": "Royal",
    "secondary_color": "Yellow",
    "state": "AZ",
    "timezone": "America/Phoenix",
    "updated_at": "2012-07-07T23:03:33Z",
    "zip": "85345"
  },
  {
    "address": "4635 E Thomas Rd",
    "city": "Phoenix",
    "county": "Maricopa County",
    "created_at": "2012-01-04T20:13:42Z",
    "id": 3951,
    "latitude": "33.480152",
    "longitude": "-111.981744",
    "mascot": "",
    "name": "Phoenix School Of Academic Excellence",
    "primary_color": "",
    "secondary_color": "",
    "state": "AZ",
    "timezone": "America/Phoenix",
    "updated_at": "2012-07-07T23:03:34Z",
    "zip": "85018"
  },
  {
    "address": "2525 E Broadway",
    "city": "Tucson",
    "county": "Pima County",
    "created_at": "2012-01-04T20:13:42Z",
    "id": 3952,
    "latitude": "32.221543",
    "longitude": "-110.934594",
    "mascot": "Scorpions",
    "name": "Pima Partnership High School",
    "primary_color": "Ash Grey",
    "secondary_color": "Royal Blue",
    "state": "AZ",
    "timezone": "America/Phoenix",
    "updated_at": "2012-07-07T23:03:34Z",
    "zip": "85716"
  },
  {
    "address": "3950 E Bell Rd",
    "city": "Phoenix",
    "county": "Maricopa County",
    "created_at": "2012-01-04T20:13:42Z",
    "id": 3953,
    "latitude": "33.640779",
    "longitude": "-111.997349",
    "mascot": "",
    "name": "Polaris Alternate High School",
    "primary_color": "Royal",
    "secondary_color": "Gray",
    "state": "AZ",
    "timezone": "America/Phoenix",
    "updated_at": "2012-07-07T23:03:35Z",
    "zip": "85032"
  },
  {
    "address": "855 W 8th Ave",
    "city": "Mesa",
    "county": "Maricopa County",
    "created_at": "2012-01-04T20:13:42Z",
    "id": 3954,
    "latitude": "33.400444",
    "longitude": "-111.850062",
    "mascot": "Patriots",
    "name": "Powell Junior High School",
    "primary_color": "Royal",
    "secondary_color": "Red",
    "state": "AZ",
    "timezone": "America/Phoenix",
    "updated_at": "2012-07-07T23:03:36Z",
    "zip": "85210"
  },
  {
    "address": "3906 E Broadway St Ste 105",
    "city": "Phoenix",
    "county": "Maricopa County",
    "created_at": "2012-01-04T20:13:42Z",
    "id": 3955,
    "latitude": "33.407263",
    "longitude": "-111.997476",
    "mascot": "",
    "name": "Precision Academy System Charter School",
    "primary_color": "",
    "secondary_color": "",
    "state": "AZ",
    "timezone": "America/Phoenix",
    "updated_at": "2012-07-07T23:03:36Z",
    "zip": "85040"
  },
  {
    "address": "7544 W Indian School Rd",
    "city": "Phoenix",
    "county": "Maricopa County",
    "created_at": "2012-01-04T20:13:42Z",
    "id": 3956,
    "latitude": "33.494638",
    "longitude": "-112.222022",
    "mascot": "",
    "name": "Premier Charter High School",
    "primary_color": "",
    "secondary_color": "",
    "state": "AZ",
    "timezone": "America/Phoenix",
    "updated_at": "2012-07-07T23:03:37Z",
    "zip": "85033"
  },
  {
    "address": "9500 Lorna Ln",
    "city": "Prescott Valley",
    "county": "Yavapai County",
    "created_at": "2012-01-04T20:13:42Z",
    "id": 3957,
    "latitude": "34.581600",
    "longitude": "-112.299617",
    "mascot": "",
    "name": "Prescott Valley School",
    "primary_color": "Hunter Green",
    "secondary_color": "Black",
    "state": "AZ",
    "timezone": "America/Phoenix",
    "updated_at": "2012-07-07T23:03:38Z",
    "zip": "86314"
  },
  {
    "address": "1695 E Fort Lowell Rd",
    "city": "Tucson",
    "county": "Pima County",
    "created_at": "2012-01-04T20:13:42Z",
    "id": 3958,
    "latitude": "32.264838",
    "longitude": "-110.946201",
    "mascot": "",
    "name": "Presidio High School",
    "primary_color": "",
    "secondary_color": "",
    "state": "AZ",
    "timezone": "America/Phoenix",
    "updated_at": "2012-07-07T23:03:38Z",
    "zip": "85719"
  },
  {
    "address": "719 N Stapley Dr",
    "city": "Mesa",
    "county": "Maricopa County",
    "created_at": "2012-01-04T20:13:42Z",
    "id": 3959,
    "latitude": "33.428529",
    "longitude": "-111.805277",
    "mascot": "Mustangs",
    "name": "Redeemer Christian School",
    "primary_color": "Purple",
    "secondary_color": "Gold",
    "state": "AZ",
    "timezone": "America/Phoenix",
    "updated_at": "2012-07-07T23:03:39Z",
    "zip": "85203"
  },
  {
    "address": "345 W Cleveland",
    "city": "Saint Johns",
    "county": "Apache County",
    "created_at": "2012-01-04T20:13:42Z",
    "id": 3960,
    "latitude": "34.506668",
    "longitude": "-109.370209",
    "mascot": "",
    "name": "Renaissance Academy",
    "primary_color": "",
    "secondary_color": "",
    "state": "AZ",
    "timezone": "America/Phoenix",
    "updated_at": "2012-07-07T23:03:39Z",
    "zip": "85936"
  },
  {
    "address": "367 N Main St",
    "city": "Edgar",
    "county": "Apache County",
    "created_at": "2012-01-04T20:13:42Z",
    "id": 3961,
    "latitude": "34.117457",
    "longitude": "-109.291538",
    "mascot": "",
    "name": "Renaissance Academy - Malpais Campus",
    "primary_color": "",
    "secondary_color": "",
    "state": "AZ",
    "timezone": "America/Phoenix",
    "updated_at": "2012-07-07T23:03:40Z",
    "zip": "85925"
  },
  {
    "address": "1860 S Longmore St",
    "city": "Mesa",
    "county": "Maricopa County",
    "created_at": "2012-01-04T20:13:42Z",
    "id": 3962,
    "latitude": "33.380865",
    "longitude": "-111.868807",
    "mascot": "Roadrunners",
    "name": "Rhodes Junior High School",
    "primary_color": "Gold",
    "secondary_color": "Maroon",
    "state": "AZ",
    "timezone": "America/Phoenix",
    "updated_at": "2012-07-07T23:03:41Z",
    "zip": "85202"
  },
  {
    "address": "6902 E Golf Links Rd",
    "city": "Tucson",
    "county": "Pima County",
    "created_at": "2012-01-04T20:13:42Z",
    "id": 3963,
    "latitude": "32.191872",
    "longitude": "-110.845812",
    "mascot": "",
    "name": "River Of Life Christian School",
    "primary_color": "Red",
    "secondary_color": "White",
    "state": "AZ",
    "timezone": "America/Phoenix",
    "updated_at": "2012-07-07T23:03:41Z",
    "zip": "85730"
  },
  {
    "address": "3450 E Cholla St",
    "city": "Phoenix",
    "county": "Maricopa County",
    "created_at": "2012-01-04T20:13:42Z",
    "id": 3964,
    "latitude": "33.589825",
    "longitude": "-112.007240",
    "mascot": "",
    "name": "Road Runner School",
    "primary_color": "Kelly Green",
    "secondary_color": "White",
    "state": "AZ",
    "timezone": "America/Phoenix",
    "updated_at": "2012-07-07T23:03:43Z",
    "zip": "85028"
  },
  {
    "address": "6049 N 43rd Ave",
    "city": "Phoenix",
    "county": "Maricopa County",
    "created_at": "2012-01-04T20:13:42Z",
    "id": 3965,
    "latitude": "33.525428",
    "longitude": "-112.151517",
    "mascot": "",
    "name": "Ronald C Bauer High School",
    "primary_color": "",
    "secondary_color": "",
    "state": "AZ",
    "timezone": "America/Phoenix",
    "updated_at": "2012-07-07T23:03:44Z",
    "zip": "85019"
  },
  {
    "address": "1903 E Roeser Rd",
    "city": "Phoenix",
    "county": "Maricopa County",
    "created_at": "2012-01-04T20:13:42Z",
    "id": 3966,
    "latitude": "33.399642",
    "longitude": "-112.040366",
    "mascot": "",
    "name": "SABIS International",
    "primary_color": "",
    "secondary_color": "",
    "state": "AZ",
    "timezone": "America/Phoenix",
    "updated_at": "2012-07-07T23:03:45Z",
    "zip": "85040"
  },
  {
    "address": "1402 N Power Rd",
    "city": "Mesa",
    "county": "Maricopa County",
    "created_at": "2012-01-04T20:13:42Z",
    "id": 3967,
    "latitude": "33.441090",
    "longitude": "-111.684345",
    "mascot": "Cougars",
    "name": "Saguaro Hills Christian School",
    "primary_color": "Gray",
    "secondary_color": "Teal",
    "state": "AZ",
    "timezone": "America/Phoenix",
    "updated_at": "2012-07-07T23:03:45Z",
    "zip": "85205"
  },
  {
    "address": "901 S Campbell Ave",
    "city": "Tucson",
    "county": "Pima County",
    "created_at": "2012-01-04T20:13:42Z",
    "id": 3968,
    "latitude": "32.210342",
    "longitude": "-110.943699",
    "mascot": "",
    "name": "School For Integrated Academics & Tech",
    "primary_color": "",
    "secondary_color": "",
    "state": "AZ",
    "timezone": "America/Phoenix",
    "updated_at": "2012-07-07T23:03:47Z",
    "zip": "85719"
  },
  {
    "address": "518 S 3rd St",
    "city": "Phoenix",
    "county": "Maricopa County",
    "created_at": "2012-01-04T20:13:42Z",
    "id": 3969,
    "latitude": "33.442682",
    "longitude": "-112.069919",
    "mascot": "",
    "name": "School For Integrated Academics & Tech",
    "primary_color": "",
    "secondary_color": "",
    "state": "AZ",
    "timezone": "America/Phoenix",
    "updated_at": "2012-07-07T23:03:48Z",
    "zip": "85004"
  },
  {
    "address": "1460 S Horne St",
    "city": "Mesa",
    "county": "Maricopa County",
    "created_at": "2012-01-04T20:13:42Z",
    "id": 3970,
    "latitude": "33.388017",
    "longitude": "-111.814227",
    "mascot": "Saskatchews",
    "name": "Sequoia School",
    "primary_color": "Gold",
    "secondary_color": "Royal",
    "state": "AZ",
    "timezone": "America/Phoenix",
    "updated_at": "2012-07-07T23:03:49Z",
    "zip": "85204"
  },
  {
    "address": "982 Full House Ln",
    "city": "Show Low",
    "county": "Navajo County",
    "created_at": "2012-01-04T20:13:42Z",
    "id": 3971,
    "latitude": "34.284154",
    "longitude": "-110.120792",
    "mascot": "Panthers",
    "name": "Sequoia Village School",
    "primary_color": "Purple",
    "secondary_color": "Black",
    "state": "AZ",
    "timezone": "America/Phoenix",
    "updated_at": "2012-07-07T23:03:49Z",
    "zip": "85901"
  },
  {
    "address": "23 Standage Dr",
    "city": "Payson",
    "county": "Gila County",
    "created_at": "2012-01-04T20:13:42Z",
    "id": 3972,
    "latitude": "34.322035",
    "longitude": "-111.146189",
    "mascot": "",
    "name": "Shelby School",
    "primary_color": "",
    "secondary_color": "",
    "state": "AZ",
    "timezone": "America/Phoenix",
    "updated_at": "2012-07-07T23:03:50Z",
    "zip": "85541"
  },
  {
    "address": "1407 N Alta Mesa Dr",
    "city": "Mesa",
    "county": "Maricopa County",
    "created_at": "2012-01-04T20:13:42Z",
    "id": 3973,
    "latitude": "33.441113",
    "longitude": "-111.707027",
    "mascot": "Stallions",
    "name": "Shepherd Junior High School",
    "primary_color": "Navy",
    "secondary_color": "White",
    "state": "AZ",
    "timezone": "America/Phoenix",
    "updated_at": "2012-07-07T23:03:51Z",
    "zip": "85205"
  },
  {
    "address": "200 North Ave",
    "city": "Sierra Vista",
    "county": "Cochise County",
    "created_at": "2012-01-04T20:13:42Z",
    "id": 3974,
    "latitude": "31.556966",
    "longitude": "-110.301688",
    "mascot": "Heralds",
    "name": "Shiloh Christian School",
    "primary_color": "Red",
    "secondary_color": "Navy",
    "state": "AZ",
    "timezone": "America/Phoenix",
    "updated_at": "2012-07-07T23:03:52Z",
    "zip": "85635"
  },
  {
    "address": "4200 E Ramsey Rd",
    "city": "Hereford",
    "county": "Cochise County",
    "created_at": "2012-01-04T20:13:42Z",
    "id": 3975,
    "latitude": "31.467320",
    "longitude": "-110.237529",
    "mascot": "",
    "name": "Sierra Summitt Academy",
    "primary_color": "",
    "secondary_color": "",
    "state": "AZ",
    "timezone": "America/Phoenix",
    "updated_at": "2012-07-07T23:03:52Z",
    "zip": "85615"
  },
  {
    "address": "15220 S. 50th Street #109",
    "city": "Phoenix",
    "county": "Maricopa County",
    "created_at": "2012-01-04T20:13:42Z",
    "id": 3976,
    "latitude": "33.307424",
    "longitude": "-111.976018",
    "mascot": "Eagles",
    "name": "Skyline Technical High School",
    "primary_color": "",
    "secondary_color": "",
    "state": "AZ",
    "timezone": "America/Phoenix",
    "updated_at": "2012-07-07T23:03:53Z",
    "zip": "85044"
  },
  {
    "address": "17667 N 91st Ave.",
    "city": "Peoria",
    "county": "Maricopa County",
    "created_at": "2012-01-04T20:13:42Z",
    "id": 3977,
    "latitude": "33.643290",
    "longitude": "-112.255001",
    "mascot": "",
    "name": "Skyline Technical Junior High School",
    "primary_color": "",
    "secondary_color": "",
    "state": "AZ",
    "timezone": "America/Phoenix",
    "updated_at": "2012-07-07T23:03:54Z",
    "zip": "85382"
  },
  {
    "address": "10100 E Adobe",
    "city": "Mesa",
    "county": "Maricopa County",
    "created_at": "2012-01-04T20:13:42Z",
    "id": 3978,
    "latitude": "33.429568",
    "longitude": "-111.614329",
    "mascot": "Sidewinders",
    "name": "Smith Junior High School",
    "primary_color": "Navy",
    "secondary_color": "Gold",
    "state": "AZ",
    "timezone": "America/Phoenix",
    "updated_at": "2012-07-07T23:03:54Z",
    "zip": "85207"
  },
  {
    "address": "2255 West Ina Road ",
    "city": "Tucson",
    "county": "Pima County",
    "created_at": "2012-01-04T20:13:42Z",
    "id": 3979,
    "latitude": "32.337222",
    "longitude": "-111.015476",
    "mascot": "",
    "name": "Sonoran Science Academy",
    "primary_color": "Purple",
    "secondary_color": "Yellow",
    "state": "AZ",
    "timezone": "America/Phoenix",
    "updated_at": "2012-07-07T23:03:56Z",
    "zip": "85741"
  },
  {
    "address": "2470 N Tucson Blvd",
    "city": "Tucson",
    "county": "Pima County",
    "created_at": "2012-01-04T20:13:42Z",
    "id": 3980,
    "latitude": "32.251764",
    "longitude": "-110.935382",
    "mascot": "",
    "name": "Southern Arizona Community High School",
    "primary_color": "",
    "secondary_color": "",
    "state": "AZ",
    "timezone": "America/Phoenix",
    "updated_at": "2012-07-07T23:03:56Z",
    "zip": "85716"
  },
  {
    "address": "850 W Valencia Rd",
    "city": "Tucson",
    "county": "Pima County",
    "created_at": "2012-01-04T20:13:42Z",
    "id": 3981,
    "latitude": "32.134056",
    "longitude": "-110.983525",
    "mascot": "",
    "name": "Southgate Academy",
    "primary_color": "",
    "secondary_color": "",
    "state": "AZ",
    "timezone": "America/Phoenix",
    "updated_at": "2012-07-07T23:03:57Z",
    "zip": "85706"
  },
  {
    "address": "14202 N 73rd Ave",
    "city": "Peoria",
    "county": "Maricopa County",
    "created_at": "2012-01-04T20:13:42Z",
    "id": 3982,
    "latitude": "33.613307",
    "longitude": "-112.215657",
    "mascot": "",
    "name": "Southwest Indian Living Word Academy",
    "primary_color": "Red",
    "secondary_color": "White",
    "state": "AZ",
    "timezone": "America/Phoenix",
    "updated_at": "2012-07-07T23:03:58Z",
    "zip": "85381"
  },
  {
    "address": "Beaver Creek Ranch HC 64 Box 235",
    "city": "Rimrock",
    "county": "Yavapai County",
    "created_at": "2012-01-04T20:13:42Z",
    "id": 3983,
    "latitude": "34.641764",
    "longitude": "-111.780363",
    "mascot": "Suns",
    "name": "Southwestern Academy",
    "primary_color": "Red",
    "secondary_color": "White",
    "state": "AZ",
    "timezone": "America/Phoenix",
    "updated_at": "2012-07-07T23:03:59Z",
    "zip": "86335"
  },
  {
    "address": "3250 E Hermosa Vista",
    "city": "Mesa",
    "county": "Maricopa County",
    "created_at": "2012-01-04T20:13:42Z",
    "id": 3984,
    "latitude": "33.459114",
    "longitude": "-111.761042",
    "mascot": "Sabercats",
    "name": "Stapley Junior High School",
    "primary_color": "Gold",
    "secondary_color": "Maroon",
    "state": "AZ",
    "timezone": "America/Phoenix",
    "updated_at": "2012-07-07T23:03:59Z",
    "zip": "85213"
  },
  {
    "address": "2801 N 31st St",
    "city": "Phoenix",
    "county": "Maricopa County",
    "created_at": "2012-01-04T20:13:42Z",
    "id": 3985,
    "latitude": "33.478821",
    "longitude": "-112.015071",
    "mascot": "",
    "name": "Star Shine Academy",
    "primary_color": "",
    "secondary_color": "",
    "state": "AZ",
    "timezone": "America/Phoenix",
    "updated_at": "2012-07-07T23:04:00Z",
    "zip": "85008"
  },
  {
    "address": "198 Ezell Ln",
    "city": "Payson",
    "county": "Gila County",
    "created_at": "2012-01-04T20:13:42Z",
    "id": 3986,
    "latitude": "34.250440",
    "longitude": "-111.262899",
    "mascot": "",
    "name": "Star Valley School",
    "primary_color": "",
    "secondary_color": "",
    "state": "AZ",
    "timezone": "America/Phoenix",
    "updated_at": "2012-07-07T23:04:00Z",
    "zip": "85541"
  },
  {
    "address": "1833 N Scottsdale Rd",
    "city": "Tempe",
    "county": "Maricopa County",
    "created_at": "2012-01-04T20:13:42Z",
    "id": 3987,
    "latitude": "33.449956",
    "longitude": "-111.926451",
    "mascot": "",
    "name": "Student Choice High School",
    "primary_color": "",
    "secondary_color": "",
    "state": "AZ",
    "timezone": "America/Phoenix",
    "updated_at": "2012-07-07T23:04:01Z",
    "zip": "85281"
  },
  {
    "address": "728 E McDowell St",
    "city": "Phoenix",
    "county": "Maricopa County",
    "created_at": "2012-01-04T20:13:42Z",
    "id": 3988,
    "latitude": "33.465726",
    "longitude": "-112.064265",
    "mascot": "",
    "name": "Summit High School",
    "primary_color": "",
    "secondary_color": "",
    "state": "AZ",
    "timezone": "America/Phoenix",
    "updated_at": "2012-07-07T23:04:02Z",
    "zip": "85006"
  },
  {
    "address": "8811 W Avra Valley Rd",
    "city": "Marana",
    "county": "Pima County",
    "created_at": "2012-01-04T20:13:42Z",
    "id": 3989,
    "latitude": "32.402694",
    "longitude": "-111.153368",
    "mascot": "Eagles",
    "name": "Sun & Shield Baptist Academy",
    "primary_color": "Teal",
    "secondary_color": "Purple",
    "state": "AZ",
    "timezone": "America/Phoenix",
    "updated_at": "2012-07-07T23:04:03Z",
    "zip": "85653"
  },
  {
    "address": "1143 S Lindsay Rd",
    "city": "Mesa",
    "county": "Maricopa County",
    "created_at": "2012-01-04T20:13:42Z",
    "id": 3990,
    "latitude": "33.394695",
    "longitude": "-111.771206",
    "mascot": "",
    "name": "Sun Valley High School",
    "primary_color": "",
    "secondary_color": "",
    "state": "AZ",
    "timezone": "America/Phoenix",
    "updated_at": "2012-07-07T23:04:03Z",
    "zip": "85204"
  },
  {
    "address": "8450 S Sun Valley Rd",
    "city": "Sun Valley",
    "county": "Navajo County",
    "created_at": "2012-01-04T20:13:42Z",
    "id": 3991,
    "latitude": "34.979526",
    "longitude": "-110.058228",
    "mascot": "Warriors",
    "name": "Sun Valley Indian School",
    "primary_color": "Gold",
    "secondary_color": "Purple",
    "state": "AZ",
    "timezone": "America/Phoenix",
    "updated_at": "2012-07-07T23:04:04Z",
    "zip": "86029"
  },
  {
    "address": "546 N Stapley Dr",
    "city": "Mesa",
    "county": "Maricopa County",
    "created_at": "2012-01-04T20:13:42Z",
    "id": 3992,
    "latitude": "33.424880",
    "longitude": "-111.805300",
    "mascot": "",
    "name": "Sundown High School",
    "primary_color": "",
    "secondary_color": "",
    "state": "AZ",
    "timezone": "America/Phoenix",
    "updated_at": "2012-07-07T23:04:05Z",
    "zip": "85203"
  },
  {
    "address": "705 S 32nd St",
    "city": "Mesa",
    "county": "Maricopa County",
    "created_at": "2012-01-04T20:13:42Z",
    "id": 3993,
    "latitude": "33.403607",
    "longitude": "-111.762447",
    "mascot": "Trojans",
    "name": "Taylor Junior High School",
    "primary_color": "Gold",
    "secondary_color": "Black",
    "state": "AZ",
    "timezone": "America/Phoenix",
    "updated_at": "2012-07-07T23:04:06Z",
    "zip": "85202"
  },
  {
    "address": "2598 Starlite Ln",
    "city": "Lake Havasu City",
    "county": "Mohave County",
    "created_at": "2012-01-04T20:13:42Z",
    "id": 3994,
    "latitude": "34.491417",
    "longitude": "-114.317264",
    "mascot": "Telesis Tigers",
    "name": "Telesis Preparatory Academy",
    "primary_color": "Purple",
    "secondary_color": "Hunter Green",
    "state": "AZ",
    "timezone": "America/Phoenix",
    "updated_at": "2012-07-07T23:04:06Z",
    "zip": "86403"
  },
  {
    "address": "5040 south price Rd",
    "city": "Tempe",
    "county": "Maricopa County",
    "created_at": "2012-01-04T20:13:42Z",
    "id": 3995,
    "latitude": "33.380633",
    "longitude": "-111.893088",
    "mascot": "Knights",
    "name": "Tempe Accelerated High School",
    "primary_color": "Maroon",
    "secondary_color": "Black",
    "state": "AZ",
    "timezone": "America/Phoenix",
    "updated_at": "2012-07-07T23:04:07Z",
    "zip": "85282"
  },
  {
    "address": "1200 N 77th",
    "city": "Scottsdale",
    "county": "Maricopa County",
    "created_at": "2012-01-04T20:13:42Z",
    "id": 3996,
    "latitude": "33.462265",
    "longitude": "-111.913781",
    "mascot": "Knights",
    "name": "The New Foundation School",
    "primary_color": "Gray",
    "secondary_color": "Purple",
    "state": "AZ",
    "timezone": "America/Phoenix",
    "updated_at": "2012-07-07T23:04:08Z",
    "zip": "85257"
  },
  {
    "address": "49241 Ehrenberg Parker Hwy",
    "city": "Ehrenberg",
    "county": "La Paz County",
    "created_at": "2012-01-04T20:13:42Z",
    "id": 3997,
    "latitude": "33.618320",
    "longitude": "-114.505449",
    "mascot": "",
    "name": "The Scholars Academy",
    "primary_color": "",
    "secondary_color": "",
    "state": "AZ",
    "timezone": "America/Phoenix",
    "updated_at": "2012-07-07T23:04:08Z",
    "zip": "85334"
  },
  {
    "address": "301 W Roosevelt",
    "city": "Phoenix",
    "county": "Maricopa County",
    "created_at": "2012-01-04T20:13:42Z",
    "id": 3998,
    "latitude": "33.458652",
    "longitude": "-112.077908",
    "mascot": "",
    "name": "The Village: A HS for Pregnant & Parent",
    "primary_color": "",
    "secondary_color": "",
    "state": "AZ",
    "timezone": "America/Phoenix",
    "updated_at": "2012-07-07T23:04:13Z",
    "zip": "85003"
  },
  {
    "address": "7410 E Sutton Dr",
    "city": "Scottsdale",
    "county": "Maricopa County",
    "created_at": "2012-01-04T20:13:42Z",
    "id": 3999,
    "latitude": "33.607574",
    "longitude": "-111.920874",
    "mascot": "",
    "name": "Thunderbird Adventist Academy",
    "primary_color": "Royal",
    "secondary_color": "White",
    "state": "AZ",
    "timezone": "America/Phoenix",
    "updated_at": "2012-07-07T23:04:14Z",
    "zip": "85260"
  },
  {
    "address": "2555 N Stone Rd",
    "city": "Tucson",
    "county": "Pima County",
    "created_at": "2012-01-04T20:13:42Z",
    "id": 4000,
    "latitude": "32.253459",
    "longitude": "-110.971972",
    "mascot": "Gryphons",
    "name": "Transformational Learning Center",
    "primary_color": "Ash Grey",
    "secondary_color": "Royal Blue",
    "state": "AZ",
    "timezone": "America/Phoenix",
    "updated_at": "2012-07-07T23:04:15Z",
    "zip": "85705"
  },
  {
    "address": "2150 E Southern Ave",
    "city": "Tempe",
    "county": "Maricopa County",
    "created_at": "2012-01-04T20:13:42Z",
    "id": 4001,
    "latitude": "33.392992",
    "longitude": "-111.894437",
    "mascot": "Warriors",
    "name": "Tri City Christian Academy",
    "primary_color": "Gold",
    "secondary_color": "Kelly Green",
    "state": "AZ",
    "timezone": "America/Phoenix",
    "updated_at": "2012-07-07T23:04:16Z",
    "zip": "85282"
  },
  {
    "address": "3200 Willow Creek Rd",
    "city": "Prescott",
    "county": "Yavapai County",
    "created_at": "2012-01-04T20:13:42Z",
    "id": 4002,
    "latitude": "34.604472",
    "longitude": "-112.455068",
    "mascot": "",
    "name": "Tri City Prep High School",
    "primary_color": "",
    "secondary_color": "",
    "state": "AZ",
    "timezone": "America/Phoenix",
    "updated_at": "2012-07-07T23:04:17Z",
    "zip": "86301"
  },
  {
    "address": "2323 S. Park Avenue",
    "city": "Tucson",
    "county": "Pima County",
    "created_at": "2012-01-04T20:13:42Z",
    "id": 4003,
    "latitude": "32.195195",
    "longitude": "-110.956101",
    "mascot": "Panthers",
    "name": "Tucson Urban League Academy",
    "primary_color": "Black",
    "secondary_color": "White",
    "state": "AZ",
    "timezone": "America/Phoenix",
    "updated_at": "2012-07-07T23:04:18Z",
    "zip": "85713"
  },
  {
    "address": "100 West 37th Street ",
    "city": "Tucson",
    "county": "Pima County",
    "created_at": "2012-01-04T20:13:42Z",
    "id": 4004,
    "latitude": "32.191408",
    "longitude": "-110.970056",
    "mascot": "Panthers",
    "name": "Tucson Urban League Charter School",
    "primary_color": "Gray",
    "secondary_color": "Black",
    "state": "AZ",
    "timezone": "America/Phoenix",
    "updated_at": "2012-07-07T23:04:18Z",
    "zip": "85713"
  },
  {
    "address": "421 N Arcadia Ave",
    "city": "Tucson",
    "county": "Pima County",
    "created_at": "2012-01-04T20:13:42Z",
    "id": 4005,
    "latitude": "32.226266",
    "longitude": "-110.888070",
    "mascot": "Penguins",
    "name": "University High School",
    "primary_color": "Black",
    "secondary_color": "White",
    "state": "AZ",
    "timezone": "America/Phoenix",
    "updated_at": "2012-07-07T23:04:19Z",
    "zip": "85711"
  },
  {
    "address": "9040 S Rita Rd",
    "city": "Tuscon",
    "county": "Pima County",
    "created_at": "2012-01-04T20:13:42Z",
    "id": 4006,
    "latitude": "32.091620",
    "longitude": "-110.804305",
    "mascot": "Boxer Dogs",
    "name": "Vail High School",
    "primary_color": "Royal",
    "secondary_color": "White",
    "state": "AZ",
    "timezone": "America/Phoenix",
    "updated_at": "2012-07-07T23:04:20Z",
    "zip": "85747"
  },
  {
    "address": "215 Taylor Dr",
    "city": "Sierra Vista",
    "county": "Cochise County",
    "created_at": "2012-01-04T20:13:42Z",
    "id": 4007,
    "latitude": "31.560793",
    "longitude": "-110.303503",
    "mascot": "Conquerors",
    "name": "Veritas Christian Community School",
    "primary_color": "Royal",
    "secondary_color": "Gray",
    "state": "AZ",
    "timezone": "America/Phoenix",
    "updated_at": "2012-07-07T23:04:21Z",
    "zip": "85635"
  },
  {
    "address": "2350 S Virginia Dr",
    "city": "Yuma",
    "county": "Yuma County",
    "created_at": "2012-01-04T20:13:42Z",
    "id": 4008,
    "latitude": "32.685285",
    "longitude": "-114.622677",
    "mascot": "Loboes",
    "name": "Vista School",
    "primary_color": "Black",
    "secondary_color": "Purple",
    "state": "AZ",
    "timezone": "America/Phoenix",
    "updated_at": "2012-07-07T23:04:21Z",
    "zip": "85364"
  }
]