[
  {
    "address": "900 Hinson St",
    "city": "Las Vegas",
    "county": "Clark County",
    "created_at": "2012-01-04T20:16:12Z",
    "id": 16532,
    "latitude": "36.160619",
    "longitude": "-115.195122",
    "mascot": "Panthers",
    "name": "Hyde Park Junior High School",
    "primary_color": "Gold",
    "secondary_color": "Black",
    "state": "NV",
    "timezone": "America/Los_Angeles",
    "updated_at": "2012-07-08T00:33:25Z",
    "zip": "89107"
  },
  {
    "address": "100 Academic Way",
    "city": "Owyhee",
    "county": "Elko County",
    "created_at": "2012-01-04T20:16:12Z",
    "id": 16533,
    "latitude": "41.946392",
    "longitude": "-116.098811",
    "mascot": "Braves",
    "name": "Owyhee Combined School",
    "primary_color": "Red",
    "secondary_color": "White",
    "state": "NV",
    "timezone": "America/Los_Angeles",
    "updated_at": "2012-07-08T00:33:26Z",
    "zip": "89832"
  },
  {
    "address": "501 E Calvada Blvd",
    "city": "Pahrump",
    "county": "Nye County",
    "created_at": "2012-01-04T20:16:12Z",
    "id": 16534,
    "latitude": "36.191604",
    "longitude": "-116.005103",
    "mascot": "Trojans",
    "name": "Pahrump Valley High School",
    "primary_color": "Gold",
    "secondary_color": "Maroon",
    "state": "NV",
    "timezone": "America/Los_Angeles",
    "updated_at": "2012-07-08T00:33:26Z",
    "zip": "89048"
  },
  {
    "address": "2001 Tennant Rd",
    "city": "Tonopah",
    "county": "Nye County",
    "created_at": "2012-01-04T20:16:12Z",
    "id": 16535,
    "latitude": "38.368215",
    "longitude": "-116.500519",
    "mascot": "Muckers",
    "name": "Tonopah High School",
    "primary_color": "Red",
    "secondary_color": "White",
    "state": "NV",
    "timezone": "America/Los_Angeles",
    "updated_at": "2012-07-08T00:33:26Z",
    "zip": "89049"
  },
  {
    "address": "110 Bishop Manogue Dr",
    "city": "Reno",
    "county": "Washoe County",
    "created_at": "2012-01-04T20:16:12Z",
    "id": 16536,
    "latitude": "39.424221",
    "longitude": "-119.760677",
    "mascot": "Miners",
    "name": "Bishop Manogue High School",
    "primary_color": "Gold",
    "secondary_color": "Kelly Green",
    "state": "NV",
    "timezone": "America/Los_Angeles",
    "updated_at": "2012-07-08T00:33:27Z",
    "zip": "89511"
  },
  {
    "address": "511 Ave E",
    "city": "Gabbs",
    "county": "Nye County",
    "created_at": "2012-01-04T20:16:12Z",
    "id": 16537,
    "latitude": "38.858510",
    "longitude": "-117.931730",
    "mascot": "Tarantulas",
    "name": "Gabbs School",
    "primary_color": "White",
    "secondary_color": "Kelly Green",
    "state": "NV",
    "timezone": "America/Los_Angeles",
    "updated_at": "2012-07-08T00:33:27Z",
    "zip": "89409"
  },
  {
    "address": "950 E St Louis",
    "city": "Las Vegas",
    "county": "Clark County",
    "created_at": "2012-01-04T20:16:12Z",
    "id": 16538,
    "latitude": "36.147806",
    "longitude": "-115.142210",
    "mascot": "Tigers",
    "name": "Trinity Christian School",
    "primary_color": "Gold",
    "secondary_color": "Royal",
    "state": "NV",
    "timezone": "America/Los_Angeles",
    "updated_at": "2012-07-08T00:33:27Z",
    "zip": "89104"
  },
  {
    "address": "1101 5th St",
    "city": "Boulder City",
    "county": "Clark County",
    "created_at": "2012-01-04T20:16:12Z",
    "id": 16539,
    "latitude": "35.973376",
    "longitude": "-114.834238",
    "mascot": "Eagles",
    "name": "Boulder City High School",
    "primary_color": "Gold",
    "secondary_color": "Royal",
    "state": "NV",
    "timezone": "America/Los_Angeles",
    "updated_at": "2012-07-08T00:33:27Z",
    "zip": "89005"
  },
  {
    "address": "4291 Pennwood Ave",
    "city": "Las Vegas",
    "county": "Clark County",
    "created_at": "2012-01-04T20:16:12Z",
    "id": 16540,
    "latitude": "36.137298",
    "longitude": "-115.197711",
    "mascot": "Chargers",
    "name": "Clark High School",
    "primary_color": "Black",
    "secondary_color": "Gold",
    "state": "NV",
    "timezone": "America/Los_Angeles",
    "updated_at": "2012-07-08T00:33:28Z",
    "zip": "89102"
  },
  {
    "address": "3850 Annie Oakley Dr",
    "city": "Las Vegas",
    "county": "Clark County",
    "created_at": "2012-01-04T20:16:12Z",
    "id": 16541,
    "latitude": "36.119596",
    "longitude": "-115.088436",
    "mascot": "Cowboys",
    "name": "Chaparral High School",
    "primary_color": "Black",
    "secondary_color": "Orange",
    "state": "NV",
    "timezone": "America/Los_Angeles",
    "updated_at": "2012-07-08T00:33:28Z",
    "zip": "89121"
  },
  {
    "address": "6665 Del Rey Ave",
    "city": "Las Vegas",
    "county": "Clark County",
    "created_at": "2012-01-04T20:16:12Z",
    "id": 16542,
    "latitude": "36.155434",
    "longitude": "-115.237939",
    "mascot": "Bengals",
    "name": "Bonanza High School",
    "primary_color": "Gold",
    "secondary_color": "Brown",
    "state": "NV",
    "timezone": "America/Los_Angeles",
    "updated_at": "2012-07-08T00:33:28Z",
    "zip": "89146"
  },
  {
    "address": "1670 Hwy 88",
    "city": "Minden",
    "county": "Douglas County",
    "created_at": "2012-01-04T20:16:12Z",
    "id": 16543,
    "latitude": "38.958257",
    "longitude": "-119.779294",
    "mascot": "Tigers",
    "name": "Douglas High School",
    "primary_color": "Orange",
    "secondary_color": "Black",
    "state": "NV",
    "timezone": "America/Los_Angeles",
    "updated_at": "2012-07-08T00:33:28Z",
    "zip": "89423"
  },
  {
    "address": "5375 Kluncy Canyon Rd",
    "city": "Winnemucca",
    "county": "Humboldt County",
    "created_at": "2012-01-04T20:16:12Z",
    "id": 16544,
    "latitude": "40.970790",
    "longitude": "-117.708489",
    "mascot": "Buckaroos",
    "name": "Albert M Lowry High School",
    "primary_color": "Royal",
    "secondary_color": "Gold",
    "state": "NV",
    "timezone": "America/Los_Angeles",
    "updated_at": "2012-07-08T00:33:29Z",
    "zip": "89445"
  },
  {
    "address": "1111 N Saliman Rd",
    "city": "Carson City",
    "county": "Carson City",
    "created_at": "2012-01-04T20:16:12Z",
    "id": 16545,
    "latitude": "39.170440",
    "longitude": "-119.750961",
    "mascot": "Senators",
    "name": "Carson High School",
    "primary_color": "Royal",
    "secondary_color": "White",
    "state": "NV",
    "timezone": "America/Los_Angeles",
    "updated_at": "2012-07-08T00:33:29Z",
    "zip": "89702"
  },
  {
    "address": "1331 E Plumb Ln",
    "city": "Reno",
    "county": "Washoe County",
    "created_at": "2012-01-04T20:16:12Z",
    "id": 16546,
    "latitude": "39.505899",
    "longitude": "-119.783484",
    "mascot": "Colts",
    "name": "Earl Wooster High School",
    "primary_color": "Red",
    "secondary_color": "White",
    "state": "NV",
    "timezone": "America/Los_Angeles",
    "updated_at": "2012-07-08T00:33:29Z",
    "zip": "89502"
  },
  {
    "address": "3005 E Cedar Ave",
    "city": "Las Vegas",
    "county": "Clark County",
    "created_at": "2012-01-04T20:16:12Z",
    "id": 16547,
    "latitude": "36.170008",
    "longitude": "-115.106967",
    "mascot": "Panthers",
    "name": "Calvary Church Christian School",
    "primary_color": "Hunter Green",
    "secondary_color": "White",
    "state": "NV",
    "timezone": "America/Los_Angeles",
    "updated_at": "2012-07-08T00:33:29Z",
    "zip": "89101"
  },
  {
    "address": "1401 E Washington",
    "city": "Las Vegas",
    "county": "Clark County",
    "created_at": "2012-01-04T20:16:12Z",
    "id": 16548,
    "latitude": "36.181298",
    "longitude": "-115.128674",
    "mascot": "Warriors",
    "name": "Echoes Christian Academy",
    "primary_color": "Navy",
    "secondary_color": "White",
    "state": "NV",
    "timezone": "America/Los_Angeles",
    "updated_at": "2012-07-08T00:33:30Z",
    "zip": "89101"
  },
  {
    "address": "5959 S. Hualapai Way",
    "city": "Las Vegas",
    "county": "Clark County",
    "created_at": "2012-01-04T20:16:12Z",
    "id": 16549,
    "latitude": "36.080265",
    "longitude": "-115.315559",
    "mascot": "Gaels",
    "name": "Bishop Gorman High School",
    "primary_color": "Orange",
    "secondary_color": "Royal",
    "state": "NV",
    "timezone": "America/Los_Angeles",
    "updated_at": "2012-07-08T00:33:30Z",
    "zip": "89148"
  },
  {
    "address": "6059 W Oakey Blvd",
    "city": "Las Vegas",
    "county": "Clark County",
    "created_at": "2012-01-04T20:16:12Z",
    "id": 16550,
    "latitude": "36.151796",
    "longitude": "-115.224619",
    "mascot": null,
    "name": "Las Vegas Junior Academy",
    "primary_color": "Royal",
    "secondary_color": "White",
    "state": "NV",
    "timezone": "America/Los_Angeles",
    "updated_at": "2012-07-08T00:33:30Z",
    "zip": "89101"
  },
  {
    "address": "2015 S Hualapai Way",
    "city": "Las Vegas",
    "county": "Clark County",
    "created_at": "2012-01-04T20:16:12Z",
    "id": 16551,
    "latitude": "36.154102",
    "longitude": "-115.315737",
    "mascot": null,
    "name": "Faith Lutheran Junior Senior High School",
    "primary_color": "Gold",
    "secondary_color": "Maroon",
    "state": "NV",
    "timezone": "America/Los_Angeles",
    "updated_at": "2012-07-08T00:33:31Z",
    "zip": "89117"
  },
  {
    "address": "2525 Emerson Ave",
    "city": "Las Vegas",
    "county": "Clark County",
    "created_at": "2012-01-04T20:16:12Z",
    "id": 16552,
    "latitude": "36.126049",
    "longitude": "-115.115741",
    "mascot": null,
    "name": "Paradise Christian Academy",
    "primary_color": "Gold",
    "secondary_color": "Royal",
    "state": "NV",
    "timezone": "America/Los_Angeles",
    "updated_at": "2012-07-08T00:33:31Z",
    "zip": "89121"
  },
  {
    "address": "8601 Scholar Ln",
    "city": "Las Vegas",
    "county": "Clark County",
    "created_at": "2012-01-04T20:16:12Z",
    "id": 16553,
    "latitude": "36.196329",
    "longitude": "-115.280385",
    "mascot": "Mustangs",
    "name": "The Meadows School",
    "primary_color": "Royal",
    "secondary_color": "Gray",
    "state": "NV",
    "timezone": "America/Los_Angeles",
    "updated_at": "2012-07-08T00:33:31Z",
    "zip": "89128"
  },
  {
    "address": "1090 Bresson Ave",
    "city": "Reno",
    "county": "Washoe County",
    "created_at": "2012-01-04T20:16:12Z",
    "id": 16554,
    "latitude": "39.514600",
    "longitude": "-119.793841",
    "mascot": null,
    "name": "Silver State Adventist School",
    "primary_color": "Red",
    "secondary_color": "White",
    "state": "NV",
    "timezone": "America/Los_Angeles",
    "updated_at": "2012-07-08T00:33:31Z",
    "zip": "89502"
  },
  {
    "address": "1205 N McCarran Blvd",
    "city": "Reno",
    "county": "Washoe County",
    "created_at": "2012-01-04T20:16:12Z",
    "id": 16555,
    "latitude": "39.556548",
    "longitude": "-119.795122",
    "mascot": null,
    "name": "The Church Academy",
    "primary_color": null,
    "secondary_color": null,
    "state": "NV",
    "timezone": "America/Los_Angeles",
    "updated_at": "2012-07-08T00:33:32Z",
    "zip": "89512"
  },
  {
    "address": "711 State St",
    "city": "Nixon",
    "county": "Washoe County",
    "created_at": "2012-01-04T20:16:12Z",
    "id": 16556,
    "latitude": "39.824340",
    "longitude": "-119.365049",
    "mascot": "Lakers",
    "name": "Pyramid Lake High School",
    "primary_color": "Maroon",
    "secondary_color": "White",
    "state": "NV",
    "timezone": "America/Los_Angeles",
    "updated_at": "2012-07-08T00:33:32Z",
    "zip": "89424"
  },
  {
    "address": "1222 S Taylor St",
    "city": "Fallon",
    "county": "Churchill County",
    "created_at": "2012-01-04T20:16:12Z",
    "id": 16557,
    "latitude": "39.463701",
    "longitude": "-118.781587",
    "mascot": "Greenwave",
    "name": "Churchill County High School",
    "primary_color": "Kelly Green",
    "secondary_color": "White",
    "state": "NV",
    "timezone": "America/Los_Angeles",
    "updated_at": "2012-07-08T00:33:32Z",
    "zip": "89406"
  },
  {
    "address": "400 Palo Verde Dr",
    "city": "Henderson",
    "county": "Clark County",
    "created_at": "2012-01-04T20:16:12Z",
    "id": 16558,
    "latitude": "36.032750",
    "longitude": "-114.963150",
    "mascot": "Wolves",
    "name": "Basic High School",
    "primary_color": "Gray",
    "secondary_color": "Royal",
    "state": "NV",
    "timezone": "America/Los_Angeles",
    "updated_at": "2012-07-08T00:33:32Z",
    "zip": "89015"
  },
  {
    "address": "400 Sky Rd",
    "city": "Indian Springs",
    "county": "Clark County",
    "created_at": "2012-01-04T20:16:12Z",
    "id": 16559,
    "latitude": "36.574656",
    "longitude": "-115.675541",
    "mascot": "Thunderbirds",
    "name": "Indian Springs School",
    "primary_color": "Red",
    "secondary_color": "Royal",
    "state": "NV",
    "timezone": "America/Los_Angeles",
    "updated_at": "2012-07-08T00:33:33Z",
    "zip": "89018"
  },
  {
    "address": "1905 Atlantic",
    "city": "Las Vegas",
    "county": "Clark County",
    "created_at": "2012-01-04T20:16:12Z",
    "id": 16560,
    "latitude": "36.148737",
    "longitude": "-115.114341",
    "mascot": "Dolphins",
    "name": "John F Miller School",
    "primary_color": "Aqua",
    "secondary_color": "White",
    "state": "NV",
    "timezone": "America/Los_Angeles",
    "updated_at": "2012-07-08T00:33:33Z",
    "zip": "89104"
  },
  {
    "address": "2400 St Joseph Rd",
    "city": "Overton",
    "county": "Clark County",
    "created_at": "2012-01-04T20:16:12Z",
    "id": 16561,
    "latitude": "36.567560",
    "longitude": "-114.460859",
    "mascot": "Pirates",
    "name": "Moapa Valley High School",
    "primary_color": "Royal",
    "secondary_color": "Gold",
    "state": "NV",
    "timezone": "America/Los_Angeles",
    "updated_at": "2012-07-08T00:33:33Z",
    "zip": "89040"
  },
  {
    "address": "1900 E Owens Ave",
    "city": "North Las Vegas",
    "county": "Clark County",
    "created_at": "2012-01-04T20:16:12Z",
    "id": 16562,
    "latitude": "36.188511",
    "longitude": "-115.121040",
    "mascot": "Rams",
    "name": "Rancho High School",
    "primary_color": "Hunter Green",
    "secondary_color": "White",
    "state": "NV",
    "timezone": "America/Los_Angeles",
    "updated_at": "2012-07-08T00:33:34Z",
    "zip": "89030"
  },
  {
    "address": "2839 S Burnham Ave",
    "city": "Las Vegas",
    "county": "Clark County",
    "created_at": "2012-01-04T20:16:12Z",
    "id": 16563,
    "latitude": "36.137696",
    "longitude": "-115.123111",
    "mascot": "Vikings",
    "name": "Valley Senior High School",
    "primary_color": "Red",
    "secondary_color": "White",
    "state": "NV",
    "timezone": "America/Los_Angeles",
    "updated_at": "2012-07-08T00:33:34Z",
    "zip": "89109"
  },
  {
    "address": "4601 W Bonanza Rd",
    "city": "Las Vegas",
    "county": "Clark County",
    "created_at": "2012-01-04T20:16:12Z",
    "id": 16564,
    "latitude": "36.177352",
    "longitude": "-115.202467",
    "mascot": "Warriors",
    "name": "Western Senior High School",
    "primary_color": "Red",
    "secondary_color": "Columbia Blue",
    "state": "NV",
    "timezone": "America/Los_Angeles",
    "updated_at": "2012-07-08T00:33:34Z",
    "zip": "89107"
  },
  {
    "address": "4560 W Harmon Ave",
    "city": "Las Vegas",
    "county": "Clark County",
    "created_at": "2012-01-04T20:16:12Z",
    "id": 16565,
    "latitude": "36.108191",
    "longitude": "-115.202776",
    "mascot": "Sunset Eagles",
    "name": "Sunset Senior High School",
    "primary_color": "Gold",
    "secondary_color": "Kelly Green",
    "state": "NV",
    "timezone": "America/Los_Angeles",
    "updated_at": "2012-07-08T00:33:35Z",
    "zip": "89103"
  },
  {
    "address": "315 S 7th St",
    "city": "Las Vegas",
    "county": "Clark County",
    "created_at": "2012-01-04T20:16:12Z",
    "id": 16566,
    "latitude": "36.165685",
    "longitude": "-115.140060",
    "mascot": null,
    "name": "Las Vegas Academy Of Studies",
    "primary_color": "Gray",
    "secondary_color": "Teal",
    "state": "NV",
    "timezone": "America/Los_Angeles",
    "updated_at": "2012-07-08T00:33:35Z",
    "zip": "89101"
  },
  {
    "address": "1139 N Linn Ln",
    "city": "Las Vegas",
    "county": "Clark County",
    "created_at": "2012-01-04T20:16:12Z",
    "id": 16567,
    "latitude": "36.180301",
    "longitude": "-115.048389",
    "mascot": "Sparkies",
    "name": "Eldorado High School",
    "primary_color": "Maroon",
    "secondary_color": "Gold",
    "state": "NV",
    "timezone": "America/Los_Angeles",
    "updated_at": "2012-07-08T00:33:35Z",
    "zip": "89110"
  },
  {
    "address": "801 Veterans Memorial Dr",
    "city": "Las Vegas",
    "county": "Clark County",
    "created_at": "2012-01-04T20:16:12Z",
    "id": 16568,
    "latitude": "36.179528",
    "longitude": "-115.136727",
    "mascot": null,
    "name": "Biltmore Alternative School",
    "primary_color": "Royal",
    "secondary_color": "White",
    "state": "NV",
    "timezone": "America/Los_Angeles",
    "updated_at": "2012-07-08T00:33:36Z",
    "zip": "89101"
  },
  {
    "address": "240 Warrior Way",
    "city": "Zephyr Cove",
    "county": "Douglas County",
    "created_at": "2012-01-04T20:16:12Z",
    "id": 16569,
    "latitude": "39.011598",
    "longitude": "-119.944882",
    "mascot": "Warriors",
    "name": "George Whittell High School",
    "primary_color": "Gold",
    "secondary_color": "Red",
    "state": "NV",
    "timezone": "America/Los_Angeles",
    "updated_at": "2012-07-08T00:33:36Z",
    "zip": "89448"
  },
  {
    "address": "552 8th St",
    "city": "Carlin",
    "county": "Elko County",
    "created_at": "2012-01-04T20:16:12Z",
    "id": 16570,
    "latitude": "40.717320",
    "longitude": "-116.109529",
    "mascot": "Railroaders",
    "name": "Carlin Combined School",
    "primary_color": "Red",
    "secondary_color": "White",
    "state": "NV",
    "timezone": "America/Los_Angeles",
    "updated_at": "2012-07-08T00:33:36Z",
    "zip": "89822"
  },
  {
    "address": "987 College Ave",
    "city": "Elko",
    "county": "Elko County",
    "created_at": "2012-01-04T20:16:12Z",
    "id": 16571,
    "latitude": "40.838032",
    "longitude": "-115.760707",
    "mascot": "Indians",
    "name": "Elko High School",
    "primary_color": "Maroon",
    "secondary_color": "White",
    "state": "NV",
    "timezone": "America/Los_Angeles",
    "updated_at": "2012-07-08T00:33:37Z",
    "zip": "89801"
  },
  {
    "address": "2201 Progressive Dr",
    "city": "Jackpot",
    "county": "Elko County",
    "created_at": "2012-01-04T20:16:12Z",
    "id": 16572,
    "latitude": "41.965730",
    "longitude": "-114.655399",
    "mascot": "Jaguars",
    "name": "Jackpot Combined School",
    "primary_color": "Royal",
    "secondary_color": "White",
    "state": "NV",
    "timezone": "America/Los_Angeles",
    "updated_at": "2012-07-08T00:33:37Z",
    "zip": "89825"
  },
  {
    "address": "1129 Lake Ave",
    "city": "Wells",
    "county": "Elko County",
    "created_at": "2012-01-04T20:16:12Z",
    "id": 16573,
    "latitude": "41.108013",
    "longitude": "-114.969892",
    "mascot": "Leopards",
    "name": "Wells High School",
    "primary_color": "Orange",
    "secondary_color": "Black",
    "state": "NV",
    "timezone": "America/Los_Angeles",
    "updated_at": "2012-07-08T00:33:38Z",
    "zip": "89835"
  },
  {
    "address": "1 Vandal Way",
    "city": "Eureka",
    "county": "Eureka County",
    "created_at": "2012-01-04T20:16:12Z",
    "id": 16574,
    "latitude": "39.511834",
    "longitude": "-115.968223",
    "mascot": "Vandals",
    "name": "Eureka Junior Senior High School",
    "primary_color": "Kelly Green",
    "secondary_color": "Gold",
    "state": "NV",
    "timezone": "America/Los_Angeles",
    "updated_at": "2012-07-08T00:33:39Z",
    "zip": "89316"
  },
  {
    "address": "100 Olavarria St",
    "city": "McDermitt",
    "county": "Humboldt County",
    "created_at": "2012-01-04T20:16:12Z",
    "id": 16575,
    "latitude": "41.997160",
    "longitude": "-117.717099",
    "mascot": "Bulldogs",
    "name": "McDermitt Combined School",
    "primary_color": "Royal",
    "secondary_color": "White",
    "state": "NV",
    "timezone": "America/Los_Angeles",
    "updated_at": "2012-07-08T00:33:40Z",
    "zip": "89421"
  },
  {
    "address": "State Hwy 305 N",
    "city": "Austin",
    "county": "Lander County",
    "created_at": "2012-01-04T20:16:12Z",
    "id": 16576,
    "latitude": "39.506340",
    "longitude": "-117.085513",
    "mascot": "Broncos",
    "name": "Austin High School",
    "primary_color": "Columbia Blue",
    "secondary_color": "Orange",
    "state": "NV",
    "timezone": "America/Los_Angeles",
    "updated_at": "2012-07-08T00:33:41Z",
    "zip": "89310"
  },
  {
    "address": "425 Weaver Ave",
    "city": "Battle Mountain",
    "county": "Lander County",
    "created_at": "2012-01-04T20:16:12Z",
    "id": 16577,
    "latitude": "40.635651",
    "longitude": "-116.941764",
    "mascot": "Longhorns",
    "name": "Battle Mountain High School",
    "primary_color": "Kelly Green",
    "secondary_color": "White",
    "state": "NV",
    "timezone": "America/Los_Angeles",
    "updated_at": "2012-07-08T00:33:41Z",
    "zip": "89820"
  },
  {
    "address": "435 E. Edwards",
    "city": "Panaca",
    "county": "Lincoln County",
    "created_at": "2012-01-04T20:16:12Z",
    "id": 16578,
    "latitude": "37.791942",
    "longitude": "-114.384603",
    "mascot": "Lynx",
    "name": "Lincoln County High School",
    "primary_color": "Red",
    "secondary_color": "White",
    "state": "NV",
    "timezone": "America/Los_Angeles",
    "updated_at": "2012-07-08T00:33:41Z",
    "zip": "89042"
  },
  {
    "address": "PO Box 1088",
    "city": "Caliente",
    "county": "Lincoln County",
    "created_at": "2012-01-04T20:16:12Z",
    "id": 16579,
    "latitude": "37.514000",
    "longitude": "-114.472381",
    "mascot": null,
    "name": "C O Bastian High School",
    "primary_color": "Gold",
    "secondary_color": "Columbia Blue",
    "state": "NV",
    "timezone": "America/Los_Angeles",
    "updated_at": "2012-07-08T00:33:42Z",
    "zip": "89008"
  },
  {
    "address": "151 S Main St",
    "city": "Alamo",
    "county": "Lincoln County",
    "created_at": "2012-01-04T20:16:12Z",
    "id": 16580,
    "latitude": "37.364444",
    "longitude": "-115.165739",
    "mascot": "Panthers",
    "name": "Pahranagat Valley High School",
    "primary_color": "Gold",
    "secondary_color": "Royal",
    "state": "NV",
    "timezone": "America/Los_Angeles",
    "updated_at": "2012-07-08T00:33:42Z",
    "zip": "89001"
  },
  {
    "address": "1300 Hwy 95A",
    "city": "Fernley",
    "county": "Lyon County",
    "created_at": "2012-01-04T20:16:12Z",
    "id": 16581,
    "latitude": "39.607160",
    "longitude": "-119.222989",
    "mascot": "Vaqueros",
    "name": "Fernley High School",
    "primary_color": "Orange",
    "secondary_color": "Black",
    "state": "NV",
    "timezone": "America/Los_Angeles",
    "updated_at": "2012-07-08T00:33:43Z",
    "zip": "89408"
  },
  {
    "address": "114 Pearl St",
    "city": "Yerington",
    "county": "Lyon County",
    "created_at": "2012-01-04T20:16:12Z",
    "id": 16582,
    "latitude": "38.990306",
    "longitude": "-119.161182",
    "mascot": "Lions",
    "name": "Yerington High School",
    "primary_color": "Purple",
    "secondary_color": "White",
    "state": "NV",
    "timezone": "America/Los_Angeles",
    "updated_at": "2012-07-08T00:33:43Z",
    "zip": "89447"
  },
  {
    "address": "335 Old Dayton Valley Rd",
    "city": "Dayton",
    "county": "Lyon County",
    "created_at": "2012-01-04T20:16:12Z",
    "id": 16583,
    "latitude": "39.239828",
    "longitude": "-119.577722",
    "mascot": "Dust Devils",
    "name": "Dayton High School",
    "primary_color": "Gray",
    "secondary_color": "Maroon",
    "state": "NV",
    "timezone": "America/Los_Angeles",
    "updated_at": "2012-07-08T00:33:43Z",
    "zip": "89403"
  },
  {
    "address": "601 A St",
    "city": "Hawthorne",
    "county": "Mineral County",
    "created_at": "2012-01-04T20:16:12Z",
    "id": 16584,
    "latitude": "38.526192",
    "longitude": "-118.628440",
    "mascot": "Serpents",
    "name": "Mineral County High School",
    "primary_color": "Gold",
    "secondary_color": "Black",
    "state": "NV",
    "timezone": "America/Los_Angeles",
    "updated_at": "2012-07-08T00:33:43Z",
    "zip": "89415"
  },
  {
    "address": "61 Hadley Circle",
    "city": "Round Mountain",
    "county": "Nye County",
    "created_at": "2012-01-04T20:16:12Z",
    "id": 16585,
    "latitude": "38.694172",
    "longitude": "-117.163797",
    "mascot": "Knights",
    "name": "Round Mountain Junior Senior High School",
    "primary_color": "Black",
    "secondary_color": "Gray",
    "state": "NV",
    "timezone": "America/Los_Angeles",
    "updated_at": "2012-07-08T00:33:44Z",
    "zip": "89045"
  },
  {
    "address": "1215 Franklin",
    "city": "Lovelock",
    "county": "Pershing County",
    "created_at": "2012-01-04T20:16:12Z",
    "id": 16586,
    "latitude": "40.182624",
    "longitude": "-118.478787",
    "mascot": "Mustangs",
    "name": "Pershing County High School",
    "primary_color": "Red",
    "secondary_color": "Black",
    "state": "NV",
    "timezone": "America/Los_Angeles",
    "updated_at": "2012-07-08T00:33:44Z",
    "zip": "89419"
  },
  {
    "address": "95 South R St",
    "city": "Virginia City",
    "county": "Storey County",
    "created_at": "2012-01-04T20:16:12Z",
    "id": 16587,
    "latitude": "39.309385",
    "longitude": "-119.641615",
    "mascot": "Muckers",
    "name": "Virginia City High School",
    "primary_color": "Gray",
    "secondary_color": "Royal",
    "state": "NV",
    "timezone": "America/Los_Angeles",
    "updated_at": "2012-07-08T00:33:44Z",
    "zip": "89440"
  },
  {
    "address": "555 East Sunset Blvd",
    "city": "Gerlach",
    "county": "Washoe County",
    "created_at": "2012-01-04T20:16:12Z",
    "id": 16588,
    "latitude": "40.653442",
    "longitude": "-119.352837",
    "mascot": "Lions",
    "name": "Gerlach High School",
    "primary_color": "Gold",
    "secondary_color": "Royal",
    "state": "NV",
    "timezone": "America/Los_Angeles",
    "updated_at": "2012-07-08T00:33:45Z",
    "zip": "89412"
  },
  {
    "address": "499 Village Blvd",
    "city": "Incline Village",
    "county": "Washoe County",
    "created_at": "2012-01-04T20:16:12Z",
    "id": 16589,
    "latitude": "39.256230",
    "longitude": "-119.950697",
    "mascot": "Highlanders",
    "name": "Incline High School",
    "primary_color": "Hunter Green",
    "secondary_color": "Gold",
    "state": "NV",
    "timezone": "America/Los_Angeles",
    "updated_at": "2012-07-08T00:33:45Z",
    "zip": "89451"
  },
  {
    "address": "2880 Sutro St",
    "city": "Reno",
    "county": "Washoe County",
    "created_at": "2012-01-04T20:16:12Z",
    "id": 16590,
    "latitude": "39.557930",
    "longitude": "-119.798596",
    "mascot": "Hawks",
    "name": "Procter R Hug High School",
    "primary_color": "Hunter Green",
    "secondary_color": "White",
    "state": "NV",
    "timezone": "America/Los_Angeles",
    "updated_at": "2012-07-08T00:33:45Z",
    "zip": "89512"
  },
  {
    "address": "395 Booth St",
    "city": "Reno",
    "county": "Washoe County",
    "created_at": "2012-01-04T20:16:12Z",
    "id": 16591,
    "latitude": "39.517351",
    "longitude": "-119.826434",
    "mascot": "Huskies",
    "name": "Reno High School",
    "primary_color": "Red",
    "secondary_color": "Royal",
    "state": "NV",
    "timezone": "America/Los_Angeles",
    "updated_at": "2012-07-08T00:33:45Z",
    "zip": "89509"
  },
  {
    "address": "820 15th St",
    "city": "Sparks",
    "county": "Washoe County",
    "created_at": "2012-01-04T20:16:12Z",
    "id": 16592,
    "latitude": "39.540899",
    "longitude": "-119.761968",
    "mascot": "Railroaders",
    "name": "Sparks High School",
    "primary_color": "Gold",
    "secondary_color": "Maroon",
    "state": "NV",
    "timezone": "America/Los_Angeles",
    "updated_at": "2012-07-08T00:33:46Z",
    "zip": "89431"
  },
  {
    "address": "1350 Baring Blvd",
    "city": "Sparks",
    "county": "Washoe County",
    "created_at": "2012-01-04T20:16:13Z",
    "id": 16593,
    "latitude": "39.556438",
    "longitude": "-119.719455",
    "mascot": "Reed Raiders",
    "name": "Edward C Reed High School",
    "primary_color": "Gold",
    "secondary_color": "Royal",
    "state": "NV",
    "timezone": "America/Los_Angeles",
    "updated_at": "2012-07-08T00:33:46Z",
    "zip": "89434"
  },
  {
    "address": "900 Foothill Rd",
    "city": "Reno",
    "county": "Washoe County",
    "created_at": "2012-01-04T20:16:13Z",
    "id": 16594,
    "latitude": "39.432588",
    "longitude": "-119.775465",
    "mascot": "Eagles",
    "name": "Marvin Picollo School",
    "primary_color": "Royal",
    "secondary_color": "White",
    "state": "NV",
    "timezone": "America/Los_Angeles",
    "updated_at": "2012-07-08T00:33:46Z",
    "zip": "89511"
  },
  {
    "address": "777 W 2nd St",
    "city": "Reno",
    "county": "Washoe County",
    "created_at": "2012-01-04T20:16:13Z",
    "id": 16595,
    "latitude": "39.525035",
    "longitude": "-119.823144",
    "mascot": null,
    "name": "Washoe High School",
    "primary_color": "Gray",
    "secondary_color": "Maroon",
    "state": "NV",
    "timezone": "America/Los_Angeles",
    "updated_at": "2012-07-08T00:33:46Z",
    "zip": "89509"
  },
  {
    "address": "6055 Lancer St",
    "city": "Reno",
    "county": "Washoe County",
    "created_at": "2012-01-04T20:16:13Z",
    "id": 16596,
    "latitude": "39.533314",
    "longitude": "-119.882802",
    "mascot": "Lancers",
    "name": "Robert McQueen High School",
    "primary_color": "Royal",
    "secondary_color": "Gray",
    "state": "NV",
    "timezone": "America/Los_Angeles",
    "updated_at": "2012-07-08T00:33:47Z",
    "zip": "89523"
  },
  {
    "address": "100 S Main St",
    "city": "Lund",
    "county": "White Pine County",
    "created_at": "2012-01-04T20:16:13Z",
    "id": 16597,
    "latitude": "38.860181",
    "longitude": "-115.007844",
    "mascot": "Mustangs",
    "name": "Lund Junior Senior High School",
    "primary_color": "Royal",
    "secondary_color": "Gold",
    "state": "NV",
    "timezone": "America/Los_Angeles",
    "updated_at": "2012-07-08T00:33:47Z",
    "zip": "89317"
  },
  {
    "address": "1 Hornet Ave",
    "city": "Beatty",
    "county": "Nye County",
    "created_at": "2012-01-04T20:16:13Z",
    "id": 16598,
    "latitude": "36.900517",
    "longitude": "-116.756948",
    "mascot": "Hornets",
    "name": "Beatty High School",
    "primary_color": "Black",
    "secondary_color": "Gold",
    "state": "NV",
    "timezone": "America/Los_Angeles",
    "updated_at": "2012-07-08T00:33:47Z",
    "zip": "89003"
  },
  {
    "address": "1800 Bobcat Dr",
    "city": "Ely",
    "county": "White Pine County",
    "created_at": "2012-01-04T20:16:13Z",
    "id": 16599,
    "latitude": "39.232420",
    "longitude": "-114.870978",
    "mascot": "Bobcats",
    "name": "White Pine High School",
    "primary_color": "Royal",
    "secondary_color": "White",
    "state": "NV",
    "timezone": "America/Los_Angeles",
    "updated_at": "2012-07-08T00:33:47Z",
    "zip": "89301"
  },
  {
    "address": "9900 Shiloh School Ln",
    "city": "Las Vegas",
    "county": "Clark County",
    "created_at": "2012-01-04T20:16:13Z",
    "id": 16600,
    "latitude": "36.232417",
    "longitude": "-115.289589",
    "mascot": "Eagles",
    "name": "Challenger School",
    "primary_color": "Gray",
    "secondary_color": "Maroon",
    "state": "NV",
    "timezone": "America/Los_Angeles",
    "updated_at": "2012-07-08T00:33:49Z",
    "zip": "89129"
  },
  {
    "address": "1900 Cougar Dr",
    "city": "Laughlin",
    "county": "Clark County",
    "created_at": "2012-01-04T20:16:13Z",
    "id": 16601,
    "latitude": "35.163157",
    "longitude": "-114.616284",
    "mascot": "Cougars",
    "name": "Laughlin Junior Senior High School",
    "primary_color": "Royal",
    "secondary_color": "Gray",
    "state": "NV",
    "timezone": "America/Los_Angeles",
    "updated_at": "2012-07-08T00:33:49Z",
    "zip": "89029"
  },
  {
    "address": "820 Valley View Dr",
    "city": "Mesquite",
    "county": "Clark County",
    "created_at": "2012-01-04T20:16:13Z",
    "id": 16602,
    "latitude": "36.814542",
    "longitude": "-114.052343",
    "mascot": "Bulldogs",
    "name": "Virgin Valley Junior Senior High School",
    "primary_color": "Kelly Green",
    "secondary_color": "White",
    "state": "NV",
    "timezone": "America/Los_Angeles",
    "updated_at": "2012-07-08T00:33:49Z",
    "zip": "89027"
  },
  {
    "address": "1650 Silver Hawk Ave",
    "city": "Las Vegas",
    "county": "Clark County",
    "created_at": "2012-01-04T20:16:13Z",
    "id": 16603,
    "latitude": "36.022443",
    "longitude": "-115.130542",
    "mascot": "Skyhawks",
    "name": "Silverado High School",
    "primary_color": "Teal",
    "secondary_color": "Purple",
    "state": "NV",
    "timezone": "America/Los_Angeles",
    "updated_at": "2012-07-08T00:33:49Z",
    "zip": "89123"
  },
  {
    "address": "3200 W Alexander Rd",
    "city": "North Las Vegas",
    "county": "Clark County",
    "created_at": "2012-01-04T20:16:13Z",
    "id": 16604,
    "latitude": "36.232041",
    "longitude": "-115.183387",
    "mascot": "Desert Shields",
    "name": "Cheyenne High School",
    "primary_color": "Gold",
    "secondary_color": "Navy",
    "state": "NV",
    "timezone": "America/Los_Angeles",
    "updated_at": "2012-07-08T00:33:50Z",
    "zip": "89030"
  },
  {
    "address": "460 Arroyo Grande Blvd",
    "city": "Henderson",
    "county": "Clark County",
    "created_at": "2012-01-04T20:16:13Z",
    "id": 16605,
    "latitude": "36.059231",
    "longitude": "-115.058512",
    "mascot": "Gators",
    "name": "Green Valley High School",
    "primary_color": "Kelly Green",
    "secondary_color": "Royal",
    "state": "NV",
    "timezone": "America/Los_Angeles",
    "updated_at": "2012-07-08T00:33:50Z",
    "zip": "89014"
  },
  {
    "address": "2501 Vegas Dr",
    "city": "Las Vegas",
    "county": "Clark County",
    "created_at": "2012-01-04T20:16:13Z",
    "id": 16606,
    "latitude": "36.188422",
    "longitude": "-115.176042",
    "mascot": "Mavericks",
    "name": "Advanced Technologies Academy",
    "primary_color": "Teal",
    "secondary_color": "Purple",
    "state": "NV",
    "timezone": "America/Los_Angeles",
    "updated_at": "2012-07-08T00:33:50Z",
    "zip": "89106"
  },
  {
    "address": "2301 N Tenya Way",
    "city": "Las Vegas",
    "county": "Clark County",
    "created_at": "2012-01-04T20:16:13Z",
    "id": 16607,
    "latitude": "36.201298",
    "longitude": "-115.251400",
    "mascot": "Spartans",
    "name": "Cimarron Memorial High School",
    "primary_color": "Gray",
    "secondary_color": "Maroon",
    "state": "NV",
    "timezone": "America/Los_Angeles",
    "updated_at": "2012-07-08T00:33:51Z",
    "zip": "89128"
  },
  {
    "address": "7100 W Dewey Dr",
    "city": "Las Vegas",
    "county": "Clark County",
    "created_at": "2012-01-04T20:16:13Z",
    "id": 16608,
    "latitude": "36.086973",
    "longitude": "-115.246430",
    "mascot": "Trailblazers",
    "name": "Durango High School",
    "primary_color": "Purple",
    "secondary_color": "Gold",
    "state": "NV",
    "timezone": "America/Los_Angeles",
    "updated_at": "2012-07-08T00:33:51Z",
    "zip": "89113"
  },
  {
    "address": "4560 W Harmon St",
    "city": "Las Vegas",
    "county": "Clark County",
    "created_at": "2012-01-04T20:16:13Z",
    "id": 16609,
    "latitude": "36.108191",
    "longitude": "-115.202776",
    "mascot": "Hawks",
    "name": "Horizon West Alternative High School",
    "primary_color": "Purple",
    "secondary_color": "White",
    "state": "NV",
    "timezone": "America/Los_Angeles",
    "updated_at": "2012-07-08T00:33:53Z",
    "zip": "89103"
  },
  {
    "address": "14550 Lamoille Hwy",
    "city": "Elko",
    "county": "Elko County",
    "created_at": "2012-01-04T20:16:13Z",
    "id": 16610,
    "latitude": "40.823900",
    "longitude": "-115.727049",
    "mascot": "Spartans",
    "name": "Spring Creek High School",
    "primary_color": "Purple",
    "secondary_color": "Black",
    "state": "NV",
    "timezone": "America/Los_Angeles",
    "updated_at": "2012-07-08T00:33:54Z",
    "zip": "89801"
  },
  {
    "address": "3600 Butch Cassidy Way",
    "city": "Reno",
    "county": "Washoe County",
    "created_at": "2012-01-04T20:16:13Z",
    "id": 16611,
    "latitude": "39.389564",
    "longitude": "-119.772789",
    "mascot": "Grizzlies",
    "name": "Galena High School",
    "primary_color": "Black",
    "secondary_color": "Gold",
    "state": "NV",
    "timezone": "America/Los_Angeles",
    "updated_at": "2012-07-08T00:33:54Z",
    "zip": "89511"
  },
  {
    "address": "1165 Sandy Ridge Ave",
    "city": "Henderson",
    "county": "Clark County",
    "created_at": "2012-01-04T20:16:13Z",
    "id": 16612,
    "latitude": "35.986912",
    "longitude": "-115.090259",
    "mascot": "Wolverines",
    "name": "Henderson International School",
    "primary_color": "Red",
    "secondary_color": "Navy",
    "state": "NV",
    "timezone": "America/Los_Angeles",
    "updated_at": "2012-07-08T00:33:55Z",
    "zip": "89052"
  },
  {
    "address": "5710 Mt Vista Dr",
    "city": "Las Vegas",
    "county": "Clark County",
    "created_at": "2012-01-04T20:16:13Z",
    "id": 16613,
    "latitude": "36.085358",
    "longitude": "-115.073006",
    "mascot": "Roadrunners",
    "name": "Southern Nevada Vocational Technical",
    "primary_color": "Red",
    "secondary_color": "Gold",
    "state": "NV",
    "timezone": "America/Los_Angeles",
    "updated_at": "2012-07-08T00:33:56Z",
    "zip": "89120"
  },
  {
    "address": "540 East Lake Mead Pkwy",
    "city": "Henderson",
    "county": "Clark County",
    "created_at": "2012-01-04T20:16:13Z",
    "id": 16614,
    "latitude": "36.045812",
    "longitude": "-114.974418",
    "mascot": "Eagles",
    "name": "Lake Mead Christian Academy",
    "primary_color": "Navy Blue",
    "secondary_color": "Gold",
    "state": "NV",
    "timezone": "America/Los_Angeles",
    "updated_at": "2012-07-08T00:33:57Z",
    "zip": "89015"
  },
  {
    "address": "6500 E Sahara Ave",
    "city": "Las Vegas",
    "county": "Clark County",
    "created_at": "2012-01-04T20:16:13Z",
    "id": 16615,
    "latitude": "36.144498",
    "longitude": "-115.028887",
    "mascot": "Wildcats",
    "name": "Las Vegas High School",
    "primary_color": "Red",
    "secondary_color": "Black",
    "state": "NV",
    "timezone": "America/Los_Angeles",
    "updated_at": "2012-07-08T00:33:57Z",
    "zip": "89122"
  },
  {
    "address": "333 Pavilion Center Dr",
    "city": "Las Vegas",
    "county": "Clark County",
    "created_at": "2012-01-04T20:16:13Z",
    "id": 16616,
    "latitude": "36.177067",
    "longitude": "-115.333132",
    "mascot": "Black Panthers",
    "name": "Palo Verde High School",
    "primary_color": "Kelly Green",
    "secondary_color": "Black",
    "state": "NV",
    "timezone": "America/Los_Angeles",
    "updated_at": "2012-07-08T00:33:58Z",
    "zip": "89144"
  },
  {
    "address": "10200 Centennial Pky",
    "city": "Las Vegas",
    "county": "Clark County",
    "created_at": "2012-01-04T20:16:13Z",
    "id": 16617,
    "latitude": "36.277378",
    "longitude": "-115.318949",
    "mascot": "Bulldogs",
    "name": "Centennial High School",
    "primary_color": "Columbia Blue",
    "secondary_color": "Navy",
    "state": "NV",
    "timezone": "America/Los_Angeles",
    "updated_at": "2012-07-08T00:33:58Z",
    "zip": "89149"
  },
  {
    "address": "5302 Goldfield St",
    "city": "North Las Vegas",
    "county": "Clark County",
    "created_at": "2012-01-04T20:16:13Z",
    "id": 16618,
    "latitude": "36.256287",
    "longitude": "-115.139341",
    "mascot": "Rattle Snakes",
    "name": "Mohave High School",
    "primary_color": "Orange",
    "secondary_color": "Kelly Green",
    "state": "NV",
    "timezone": "America/Los_Angeles",
    "updated_at": "2012-07-08T00:33:58Z",
    "zip": "89031"
  },
  {
    "address": "800 College Dr",
    "city": "Henderson",
    "county": "Clark County",
    "created_at": "2012-01-04T20:16:13Z",
    "id": 16619,
    "latitude": "36.005193",
    "longitude": "-114.963337",
    "mascot": "Falcons",
    "name": "Foothill High School",
    "primary_color": "Gold",
    "secondary_color": "Columbia Blue",
    "state": "NV",
    "timezone": "America/Los_Angeles",
    "updated_at": "2012-07-08T00:33:58Z",
    "zip": "89015"
  },
  {
    "address": "3800 E Harris Ave",
    "city": "Las Vegas",
    "county": "Clark County",
    "created_at": "2012-01-04T20:16:13Z",
    "id": 16620,
    "latitude": "36.177208",
    "longitude": "-115.091898",
    "mascot": "Jaguars",
    "name": "Desert Pines High School",
    "primary_color": "Navy",
    "secondary_color": "Gray",
    "state": "NV",
    "timezone": "America/Los_Angeles",
    "updated_at": "2012-07-08T00:33:59Z",
    "zip": "89110"
  },
  {
    "address": "5970 Mountain Vista St",
    "city": "Las Vegas",
    "county": "Clark County",
    "created_at": "2012-01-04T20:16:13Z",
    "id": 16621,
    "latitude": "36.079205",
    "longitude": "-115.073112",
    "mascot": null,
    "name": "Opportunity South School",
    "primary_color": null,
    "secondary_color": null,
    "state": "NV",
    "timezone": "America/Los_Angeles",
    "updated_at": "2012-07-08T00:33:59Z",
    "zip": "89120"
  },
  {
    "address": "3801 E Washington",
    "city": "Las Vegas",
    "county": "Clark County",
    "created_at": "2012-01-04T20:16:13Z",
    "id": 16622,
    "latitude": "36.180816",
    "longitude": "-115.091504",
    "mascot": null,
    "name": "Horizon High School East",
    "primary_color": "Gold",
    "secondary_color": "Purple",
    "state": "NV",
    "timezone": "America/Los_Angeles",
    "updated_at": "2012-07-08T00:34:00Z",
    "zip": "89110"
  },
  {
    "address": "552 8th St",
    "city": "Carlin",
    "county": "Elko County",
    "created_at": "2012-01-04T20:16:13Z",
    "id": 16623,
    "latitude": "40.717320",
    "longitude": "-116.109529",
    "mascot": "Railroader",
    "name": "Carlin High School",
    "primary_color": "Red",
    "secondary_color": "White",
    "state": "NV",
    "timezone": "America/Los_Angeles",
    "updated_at": "2012-07-08T00:34:00Z",
    "zip": "89822"
  },
  {
    "address": "7000 Dandini Blvd",
    "city": "Reno",
    "county": "Washoe County",
    "created_at": "2012-01-04T20:16:13Z",
    "id": 16624,
    "latitude": "39.573537",
    "longitude": "-119.799365",
    "mascot": "Silver Wolves",
    "name": "TMCC Magnet High School",
    "primary_color": "Gray",
    "secondary_color": "Maroon",
    "state": "NV",
    "timezone": "America/Los_Angeles",
    "updated_at": "2012-07-08T00:34:00Z",
    "zip": "89512"
  },
  {
    "address": "6375 W Charleston Blvd",
    "city": "Las Vegas",
    "county": "Clark County",
    "created_at": "2012-01-04T20:16:13Z",
    "id": 16625,
    "latitude": "36.159086",
    "longitude": "-115.233835",
    "mascot": "Eagles",
    "name": "Community College High School West",
    "primary_color": "Royal",
    "secondary_color": "Gray",
    "state": "NV",
    "timezone": "America/Los_Angeles",
    "updated_at": "2012-07-08T00:34:00Z",
    "zip": "89146"
  },
  {
    "address": "700 College Dr",
    "city": "Henderson",
    "county": "Clark County",
    "created_at": "2012-01-04T20:16:13Z",
    "id": 16626,
    "latitude": "36.005944",
    "longitude": "-114.963328",
    "mascot": null,
    "name": "Community College High School South",
    "primary_color": "Royal",
    "secondary_color": "White",
    "state": "NV",
    "timezone": "America/Los_Angeles",
    "updated_at": "2012-07-08T00:34:01Z",
    "zip": "89015"
  },
  {
    "address": "PO Box 70723",
    "city": "Reno",
    "county": "Washoe County",
    "created_at": "2012-01-04T20:16:13Z",
    "id": 16627,
    "latitude": "39.527385",
    "longitude": "-119.813439",
    "mascot": "Eagles",
    "name": "Reno Christian Academy",
    "primary_color": "Royal",
    "secondary_color": "White",
    "state": "NV",
    "timezone": "America/Los_Angeles",
    "updated_at": "2012-07-08T00:34:01Z",
    "zip": "89570"
  },
  {
    "address": "3900 E Bonanza Rd",
    "city": "Las Vegas",
    "county": "Clark County",
    "created_at": "2012-01-04T20:16:13Z",
    "id": 16628,
    "latitude": "36.173497",
    "longitude": "-115.092581",
    "mascot": null,
    "name": "Mountain View Christian School",
    "primary_color": "Red",
    "secondary_color": "Black",
    "state": "NV",
    "timezone": "America/Los_Angeles",
    "updated_at": "2012-07-08T00:34:01Z",
    "zip": "89110"
  },
  {
    "address": "7175 W Oquendo",
    "city": "Las Vegas",
    "county": "Clark County",
    "created_at": "2012-01-04T20:16:13Z",
    "id": 16629,
    "latitude": "36.081452",
    "longitude": "-115.248409",
    "mascot": "Lions",
    "name": "Calvary Chapel Christian School",
    "primary_color": "Gold",
    "secondary_color": "Royal",
    "state": "NV",
    "timezone": "America/Los_Angeles",
    "updated_at": "2012-07-08T00:34:02Z",
    "zip": "89113"
  },
  {
    "address": "1001 Coronado Center Dr",
    "city": "Henderson",
    "county": "Clark County",
    "created_at": "2012-01-04T20:16:13Z",
    "id": 16630,
    "latitude": "35.995206",
    "longitude": "-115.110202",
    "mascot": "Cougars",
    "name": "Coronado High School",
    "primary_color": "Red",
    "secondary_color": "Navy",
    "state": "NV",
    "timezone": "America/Los_Angeles",
    "updated_at": "2012-07-08T00:34:02Z",
    "zip": "89052"
  },
  {
    "address": "1470 E Golden Valley Rd",
    "city": "Reno",
    "county": "Washoe County",
    "created_at": "2012-01-04T20:16:13Z",
    "id": 16631,
    "latitude": "39.607638",
    "longitude": "-119.823698",
    "mascot": null,
    "name": "North Valleys High School",
    "primary_color": "Teal",
    "secondary_color": "Black",
    "state": "NV",
    "timezone": "America/Los_Angeles",
    "updated_at": "2012-07-08T00:34:02Z",
    "zip": "89506"
  },
  {
    "address": "1065 Eagle Canyon Rd",
    "city": "Sparks",
    "county": "Washoe County",
    "created_at": "2012-01-04T20:16:13Z",
    "id": 16632,
    "latitude": "39.652936",
    "longitude": "-119.732741",
    "mascot": "Cougars",
    "name": "Spanish Springs High School",
    "primary_color": "Purple",
    "secondary_color": "Teal",
    "state": "NV",
    "timezone": "America/Los_Angeles",
    "updated_at": "2012-07-08T00:34:04Z",
    "zip": "89436"
  },
  {
    "address": "100 Rosaschi Rd",
    "city": "Yerington",
    "county": "Lyon County",
    "created_at": "2012-01-04T20:16:13Z",
    "id": 16633,
    "latitude": "39.070282",
    "longitude": "-119.218477",
    "mascot": null,
    "name": "Rite Of Passage Charter High School",
    "primary_color": null,
    "secondary_color": null,
    "state": "NV",
    "timezone": "America/Los_Angeles",
    "updated_at": "2012-07-08T00:34:04Z",
    "zip": "89447"
  },
  {
    "address": "740 Baring Blvd",
    "city": "Sparks",
    "county": "Washoe County",
    "created_at": "2012-01-04T20:16:13Z",
    "id": 16634,
    "latitude": "39.556454",
    "longitude": "-119.732451",
    "mascot": null,
    "name": "Excel Christian School",
    "primary_color": "Maroon",
    "secondary_color": "Gold",
    "state": "NV",
    "timezone": "America/Los_Angeles",
    "updated_at": "2012-07-08T00:34:04Z",
    "zip": "89434"
  },
  {
    "address": "5050 Brent Ln",
    "city": "Las Vegas",
    "county": "Clark County",
    "created_at": "2012-01-04T20:16:13Z",
    "id": 16635,
    "latitude": "36.316997",
    "longitude": "-115.209287",
    "mascot": "Knights",
    "name": "Shadow Ridge High School",
    "primary_color": "Navy",
    "secondary_color": "Royal Blue",
    "state": "NV",
    "timezone": "America/Los_Angeles",
    "updated_at": "2012-07-08T00:34:04Z",
    "zip": "89131"
  },
  {
    "address": "3750 S Buffalo",
    "city": "Las Vegas",
    "county": "Clark County",
    "created_at": "2012-01-04T20:16:13Z",
    "id": 16636,
    "latitude": "36.121011",
    "longitude": "-115.260996",
    "mascot": null,
    "name": "Spring Valley High School",
    "primary_color": null,
    "secondary_color": null,
    "state": "NV",
    "timezone": "America/Los_Angeles",
    "updated_at": "2012-07-08T00:34:04Z",
    "zip": "89147"
  },
  {
    "address": "10500 Rio Wrangler Pkwy",
    "city": "Reno",
    "county": "Washoe County",
    "created_at": "2012-01-04T20:16:13Z",
    "id": 16637,
    "latitude": "39.423801",
    "longitude": "-119.715055",
    "mascot": "Wranglers",
    "name": "Damonte Ranch High School",
    "primary_color": "Hunter Green",
    "secondary_color": "Navy",
    "state": "NV",
    "timezone": "America/Los_Angeles",
    "updated_at": "2012-07-08T00:34:05Z",
    "zip": "89521"
  },
  {
    "address": "3256 Aloha Ave",
    "city": "Las Vegas",
    "county": "Clark County",
    "created_at": "2012-01-04T20:16:13Z",
    "id": 16638,
    "latitude": "36.130412",
    "longitude": "-115.069690",
    "mascot": "Bulldogs",
    "name": "Oasis Christian Academy",
    "primary_color": "Blue",
    "secondary_color": "White",
    "state": "NV",
    "timezone": "America/Los_Angeles",
    "updated_at": "2012-07-08T00:34:05Z",
    "zip": "89121"
  }
]