[
  {
    "address": "218 Ash St",
    "city": "Wellsville",
    "county": "Franklin County",
    "created_at": "2012-01-04T20:14:42Z",
    "id": 8827,
    "latitude": "38.709472",
    "longitude": "-95.096899",
    "mascot": "Eagles",
    "name": "Wellsville Unified School",
    "primary_color": "Royal",
    "secondary_color": "Red",
    "state": "KS",
    "timezone": "America/Chicago",
    "updated_at": "2012-07-07T23:53:41Z",
    "zip": "66092"
  },
  {
    "address": "5th & Wilson",
    "city": "Winona",
    "county": "Logan County",
    "created_at": "2012-01-04T20:14:42Z",
    "id": 8828,
    "latitude": "39.063430",
    "longitude": "-101.245449",
    "mascot": "Vikings",
    "name": "Triplains School",
    "primary_color": "Columbia Blue",
    "secondary_color": "White",
    "state": "KS",
    "timezone": "America/Chicago",
    "updated_at": "2012-07-07T23:53:42Z",
    "zip": "67764"
  },
  {
    "address": "14675 W Hwy 52",
    "city": "Mound City",
    "county": "Linn County",
    "created_at": "2012-01-04T20:14:42Z",
    "id": 8829,
    "latitude": "38.135342",
    "longitude": "-94.828379",
    "mascot": "Jay Hawks",
    "name": "Jayhawk Linn Junior Senior High School",
    "primary_color": "Gold",
    "secondary_color": "Red",
    "state": "KS",
    "timezone": "America/Chicago",
    "updated_at": "2012-07-07T23:53:42Z",
    "zip": "66056"
  },
  {
    "address": "1100 N Ridgeview Rd",
    "city": "Olathe",
    "county": "Johnson County",
    "created_at": "2012-01-04T20:14:42Z",
    "id": 8830,
    "latitude": "38.898329",
    "longitude": "-94.797281",
    "mascot": "Cyclones",
    "name": "Santa Fe Trail Junior High School",
    "primary_color": "Red",
    "secondary_color": "White",
    "state": "KS",
    "timezone": "America/Chicago",
    "updated_at": "2012-07-07T23:53:43Z",
    "zip": "66061"
  },
  {
    "address": "1440 E 151st St",
    "city": "Olathe",
    "county": "Johnson County",
    "created_at": "2012-01-04T20:14:42Z",
    "id": 8831,
    "latitude": "38.854612",
    "longitude": "-94.796237",
    "mascot": "Cougars",
    "name": "Indian Trail Junior High School",
    "primary_color": "Gray",
    "secondary_color": "Navy",
    "state": "KS",
    "timezone": "America/Chicago",
    "updated_at": "2012-07-07T23:53:43Z",
    "zip": "66062"
  },
  {
    "address": "140 N Louisa",
    "city": "Williamsburg",
    "county": "Franklin County",
    "created_at": "2012-01-04T20:14:42Z",
    "id": 8832,
    "latitude": "38.479361",
    "longitude": "-95.465441",
    "mascot": "Panthers",
    "name": "Williamsburg School",
    "primary_color": "Ash Grey",
    "secondary_color": "Purple",
    "state": "KS",
    "timezone": "America/Chicago",
    "updated_at": "2012-07-07T23:53:44Z",
    "zip": "66095"
  },
  {
    "address": "127 Kansas Ave",
    "city": "Brewster",
    "county": "Thomas County",
    "created_at": "2012-01-04T20:14:42Z",
    "id": 8833,
    "latitude": "39.365480",
    "longitude": "-101.376944",
    "mascot": "Bulldogs",
    "name": "Brewster School",
    "primary_color": "Ash Grey",
    "secondary_color": "Black",
    "state": "KS",
    "timezone": "America/Chicago",
    "updated_at": "2012-07-07T23:53:44Z",
    "zip": "67732"
  },
  {
    "address": "32905 W 84th St",
    "city": "De Soto",
    "county": "Johnson County",
    "created_at": "2012-01-04T20:14:42Z",
    "id": 8834,
    "latitude": "38.976763",
    "longitude": "-94.966657",
    "mascot": null,
    "name": "De Soto Junior High School",
    "primary_color": "Purple",
    "secondary_color": "White",
    "state": "KS",
    "timezone": "America/Chicago",
    "updated_at": "2012-07-07T23:53:45Z",
    "zip": "66018"
  },
  {
    "address": "100 Buffalo Hanes",
    "city": "Glasco",
    "county": "Cloud County",
    "created_at": "2012-01-04T20:14:42Z",
    "id": 8835,
    "latitude": "39.362029",
    "longitude": "-97.840296",
    "mascot": "Warriors",
    "name": "Glasco High School",
    "primary_color": "Royal",
    "secondary_color": "White",
    "state": "KS",
    "timezone": "America/Chicago",
    "updated_at": "2012-07-07T23:53:45Z",
    "zip": "67445"
  },
  {
    "address": "130 N Greely St",
    "city": "Lucas",
    "county": "Russell County",
    "created_at": "2012-01-04T20:14:42Z",
    "id": 8836,
    "latitude": "39.059002",
    "longitude": "-98.533991",
    "mascot": "Cougars",
    "name": "Lucas Luray High School",
    "primary_color": "Columbia Blue",
    "secondary_color": "Navy",
    "state": "KS",
    "timezone": "America/Chicago",
    "updated_at": "2012-07-07T23:53:46Z",
    "zip": "67648"
  },
  {
    "address": "1000 Green St",
    "city": "Atchison",
    "county": "Atchison County",
    "created_at": "2012-01-04T20:14:42Z",
    "id": 8837,
    "latitude": "39.547002",
    "longitude": "-95.125255",
    "mascot": "Junior Ravens",
    "name": "Maur Hill Preparatory School",
    "primary_color": "Gold",
    "secondary_color": "Black",
    "state": "KS",
    "timezone": "America/Chicago",
    "updated_at": "2012-07-07T23:53:46Z",
    "zip": "66002"
  },
  {
    "address": "3650 N 67th St",
    "city": "Kansas City",
    "county": "Wyandotte County",
    "created_at": "2012-01-04T20:14:42Z",
    "id": 8838,
    "latitude": "39.153257",
    "longitude": "-94.733828",
    "mascot": "Eagles",
    "name": "Muncie Christian School",
    "primary_color": "Red",
    "secondary_color": "White",
    "state": "KS",
    "timezone": "America/Chicago",
    "updated_at": "2012-07-07T23:53:46Z",
    "zip": "66104"
  },
  {
    "address": "6826 Lackman Rd",
    "city": "Shawnee",
    "county": "Johnson County",
    "created_at": "2012-01-04T20:14:42Z",
    "id": 8839,
    "latitude": "39.006331",
    "longitude": "-94.761154",
    "mascot": "Eagles",
    "name": "Maranatha Academy",
    "primary_color": "Kelly Green",
    "secondary_color": "Black",
    "state": "KS",
    "timezone": "America/Chicago",
    "updated_at": "2012-07-07T23:53:47Z",
    "zip": "66217"
  },
  {
    "address": "1 Viking Blvd",
    "city": "Lindsborg",
    "county": "Saline County",
    "created_at": "2012-01-04T20:14:42Z",
    "id": 8840,
    "latitude": "38.616410",
    "longitude": "-97.685632",
    "mascot": "Vikings",
    "name": "Smoky Valley High School",
    "primary_color": "Orange",
    "secondary_color": "Black",
    "state": "KS",
    "timezone": "America/Chicago",
    "updated_at": "2012-07-07T23:53:47Z",
    "zip": "67456"
  },
  {
    "address": "229 Kickapoo",
    "city": "South Haven",
    "county": "Sumner County",
    "created_at": "2012-01-04T20:14:42Z",
    "id": 8841,
    "latitude": "37.051139",
    "longitude": "-97.398498",
    "mascot": "Cardinals",
    "name": "South Haven High School",
    "primary_color": "Gray",
    "secondary_color": "Maroon",
    "state": "KS",
    "timezone": "America/Chicago",
    "updated_at": "2012-07-07T23:53:48Z",
    "zip": "67140"
  },
  {
    "address": "Rt 2 Box 67A",
    "city": "Caney",
    "county": "Montgomery County",
    "created_at": "2012-01-04T20:14:42Z",
    "id": 8842,
    "latitude": "37.039665",
    "longitude": "-95.817369",
    "mascot": "Bullpups",
    "name": "Caney Valley Junior Senior High School",
    "primary_color": "Royal",
    "secondary_color": "Red",
    "state": "KS",
    "timezone": "America/Chicago",
    "updated_at": "2012-07-07T23:53:48Z",
    "zip": "67333"
  },
  {
    "address": "300 N Topeka St",
    "city": "Haviland",
    "county": "Kiowa County",
    "created_at": "2012-01-04T20:14:42Z",
    "id": 8843,
    "latitude": "37.616280",
    "longitude": "-99.110089",
    "mascot": "Dragons",
    "name": "Haviland Public School",
    "primary_color": "Gold",
    "secondary_color": "Navy",
    "state": "KS",
    "timezone": "America/Chicago",
    "updated_at": "2012-07-07T23:53:49Z",
    "zip": "67059"
  },
  {
    "address": "201 S Elbing Rd",
    "city": "Elbing",
    "county": "Butler County",
    "created_at": "2012-01-04T20:14:42Z",
    "id": 8844,
    "latitude": "38.050192",
    "longitude": "-97.125601",
    "mascot": "Warriors",
    "name": "Berean Academy",
    "primary_color": "Royal",
    "secondary_color": "White",
    "state": "KS",
    "timezone": "America/Chicago",
    "updated_at": "2012-07-07T23:53:49Z",
    "zip": "67041"
  },
  {
    "address": "20269 W Hwy 54",
    "city": "Pratt",
    "county": "Pratt County",
    "created_at": "2012-01-04T20:14:42Z",
    "id": 8845,
    "latitude": "37.641910",
    "longitude": "-98.814589",
    "mascot": "Thunderbirds",
    "name": "Skyline School",
    "primary_color": "Ash Grey",
    "secondary_color": "Columbia Blue",
    "state": "KS",
    "timezone": "America/Chicago",
    "updated_at": "2012-07-07T23:53:50Z",
    "zip": "67124"
  },
  {
    "address": "700 Albro",
    "city": "Claflin",
    "county": "Barton County",
    "created_at": "2012-01-04T20:14:42Z",
    "id": 8846,
    "latitude": "38.525433",
    "longitude": "-98.543102",
    "mascot": "Wildcats",
    "name": "Claflin Junior Senior High School",
    "primary_color": "Purple",
    "secondary_color": "White",
    "state": "KS",
    "timezone": "America/Chicago",
    "updated_at": "2012-07-07T23:53:50Z",
    "zip": "67525"
  },
  {
    "address": "210 E 2nd St",
    "city": "Ellinwood",
    "county": "Barton County",
    "created_at": "2012-01-04T20:14:42Z",
    "id": 8847,
    "latitude": "38.355626",
    "longitude": "-98.578993",
    "mascot": "Eagles",
    "name": "Ellinwood Middle School High School",
    "primary_color": "Red",
    "secondary_color": "Royal",
    "state": "KS",
    "timezone": "America/Chicago",
    "updated_at": "2012-07-07T23:53:51Z",
    "zip": "67526"
  },
  {
    "address": "215 W 11th St",
    "city": "Hugoton",
    "county": "Stevens County",
    "created_at": "2012-01-04T20:14:42Z",
    "id": 8848,
    "latitude": "37.169892",
    "longitude": "-101.350139",
    "mascot": "Eagles",
    "name": "Hugoton High School",
    "primary_color": "Royal",
    "secondary_color": "Red",
    "state": "KS",
    "timezone": "America/Chicago",
    "updated_at": "2012-07-07T23:53:51Z",
    "zip": "67951"
  },
  {
    "address": "105 E Lincoln St",
    "city": "Burrton",
    "county": "Harvey County",
    "created_at": "2012-01-04T20:14:42Z",
    "id": 8849,
    "latitude": "38.020132",
    "longitude": "-97.671321",
    "mascot": "Chargers",
    "name": "Burrton High School",
    "primary_color": "Gold",
    "secondary_color": "Maroon",
    "state": "KS",
    "timezone": "America/Chicago",
    "updated_at": "2012-07-07T23:53:52Z",
    "zip": "67020"
  },
  {
    "address": "601 E American Rd",
    "city": "Lyons",
    "county": "Rice County",
    "created_at": "2012-01-04T20:14:42Z",
    "id": 8850,
    "latitude": "38.333171",
    "longitude": "-98.197305",
    "mascot": "Lions",
    "name": "Lyons High School",
    "primary_color": "Royal",
    "secondary_color": "White",
    "state": "KS",
    "timezone": "America/Chicago",
    "updated_at": "2012-07-07T23:53:52Z",
    "zip": "67554"
  },
  {
    "address": "128 W Oak St",
    "city": "Moran",
    "county": "Allen County",
    "created_at": "2012-01-04T20:14:42Z",
    "id": 8851,
    "latitude": "37.918778",
    "longitude": "-95.170487",
    "mascot": "Wildcats",
    "name": "Marmaton Valley Junior Senior High",
    "primary_color": "Orange",
    "secondary_color": "Black",
    "state": "KS",
    "timezone": "America/Chicago",
    "updated_at": "2012-07-07T23:53:53Z",
    "zip": "66755"
  },
  {
    "address": "430 Elm St",
    "city": "Chetopa",
    "county": "Labette County",
    "created_at": "2012-01-04T20:14:42Z",
    "id": 8852,
    "latitude": "37.039032",
    "longitude": "-95.088307",
    "mascot": "Hornets",
    "name": "Chetopa School",
    "primary_color": "Gold",
    "secondary_color": "Kelly Green",
    "state": "KS",
    "timezone": "America/Chicago",
    "updated_at": "2012-07-07T23:53:53Z",
    "zip": "67336"
  },
  {
    "address": "5801 W 115th St",
    "city": "Overland Park",
    "county": "Johnson County",
    "created_at": "2012-01-04T20:14:42Z",
    "id": 8853,
    "latitude": "38.921020",
    "longitude": "-94.652516",
    "mascot": "Rams",
    "name": "Hyman Brand Hebrew Academy",
    "primary_color": "Maroon",
    "secondary_color": "Gray",
    "state": "KS",
    "timezone": "America/Chicago",
    "updated_at": "2012-07-07T23:53:54Z",
    "zip": "66211"
  },
  {
    "address": "1800 W Dennis",
    "city": "Olathe",
    "county": "Johnson County",
    "created_at": "2012-01-04T20:14:42Z",
    "id": 8854,
    "latitude": "38.869129",
    "longitude": "-94.846693",
    "mascot": "Tigers",
    "name": "Oregon Trail Junior High School",
    "primary_color": "Royal",
    "secondary_color": "White",
    "state": "KS",
    "timezone": "America/Chicago",
    "updated_at": "2012-07-07T23:53:54Z",
    "zip": "66061"
  },
  {
    "address": "15100 W 127th St",
    "city": "Olathe",
    "county": "Johnson County",
    "created_at": "2012-01-04T20:14:42Z",
    "id": 8855,
    "latitude": "38.898178",
    "longitude": "-94.761187",
    "mascot": "Panthers",
    "name": "Pioneer Trail Junior High School",
    "primary_color": "Red",
    "secondary_color": "Black",
    "state": "KS",
    "timezone": "America/Chicago",
    "updated_at": "2012-07-07T23:53:55Z",
    "zip": "66062"
  },
  {
    "address": "1005 S Main St",
    "city": "Fort Scott",
    "county": "Bourbon County",
    "created_at": "2012-01-04T20:14:42Z",
    "id": 8856,
    "latitude": "37.829450",
    "longitude": "-94.706141",
    "mascot": "Tigers",
    "name": "Fort Scott High School",
    "primary_color": "Red",
    "secondary_color": "White",
    "state": "KS",
    "timezone": "America/Chicago",
    "updated_at": "2012-07-07T23:53:56Z",
    "zip": "66701"
  },
  {
    "address": "436 W 10th St",
    "city": "Concordia",
    "county": "Cloud County",
    "created_at": "2012-01-04T20:14:42Z",
    "id": 8857,
    "latitude": "39.567427",
    "longitude": "-97.665576",
    "mascot": "Panthers",
    "name": "Concordia Junior Senior High School",
    "primary_color": "Red",
    "secondary_color": "White",
    "state": "KS",
    "timezone": "America/Chicago",
    "updated_at": "2012-07-07T23:53:56Z",
    "zip": "66901"
  },
  {
    "address": "2300 E 13th St",
    "city": "Hays",
    "county": "Ellis County",
    "created_at": "2012-01-04T20:14:42Z",
    "id": 8858,
    "latitude": "38.870952",
    "longitude": "-99.295608",
    "mascot": "Indians",
    "name": "Hays High School",
    "primary_color": "Gold",
    "secondary_color": "Maroon",
    "state": "KS",
    "timezone": "America/Chicago",
    "updated_at": "2012-07-07T23:53:57Z",
    "zip": "67601"
  },
  {
    "address": "900 N Eisenhower Dr",
    "city": "Junction City",
    "county": "Geary County",
    "created_at": "2012-01-04T20:14:42Z",
    "id": 8859,
    "latitude": "39.031629",
    "longitude": "-96.849164",
    "mascot": "Blue Jays",
    "name": "Junction City High School",
    "primary_color": "Royal",
    "secondary_color": "White",
    "state": "KS",
    "timezone": "America/Chicago",
    "updated_at": "2012-07-07T23:53:57Z",
    "zip": "66441"
  },
  {
    "address": "5800 W 107th St",
    "city": "Overland Park",
    "county": "Johnson County",
    "created_at": "2012-01-04T20:14:42Z",
    "id": 8860,
    "latitude": "38.934778",
    "longitude": "-94.652656",
    "mascot": "Raiders",
    "name": "Shawnee Mission South High School",
    "primary_color": "Gold",
    "secondary_color": "Kelly Green",
    "state": "KS",
    "timezone": "America/Chicago",
    "updated_at": "2012-07-07T23:53:58Z",
    "zip": "66207"
  },
  {
    "address": "6001 W 159th St",
    "city": "Stilwell",
    "county": "Johnson County",
    "created_at": "2012-01-04T20:14:42Z",
    "id": 8861,
    "latitude": "38.840081",
    "longitude": "-94.655294",
    "mascot": "Tigers",
    "name": "Blue Valley High School",
    "primary_color": "Black",
    "secondary_color": "Gold",
    "state": "KS",
    "timezone": "America/Chicago",
    "updated_at": "2012-07-07T23:53:58Z",
    "zip": "66085"
  },
  {
    "address": "801 E 1st St",
    "city": "McPherson",
    "county": "McPherson County",
    "created_at": "2012-01-04T20:14:42Z",
    "id": 8862,
    "latitude": "38.376632",
    "longitude": "-97.657294",
    "mascot": "Bullpups",
    "name": "McPherson High School",
    "primary_color": "Red",
    "secondary_color": "White",
    "state": "KS",
    "timezone": "America/Chicago",
    "updated_at": "2012-07-07T23:53:59Z",
    "zip": "67460"
  },
  {
    "address": "611 N Main St",
    "city": "Buhler",
    "county": "Reno County",
    "created_at": "2012-01-04T20:14:42Z",
    "id": 8863,
    "latitude": "38.139829",
    "longitude": "-97.770637",
    "mascot": "Crusaders",
    "name": "Buhler High School",
    "primary_color": "Maroon",
    "secondary_color": "White",
    "state": "KS",
    "timezone": "America/Chicago",
    "updated_at": "2012-07-07T23:53:59Z",
    "zip": "67522"
  },
  {
    "address": "730 E Magnolia Rd",
    "city": "Salina",
    "county": "Saline County",
    "created_at": "2012-01-04T20:14:42Z",
    "id": 8864,
    "latitude": "38.798012",
    "longitude": "-97.600155",
    "mascot": "Cougars",
    "name": "Salina High School South",
    "primary_color": "Gold",
    "secondary_color": "Kelly Green",
    "state": "KS",
    "timezone": "America/Chicago",
    "updated_at": "2012-07-07T23:54:00Z",
    "zip": "67401"
  },
  {
    "address": "2100 W 55th St S",
    "city": "Wichita",
    "county": "Sedgwick County",
    "created_at": "2012-01-04T20:14:42Z",
    "id": 8865,
    "latitude": "37.593410",
    "longitude": "-97.365471",
    "mascot": "Colts",
    "name": "Campus High School",
    "primary_color": "Black",
    "secondary_color": "Gold",
    "state": "KS",
    "timezone": "America/Chicago",
    "updated_at": "2012-07-07T23:54:01Z",
    "zip": "67217"
  },
  {
    "address": "800 N Meridian St",
    "city": "Valley Center",
    "county": "Sedgwick County",
    "created_at": "2012-01-04T20:14:42Z",
    "id": 8866,
    "latitude": "37.843367",
    "longitude": "-97.372019",
    "mascot": "Hornets",
    "name": "Valley Center High School",
    "primary_color": "Purple",
    "secondary_color": "Gold",
    "state": "KS",
    "timezone": "America/Chicago",
    "updated_at": "2012-07-07T23:54:01Z",
    "zip": "67147"
  },
  {
    "address": "2301 E Douglas",
    "city": "Wichita",
    "county": "Sedgwick County",
    "created_at": "2012-01-04T20:14:42Z",
    "id": 8867,
    "latitude": "37.686224",
    "longitude": "-97.309245",
    "mascot": "Aces",
    "name": "Wichita East High School",
    "primary_color": "Navy",
    "secondary_color": "White",
    "state": "KS",
    "timezone": "America/Chicago",
    "updated_at": "2012-07-07T23:54:02Z",
    "zip": "67211"
  },
  {
    "address": "1437 Rochester St",
    "city": "Wichita",
    "county": "Sedgwick County",
    "created_at": "2012-01-04T20:14:43Z",
    "id": 8868,
    "latitude": "37.708702",
    "longitude": "-97.343801",
    "mascot": "Redskins",
    "name": "Wichita North High School",
    "primary_color": "Red",
    "secondary_color": "White",
    "state": "KS",
    "timezone": "America/Chicago",
    "updated_at": "2012-07-07T23:54:03Z",
    "zip": "67203"
  },
  {
    "address": "701 W 33rd St S",
    "city": "Wichita",
    "county": "Sedgwick County",
    "created_at": "2012-01-04T20:14:43Z",
    "id": 8869,
    "latitude": "37.633373",
    "longitude": "-97.346005",
    "mascot": "Titans",
    "name": "Wichita South Senior High School",
    "primary_color": "Royal",
    "secondary_color": "Red",
    "state": "KS",
    "timezone": "America/Chicago",
    "updated_at": "2012-07-07T23:54:03Z",
    "zip": "67217"
  },
  {
    "address": "820 S Osage",
    "city": "Wichita",
    "county": "Sedgwick County",
    "created_at": "2012-01-04T20:14:43Z",
    "id": 8870,
    "latitude": "37.675119",
    "longitude": "-97.349281",
    "mascot": "Pioneers",
    "name": "Wichita High School West",
    "primary_color": "Gold",
    "secondary_color": "Maroon",
    "state": "KS",
    "timezone": "America/Chicago",
    "updated_at": "2012-07-07T23:54:04Z",
    "zip": "67213"
  },
  {
    "address": "2424 SE California Ave",
    "city": "Topeka",
    "county": "Shawnee County",
    "created_at": "2012-01-04T20:14:43Z",
    "id": 8871,
    "latitude": "39.023781",
    "longitude": "-95.651361",
    "mascot": "Scots",
    "name": "Highland Park High School",
    "primary_color": "Red",
    "secondary_color": "Kelly Green",
    "state": "KS",
    "timezone": "America/Chicago",
    "updated_at": "2012-07-07T23:54:04Z",
    "zip": "66605"
  },
  {
    "address": "2001 SW Fairlawn Rd",
    "city": "Topeka",
    "county": "Shawnee County",
    "created_at": "2012-01-04T20:14:43Z",
    "id": 8872,
    "latitude": "39.030971",
    "longitude": "-95.743539",
    "mascot": "Chargers",
    "name": "Topeka West High School",
    "primary_color": "Purple",
    "secondary_color": "White",
    "state": "KS",
    "timezone": "America/Chicago",
    "updated_at": "2012-07-07T23:54:05Z",
    "zip": "66604"
  },
  {
    "address": "5900 SW 61st St",
    "city": "Topeka",
    "county": "Shawnee County",
    "created_at": "2012-01-04T20:14:43Z",
    "id": 8873,
    "latitude": "38.956456",
    "longitude": "-95.759504",
    "mascot": "Jr Blues",
    "name": "Washburn Rural Senior High School",
    "primary_color": "Royal",
    "secondary_color": "White",
    "state": "KS",
    "timezone": "America/Chicago",
    "updated_at": "2012-07-07T23:54:06Z",
    "zip": "66619"
  },
  {
    "address": "2400 Steele Rd",
    "city": "Kansas City",
    "county": "Wyandotte County",
    "created_at": "2012-01-04T20:14:43Z",
    "id": 8874,
    "latitude": "39.062308",
    "longitude": "-94.656354",
    "mascot": "Hawks",
    "name": "J C Harmon High School",
    "primary_color": "Purple",
    "secondary_color": "White",
    "state": "KS",
    "timezone": "America/Chicago",
    "updated_at": "2012-07-07T23:54:06Z",
    "zip": "66106"
  },
  {
    "address": "2214 N 59th St",
    "city": "Kansas City",
    "county": "Wyandotte County",
    "created_at": "2012-01-04T20:14:43Z",
    "id": 8875,
    "latitude": "39.130596",
    "longitude": "-94.715246",
    "mascot": "Stallions",
    "name": "F L Schlagle High School",
    "primary_color": "Gold",
    "secondary_color": "Royal",
    "state": "KS",
    "timezone": "America/Chicago",
    "updated_at": "2012-07-07T23:54:07Z",
    "zip": "66104"
  },
  {
    "address": "204 E Main St",
    "city": "Pretty Prairie",
    "county": "Reno County",
    "created_at": "2012-01-04T20:14:43Z",
    "id": 8876,
    "latitude": "37.780759",
    "longitude": "-98.017887",
    "mascot": "Bulldogs",
    "name": "Pretty Prairie High School",
    "primary_color": "Red",
    "secondary_color": "Royal",
    "state": "KS",
    "timezone": "America/Chicago",
    "updated_at": "2012-07-07T23:54:07Z",
    "zip": "67570"
  },
  {
    "address": "301 N Putnam St",
    "city": "Bennington",
    "county": "Ottawa County",
    "created_at": "2012-01-04T20:14:43Z",
    "id": 8877,
    "latitude": "39.032134",
    "longitude": "-97.596062",
    "mascot": "Bulldogs",
    "name": "Bennington High School",
    "primary_color": "Gold",
    "secondary_color": "Black",
    "state": "KS",
    "timezone": "America/Chicago",
    "updated_at": "2012-07-07T23:54:08Z",
    "zip": "67422"
  },
  {
    "address": "430 Waverly St",
    "city": "Little River",
    "county": "Rice County",
    "created_at": "2012-01-04T20:14:43Z",
    "id": 8878,
    "latitude": "38.398558",
    "longitude": "-98.014805",
    "mascot": "Redskins",
    "name": "Little River Junior Senior High",
    "primary_color": "Red",
    "secondary_color": "Black",
    "state": "KS",
    "timezone": "America/Chicago",
    "updated_at": "2012-07-07T23:54:09Z",
    "zip": "67457"
  },
  {
    "address": "400 1st St",
    "city": "Powhattan",
    "county": "Brown County",
    "created_at": "2012-01-04T20:14:43Z",
    "id": 8879,
    "latitude": "39.759527",
    "longitude": "-95.635567",
    "mascot": "Warriors",
    "name": "Kickapoo Nation School",
    "primary_color": "Gray",
    "secondary_color": "Maroon",
    "state": "KS",
    "timezone": "America/Chicago",
    "updated_at": "2012-07-07T23:54:14Z",
    "zip": "66527"
  },
  {
    "address": "Rt 3 Box 8 Larned Campus",
    "city": "Larned",
    "county": "Pawnee County",
    "created_at": "2012-01-04T20:14:43Z",
    "id": 8880,
    "latitude": "38.175282",
    "longitude": "-99.112089",
    "mascot": "Hornets",
    "name": "Westside School",
    "primary_color": "Black",
    "secondary_color": "Gold",
    "state": "KS",
    "timezone": "America/Chicago",
    "updated_at": "2012-07-07T23:54:15Z",
    "zip": "67550"
  },
  {
    "address": "6915 Maurer Rd",
    "city": "Shawnee",
    "county": "Johnson County",
    "created_at": "2012-01-04T20:14:43Z",
    "id": 8881,
    "latitude": "39.003032",
    "longitude": "-94.770567",
    "mascot": "Mustangs",
    "name": "Midland Adventist Academy",
    "primary_color": "Red",
    "secondary_color": "White",
    "state": "KS",
    "timezone": "America/Chicago",
    "updated_at": "2012-07-07T23:54:15Z",
    "zip": "66217"
  },
  {
    "address": "201 S Victory",
    "city": "Hutchinson",
    "county": "Reno County",
    "created_at": "2012-01-04T20:14:43Z",
    "id": 8882,
    "latitude": "38.048911",
    "longitude": "-97.757065",
    "mascot": "Angels",
    "name": "Victory Christian Academy",
    "primary_color": "Black",
    "secondary_color": "White",
    "state": "KS",
    "timezone": "America/Chicago",
    "updated_at": "2012-07-07T23:54:16Z",
    "zip": "67504"
  },
  {
    "address": "3500 SW 10th St",
    "city": "Topeka",
    "county": "Shawnee County",
    "created_at": "2012-01-04T20:14:43Z",
    "id": 8883,
    "latitude": "39.051268",
    "longitude": "-95.721131",
    "mascot": "Capper Snappers",
    "name": "The Capper Foundation",
    "primary_color": "Kelly Green",
    "secondary_color": "Gold",
    "state": "KS",
    "timezone": "America/Chicago",
    "updated_at": "2012-07-07T23:54:17Z",
    "zip": "66604"
  },
  {
    "address": "1400 E 17th St",
    "city": "Hutchinson",
    "county": "Reno County",
    "created_at": "2012-01-04T20:14:43Z",
    "id": 8884,
    "latitude": "38.072201",
    "longitude": "-97.903423",
    "mascot": "Celtics",
    "name": "Trinity High School",
    "primary_color": "Red",
    "secondary_color": "White",
    "state": "KS",
    "timezone": "America/Chicago",
    "updated_at": "2012-07-07T23:54:17Z",
    "zip": "67501"
  },
  {
    "address": "5th & Commercial St",
    "city": "Kincaid",
    "county": "Anderson County",
    "created_at": "2012-01-04T20:14:43Z",
    "id": 8885,
    "latitude": "38.087090",
    "longitude": "-95.154389",
    "mascot": "Chiefs",
    "name": "Quest School",
    "primary_color": "Red",
    "secondary_color": "Columbia Blue",
    "state": "KS",
    "timezone": "America/Chicago",
    "updated_at": "2012-07-07T23:54:18Z",
    "zip": "66039"
  },
  {
    "address": "110 W 4th St",
    "city": "Cunningham",
    "county": "Kingman County",
    "created_at": "2012-01-04T20:14:43Z",
    "id": 8886,
    "latitude": "37.648852",
    "longitude": "-98.433118",
    "mascot": "Wildcats",
    "name": "Cunningham High School",
    "primary_color": "Red",
    "secondary_color": "White",
    "state": "KS",
    "timezone": "America/Chicago",
    "updated_at": "2012-07-07T23:54:19Z",
    "zip": "67035"
  },
  {
    "address": "Rt 1 Box 45 Hwy 75",
    "city": "Buffalo",
    "county": "Wilson County",
    "created_at": "2012-01-04T20:14:43Z",
    "id": 8887,
    "latitude": "37.698747",
    "longitude": "-95.702124",
    "mascot": "Jets",
    "name": "Altoona-Midway School",
    "primary_color": "Gold",
    "secondary_color": "Royal",
    "state": "KS",
    "timezone": "America/Chicago",
    "updated_at": "2012-07-07T23:54:20Z",
    "zip": "66717"
  },
  {
    "address": "313 S Washington",
    "city": "Randall",
    "county": "Jewell County",
    "created_at": "2012-01-04T20:14:43Z",
    "id": 8888,
    "latitude": "39.668560",
    "longitude": "-98.154579",
    "mascot": "Wildcats",
    "name": "Jewell Junior Senior High School",
    "primary_color": "Black",
    "secondary_color": "Orange",
    "state": "KS",
    "timezone": "America/Chicago",
    "updated_at": "2012-07-07T23:54:20Z",
    "zip": "66949"
  },
  {
    "address": "200 3rd St",
    "city": "Rolla",
    "county": "Morton County",
    "created_at": "2012-01-04T20:14:43Z",
    "id": 8889,
    "latitude": "37.120108",
    "longitude": "-101.629181",
    "mascot": "Pirates",
    "name": "Rolla High School",
    "primary_color": "Kelly Green",
    "secondary_color": "Gold",
    "state": "KS",
    "timezone": "America/Chicago",
    "updated_at": "2012-07-07T23:54:21Z",
    "zip": "67954"
  },
  {
    "address": "12685 Mission Valley Rd",
    "city": "Harveyville",
    "county": "Wabaunsee County",
    "created_at": "2012-01-04T20:14:43Z",
    "id": 8890,
    "latitude": "38.884670",
    "longitude": "-95.984149",
    "mascot": "Wildcats",
    "name": "Mission Valley Middle School",
    "primary_color": "Gold",
    "secondary_color": "Black",
    "state": "KS",
    "timezone": "America/Chicago",
    "updated_at": "2012-07-07T23:54:22Z",
    "zip": "66431"
  },
  {
    "address": "414 E Goodnow St",
    "city": "White City",
    "county": "Morris County",
    "created_at": "2012-01-04T20:14:43Z",
    "id": 8891,
    "latitude": "38.796718",
    "longitude": "-96.737884",
    "mascot": "Huskies",
    "name": "White City School",
    "primary_color": "Red",
    "secondary_color": "White",
    "state": "KS",
    "timezone": "America/Chicago",
    "updated_at": "2012-07-07T23:54:22Z",
    "zip": "66872"
  },
  {
    "address": "3361 N Arkansas St",
    "city": "Wichita",
    "county": "Sedgwick County",
    "created_at": "2012-01-04T20:14:43Z",
    "id": 8892,
    "latitude": "37.744131",
    "longitude": "-97.344877",
    "mascot": null,
    "name": "Arkansas Avenue Alternative Program",
    "primary_color": "Navy",
    "secondary_color": "Hunter Green",
    "state": "KS",
    "timezone": "America/Chicago",
    "updated_at": "2012-07-07T23:54:23Z",
    "zip": "67204"
  },
  {
    "address": "1306 N Morgan St",
    "city": "Downs",
    "county": "Osborne County",
    "created_at": "2012-01-04T20:14:43Z",
    "id": 8893,
    "latitude": "39.507874",
    "longitude": "-98.544355",
    "mascot": "Dragons",
    "name": "Lakeside High School",
    "primary_color": "Gold",
    "secondary_color": "Purple",
    "state": "KS",
    "timezone": "America/Chicago",
    "updated_at": "2012-07-07T23:54:24Z",
    "zip": "67437"
  },
  {
    "address": "11600 W 45th St N",
    "city": "Maize",
    "county": "Sedgwick County",
    "created_at": "2012-01-04T20:14:43Z",
    "id": 8894,
    "latitude": "37.765768",
    "longitude": "-97.476582",
    "mascot": "Eagles",
    "name": "Maize High School",
    "primary_color": "Red",
    "secondary_color": "White",
    "state": "KS",
    "timezone": "America/Chicago",
    "updated_at": "2012-07-07T23:54:24Z",
    "zip": "67101"
  },
  {
    "address": "200 N Poplar",
    "city": "Hope",
    "county": "Dickinson County",
    "created_at": "2012-01-04T20:14:43Z",
    "id": 8895,
    "latitude": "38.691037",
    "longitude": "-97.073543",
    "mascot": "Lions",
    "name": "Hope School",
    "primary_color": "Orange",
    "secondary_color": "Black",
    "state": "KS",
    "timezone": "America/Chicago",
    "updated_at": "2012-07-07T23:54:25Z",
    "zip": "67451"
  },
  {
    "address": "751 George Washington Blvd",
    "city": "Wichita",
    "county": "Sedgwick County",
    "created_at": "2012-01-04T20:14:43Z",
    "id": 8896,
    "latitude": "37.674212",
    "longitude": "-97.311115",
    "mascot": null,
    "name": "Metro Boulevard Alternative High School",
    "primary_color": "Black",
    "secondary_color": "White",
    "state": "KS",
    "timezone": "America/Chicago",
    "updated_at": "2012-07-07T23:54:25Z",
    "zip": "67211"
  },
  {
    "address": "301 S Meridian St",
    "city": "Wichita",
    "county": "Sedgwick County",
    "created_at": "2012-01-04T20:14:43Z",
    "id": 8897,
    "latitude": "37.680296",
    "longitude": "-97.371169",
    "mascot": "Mavericks",
    "name": "Metro Meridian Alternative High School",
    "primary_color": "Black",
    "secondary_color": "White",
    "state": "KS",
    "timezone": "America/Chicago",
    "updated_at": "2012-07-07T23:54:26Z",
    "zip": "67213"
  },
  {
    "address": "12685 Mission Valley Rd",
    "city": "Eskridge",
    "county": "Wabaunsee County",
    "created_at": "2012-01-04T20:14:43Z",
    "id": 8898,
    "latitude": "38.884754",
    "longitude": "-95.996182",
    "mascot": "Vikings",
    "name": "Mission Valley School",
    "primary_color": "Gold",
    "secondary_color": "Maroon",
    "state": "KS",
    "timezone": "America/Chicago",
    "updated_at": "2012-07-07T23:54:27Z",
    "zip": "66423"
  },
  {
    "address": "504 W 4th St",
    "city": "Sylvan Grove",
    "county": "Lincoln County",
    "created_at": "2012-01-04T20:14:43Z",
    "id": 8899,
    "latitude": "39.014586",
    "longitude": "-98.398760",
    "mascot": "Mustangs",
    "name": "Sylvan Unified High School",
    "primary_color": "Red",
    "secondary_color": "Black",
    "state": "KS",
    "timezone": "America/Chicago",
    "updated_at": "2012-07-07T23:54:27Z",
    "zip": "67481"
  },
  {
    "address": "504 W 4th St",
    "city": "Sylvan Grove",
    "county": "Lincoln County",
    "created_at": "2012-01-04T20:14:43Z",
    "id": 8900,
    "latitude": "39.014586",
    "longitude": "-98.398760",
    "mascot": "Mustangs",
    "name": "Sylvan Unified Schools",
    "primary_color": "Red",
    "secondary_color": "Black",
    "state": "KS",
    "timezone": "America/Chicago",
    "updated_at": "2012-07-07T23:54:28Z",
    "zip": "67481"
  },
  {
    "address": "912 Missouri Ave",
    "city": "Alma",
    "county": "Wabaunsee County",
    "created_at": "2012-01-04T20:14:43Z",
    "id": 8901,
    "latitude": "39.018651",
    "longitude": "-96.289461",
    "mascot": "Chargers",
    "name": "Wabaunsee Senior High School",
    "primary_color": "Red",
    "secondary_color": "Royal",
    "state": "KS",
    "timezone": "America/Chicago",
    "updated_at": "2012-07-07T23:54:28Z",
    "zip": "66401"
  },
  {
    "address": "512 W Bryant St",
    "city": "Almena",
    "county": "Norton County",
    "created_at": "2012-01-04T20:14:43Z",
    "id": 8902,
    "latitude": "39.893001",
    "longitude": "-99.709811",
    "mascot": "Huskies",
    "name": "Northern Valley High School",
    "primary_color": "Black",
    "secondary_color": "White",
    "state": "KS",
    "timezone": "America/Chicago",
    "updated_at": "2012-07-07T23:54:29Z",
    "zip": "67622"
  },
  {
    "address": "217th St & Bronco Blvd",
    "city": "Spring Hill",
    "county": "Miami County",
    "created_at": "2012-01-04T20:14:43Z",
    "id": 8903,
    "latitude": "38.734670",
    "longitude": "-94.822379",
    "mascot": "Broncos",
    "name": "Spring Hill High School",
    "primary_color": "Purple",
    "secondary_color": "Gold",
    "state": "KS",
    "timezone": "America/Chicago",
    "updated_at": "2012-07-07T23:54:30Z",
    "zip": "66083"
  },
  {
    "address": "1301 School St",
    "city": "Pleasanton",
    "county": "Linn County",
    "created_at": "2012-01-04T20:14:43Z",
    "id": 8904,
    "latitude": "38.197095",
    "longitude": "-94.700169",
    "mascot": "Blue Jays",
    "name": "Pleasanton High School",
    "primary_color": "Royal",
    "secondary_color": "White",
    "state": "KS",
    "timezone": "America/Chicago",
    "updated_at": "2012-07-07T23:54:30Z",
    "zip": "66075"
  },
  {
    "address": "1 Longhorn Dr",
    "city": "Ransom",
    "county": "Ness County",
    "created_at": "2012-01-04T20:14:43Z",
    "id": 8905,
    "latitude": "38.635960",
    "longitude": "-99.900007",
    "mascot": "Longhorns",
    "name": "Western Plains High School",
    "primary_color": "Red",
    "secondary_color": "Black",
    "state": "KS",
    "timezone": "America/Chicago",
    "updated_at": "2012-07-07T23:54:31Z",
    "zip": "67572"
  },
  {
    "address": "7th & Delaware St",
    "city": "Longton",
    "county": "Elk County",
    "created_at": "2012-01-04T20:14:43Z",
    "id": 8906,
    "latitude": "37.375470",
    "longitude": "-96.079259",
    "mascot": "Lions",
    "name": "Elk Valley High School",
    "primary_color": "Black",
    "secondary_color": "Orange",
    "state": "KS",
    "timezone": "America/Chicago",
    "updated_at": "2012-07-07T23:54:31Z",
    "zip": "67352"
  },
  {
    "address": "640 N Emporia",
    "city": "Wichita",
    "county": "Sedgwick County",
    "created_at": "2012-01-04T20:14:43Z",
    "id": 8907,
    "latitude": "37.695436",
    "longitude": "-97.332974",
    "mascot": "Eagles",
    "name": "Metro Midtown School",
    "primary_color": "Gold",
    "secondary_color": "Red",
    "state": "KS",
    "timezone": "America/Chicago",
    "updated_at": "2012-07-07T23:54:32Z",
    "zip": "67214"
  },
  {
    "address": "212 E 9th St",
    "city": "Pittsburg",
    "county": "Crawford County",
    "created_at": "2012-01-04T20:14:43Z",
    "id": 8908,
    "latitude": "37.416062",
    "longitude": "-94.702999",
    "mascot": "Panthers",
    "name": "Saint Marys Colgan High School",
    "primary_color": "Royal",
    "secondary_color": "White",
    "state": "KS",
    "timezone": "America/Chicago",
    "updated_at": "2012-07-07T23:54:32Z",
    "zip": "66762"
  },
  {
    "address": "1701 Hall St",
    "city": "Hays",
    "county": "Ellis County",
    "created_at": "2012-01-04T20:14:43Z",
    "id": 8909,
    "latitude": "38.880748",
    "longitude": "-99.336407",
    "mascot": "Monarch Buffalo",
    "name": "Thomas More Marian High School",
    "primary_color": "Navy",
    "secondary_color": "White",
    "state": "KS",
    "timezone": "America/Chicago",
    "updated_at": "2012-07-07T23:54:33Z",
    "zip": "67601"
  },
  {
    "address": "200 N. Washington",
    "city": "Junction City",
    "county": "Geary County",
    "created_at": "2012-01-04T20:14:43Z",
    "id": 8910,
    "latitude": "39.024163",
    "longitude": "-96.829497",
    "mascot": "Rams",
    "name": "Saint Xaviers School",
    "primary_color": "Gold",
    "secondary_color": "Royal",
    "state": "KS",
    "timezone": "America/Chicago",
    "updated_at": "2012-07-07T23:54:33Z",
    "zip": "66441"
  },
  {
    "address": "11411 Pflumm Rd",
    "city": "Overland Park",
    "county": "Johnson County",
    "created_at": "2012-01-04T20:14:43Z",
    "id": 8911,
    "latitude": "38.922446",
    "longitude": "-94.742139",
    "mascot": "Saints",
    "name": "Saint Thomas Aquinas High School",
    "primary_color": "Navy",
    "secondary_color": "Gold",
    "state": "KS",
    "timezone": "America/Chicago",
    "updated_at": "2012-07-07T23:54:33Z",
    "zip": "66215"
  },
  {
    "address": "5041 Reinhardt Dr",
    "city": "Shawnee Mission",
    "county": "Johnson County",
    "created_at": "2012-01-04T20:14:43Z",
    "id": 8912,
    "latitude": "39.036824",
    "longitude": "-94.625353",
    "mascot": "Stags",
    "name": "Bishop Miege High School",
    "primary_color": "Royal",
    "secondary_color": "Red",
    "state": "KS",
    "timezone": "America/Chicago",
    "updated_at": "2012-07-07T23:54:34Z",
    "zip": "66205"
  },
  {
    "address": "600 Shawnee St",
    "city": "Leavenworth",
    "county": "Leavenworth County",
    "created_at": "2012-01-04T20:14:43Z",
    "id": 8913,
    "latitude": "39.318599",
    "longitude": "-94.917234",
    "mascot": "Indians",
    "name": "Immaculata High School",
    "primary_color": "Kelly Green",
    "secondary_color": "White",
    "state": "KS",
    "timezone": "America/Chicago",
    "updated_at": "2012-07-07T23:54:34Z",
    "zip": "66048"
  },
  {
    "address": "209 S Cherry",
    "city": "Beloit",
    "county": "Mitchell County",
    "created_at": "2012-01-04T20:14:43Z",
    "id": 8914,
    "latitude": "39.457975",
    "longitude": "-98.101403",
    "mascot": "Blujays",
    "name": "Saint Johns High School",
    "primary_color": "Royal",
    "secondary_color": "White",
    "state": "KS",
    "timezone": "America/Chicago",
    "updated_at": "2012-07-07T23:54:34Z",
    "zip": "67420"
  },
  {
    "address": "301st St",
    "city": "Tipton",
    "county": "Mitchell County",
    "created_at": "2012-01-04T20:14:43Z",
    "id": 8915,
    "latitude": "39.339830",
    "longitude": "-98.466339",
    "mascot": "Cardinals",
    "name": "Tipton High School",
    "primary_color": "Red",
    "secondary_color": "White",
    "state": "KS",
    "timezone": "America/Chicago",
    "updated_at": "2012-07-07T23:54:35Z",
    "zip": "67485"
  },
  {
    "address": "234 E Cloud",
    "city": "Salina",
    "county": "Saline County",
    "created_at": "2012-01-04T20:14:43Z",
    "id": 8916,
    "latitude": "38.812572",
    "longitude": "-97.605901",
    "mascot": "Knights",
    "name": "Salina Sacred Heart Junior Senior High",
    "primary_color": "Gold",
    "secondary_color": "Navy",
    "state": "KS",
    "timezone": "America/Chicago",
    "updated_at": "2012-07-07T23:54:35Z",
    "zip": "67401"
  },
  {
    "address": "8506 E Central",
    "city": "Wichita",
    "county": "Sedgwick County",
    "created_at": "2012-01-04T20:14:43Z",
    "id": 8917,
    "latitude": "37.693858",
    "longitude": "-97.238180",
    "mascot": "Crusaders",
    "name": "Kapaun Mount Carmel High School",
    "primary_color": "Royal",
    "secondary_color": "White",
    "state": "KS",
    "timezone": "America/Chicago",
    "updated_at": "2012-07-07T23:54:36Z",
    "zip": "67206"
  },
  {
    "address": "8101 W Central",
    "city": "Wichita",
    "county": "Sedgwick County",
    "created_at": "2012-01-04T20:14:43Z",
    "id": 8918,
    "latitude": "37.694201",
    "longitude": "-97.437352",
    "mascot": "Golden Eagles",
    "name": "Bishop Carroll Catholic High School",
    "primary_color": "Gold",
    "secondary_color": "Kelly Green",
    "state": "KS",
    "timezone": "America/Chicago",
    "updated_at": "2012-07-07T23:54:36Z",
    "zip": "67212"
  },
  {
    "address": "401 SW Gage Blvd",
    "city": "Topeka",
    "county": "Shawnee County",
    "created_at": "2012-01-04T20:14:43Z",
    "id": 8919,
    "latitude": "39.062490",
    "longitude": "-95.724651",
    "mascot": "Wildcats",
    "name": "Hayden High School",
    "primary_color": "Navy",
    "secondary_color": "White",
    "state": "KS",
    "timezone": "America/Chicago",
    "updated_at": "2012-07-07T23:54:37Z",
    "zip": "66606"
  },
  {
    "address": "1150 W 6th St",
    "city": "Colby",
    "county": "Thomas County",
    "created_at": "2012-01-04T20:14:43Z",
    "id": 8920,
    "latitude": "39.398972",
    "longitude": "-101.057588",
    "mascot": "Celtics",
    "name": "Sacred Heart School",
    "primary_color": "Red",
    "secondary_color": "White",
    "state": "KS",
    "timezone": "America/Chicago",
    "updated_at": "2012-07-07T23:54:37Z",
    "zip": "67701"
  },
  {
    "address": "708 N 18th St",
    "city": "Kansas City",
    "county": "Wyandotte County",
    "created_at": "2012-01-04T20:14:43Z",
    "id": 8921,
    "latitude": "39.112773",
    "longitude": "-94.649345",
    "mascot": "Cyclones",
    "name": "Bishop Ward High School",
    "primary_color": "Black",
    "secondary_color": "White",
    "state": "KS",
    "timezone": "America/Chicago",
    "updated_at": "2012-07-07T23:54:38Z",
    "zip": "66102"
  },
  {
    "address": "500 Activity Dr",
    "city": "Osawatomie",
    "county": "Miami County",
    "created_at": "2012-01-04T20:14:43Z",
    "id": 8922,
    "latitude": "38.514020",
    "longitude": "-94.937919",
    "mascot": "Globes",
    "name": "George York School",
    "primary_color": "Royal",
    "secondary_color": "White",
    "state": "KS",
    "timezone": "America/Chicago",
    "updated_at": "2012-07-07T23:54:38Z",
    "zip": "66064"
  },
  {
    "address": "450 E Park St",
    "city": "Olathe",
    "county": "Johnson County",
    "created_at": "2012-01-04T20:14:43Z",
    "id": 8923,
    "latitude": "38.882008",
    "longitude": "-94.813264",
    "mascot": "Jack Rabbits",
    "name": "Kansas State School For The Deaf",
    "primary_color": "Navy",
    "secondary_color": "Teal",
    "state": "KS",
    "timezone": "America/Chicago",
    "updated_at": "2012-07-07T23:54:39Z",
    "zip": "66061"
  },
  {
    "address": "1101 S Barbee St",
    "city": "Fort Scott",
    "county": "Bourbon County",
    "created_at": "2012-01-04T20:14:43Z",
    "id": 8924,
    "latitude": "37.825782",
    "longitude": "-94.697069",
    "mascot": "Crusaders",
    "name": "Fort Scott Christian Heights School",
    "primary_color": "Red",
    "secondary_color": "White",
    "state": "KS",
    "timezone": "America/Chicago",
    "updated_at": "2012-07-07T23:54:39Z",
    "zip": "66701"
  },
  {
    "address": "701 S Bridge St",
    "city": "Enterprise",
    "county": "Dickinson County",
    "created_at": "2012-01-04T20:14:43Z",
    "id": 8925,
    "latitude": "38.896447",
    "longitude": "-97.120072",
    "mascot": null,
    "name": "Enterprise SDA Academy",
    "primary_color": "Royal",
    "secondary_color": "White",
    "state": "KS",
    "timezone": "America/Chicago",
    "updated_at": "2012-07-07T23:54:39Z",
    "zip": "67441"
  },
  {
    "address": "409 N Van Buren",
    "city": "Abilene",
    "county": "Dickinson County",
    "created_at": "2012-01-04T20:14:43Z",
    "id": 8926,
    "latitude": "38.918418",
    "longitude": "-97.242061",
    "mascot": "Mustangs",
    "name": "Abilene Baptist Academy",
    "primary_color": "Royal",
    "secondary_color": "White",
    "state": "KS",
    "timezone": "America/Chicago",
    "updated_at": "2012-07-07T23:54:40Z",
    "zip": "67410"
  },
  {
    "address": "256 N Michigan St",
    "city": "Lawrence",
    "county": "Douglas County",
    "created_at": "2012-01-04T20:14:43Z",
    "id": 8927,
    "latitude": "38.987730",
    "longitude": "-95.251153",
    "mascot": "Panthers",
    "name": "Veritas Christian School",
    "primary_color": "Kelly Green",
    "secondary_color": "Black",
    "state": "KS",
    "timezone": "America/Chicago",
    "updated_at": "2012-07-07T23:54:41Z",
    "zip": "66044"
  },
  {
    "address": "1901 E 1st",
    "city": "Newton",
    "county": "Harvey County",
    "created_at": "2012-01-04T20:14:43Z",
    "id": 8928,
    "latitude": "38.042767",
    "longitude": "-97.312519",
    "mascot": null,
    "name": "Prairie View School",
    "primary_color": "Kelly Green",
    "secondary_color": "White",
    "state": "KS",
    "timezone": "America/Chicago",
    "updated_at": "2012-07-07T23:54:41Z",
    "zip": "67114"
  },
  {
    "address": "4801 W 79th St",
    "city": "Prairie Village",
    "county": "Johnson County",
    "created_at": "2012-01-04T20:14:43Z",
    "id": 8929,
    "latitude": "38.985897",
    "longitude": "-94.640838",
    "mascot": "Panthers",
    "name": "Kansas City Christian School",
    "primary_color": "Gold",
    "secondary_color": "Royal",
    "state": "KS",
    "timezone": "America/Chicago",
    "updated_at": "2012-07-07T23:54:41Z",
    "zip": "66208"
  },
  {
    "address": "15020 Black Bob Rd",
    "city": "Olathe",
    "county": "Johnson County",
    "created_at": "2012-01-04T20:14:43Z",
    "id": 8930,
    "latitude": "38.855896",
    "longitude": "-94.761267",
    "mascot": "Braves",
    "name": "Berean Christian School",
    "primary_color": "Gold",
    "secondary_color": "Kelly Green",
    "state": "KS",
    "timezone": "America/Chicago",
    "updated_at": "2012-07-07T23:54:42Z",
    "zip": "66062"
  },
  {
    "address": "110 W 2nd St",
    "city": "Winifred",
    "county": "Marshall County",
    "created_at": "2012-01-04T20:14:43Z",
    "id": 8931,
    "latitude": "39.702264",
    "longitude": "-96.419109",
    "mascot": null,
    "name": "Winifred Baptist School",
    "primary_color": "Royal",
    "secondary_color": "White",
    "state": "KS",
    "timezone": "America/Chicago",
    "updated_at": "2012-07-07T23:54:42Z",
    "zip": "66427"
  },
  {
    "address": "100 Lakemary Dr",
    "city": "Paola",
    "county": "Miami County",
    "created_at": "2012-01-04T20:14:43Z",
    "id": 8932,
    "latitude": "38.569322",
    "longitude": "-94.860266",
    "mascot": null,
    "name": "Lakemary Center",
    "primary_color": "Royal",
    "secondary_color": "White",
    "state": "KS",
    "timezone": "America/Chicago",
    "updated_at": "2012-07-07T23:54:43Z",
    "zip": "66071"
  },
  {
    "address": "515 Retan",
    "city": "Osawatomie",
    "county": "Miami County",
    "created_at": "2012-01-04T20:14:43Z",
    "id": 8933,
    "latitude": "38.500062",
    "longitude": "-94.938103",
    "mascot": "Falcons",
    "name": "Faith Christian School",
    "primary_color": "Royal",
    "secondary_color": "White",
    "state": "KS",
    "timezone": "America/Chicago",
    "updated_at": "2012-07-07T23:54:43Z",
    "zip": "66064"
  },
  {
    "address": "2200 S 10th St",
    "city": "Independence",
    "county": "Montgomery County",
    "created_at": "2012-01-04T20:14:43Z",
    "id": 8934,
    "latitude": "37.196307",
    "longitude": "-95.710448",
    "mascot": null,
    "name": "Independence Bible School",
    "primary_color": null,
    "secondary_color": null,
    "state": "KS",
    "timezone": "America/Chicago",
    "updated_at": "2012-07-07T23:54:44Z",
    "zip": "67301"
  },
  {
    "address": "1910 E 30th Ave",
    "city": "Hutchinson",
    "county": "Reno County",
    "created_at": "2012-01-04T20:14:43Z",
    "id": 8935,
    "latitude": "38.086519",
    "longitude": "-97.888162",
    "mascot": "Cougars",
    "name": "Central Christian School",
    "primary_color": "Kelly Green",
    "secondary_color": "White",
    "state": "KS",
    "timezone": "America/Chicago",
    "updated_at": "2012-07-07T23:54:44Z",
    "zip": "67502"
  },
  {
    "address": "Northend Sante Fe Ave",
    "city": "Salina",
    "county": "Saline County",
    "created_at": "2012-01-04T20:14:43Z",
    "id": 8936,
    "latitude": "38.840545",
    "longitude": "-97.609704",
    "mascot": "Mule Skinners",
    "name": "Saint Johns Military School",
    "primary_color": "Black",
    "secondary_color": "Orange",
    "state": "KS",
    "timezone": "America/Chicago",
    "updated_at": "2012-07-07T23:54:44Z",
    "zip": "67402"
  },
  {
    "address": "9115 E 13th St",
    "city": "Wichita",
    "county": "Sedgwick County",
    "created_at": "2012-01-04T20:14:43Z",
    "id": 8937,
    "latitude": "37.708412",
    "longitude": "-97.232417",
    "mascot": "Spartans",
    "name": "Wichita Collegiate School",
    "primary_color": "Royal",
    "secondary_color": "Gold",
    "state": "KS",
    "timezone": "America/Chicago",
    "updated_at": "2012-07-07T23:54:45Z",
    "zip": "67206"
  },
  {
    "address": "2725 S Osage St",
    "city": "Wichita",
    "county": "Sedgwick County",
    "created_at": "2012-01-04T20:14:43Z",
    "id": 8938,
    "latitude": "37.645643",
    "longitude": "-97.348692",
    "mascot": "Crusaders",
    "name": "Wichita Adventist Junior Academy",
    "primary_color": "Gold",
    "secondary_color": "Black",
    "state": "KS",
    "timezone": "America/Chicago",
    "updated_at": "2012-07-07T23:54:45Z",
    "zip": "67217"
  },
  {
    "address": "8317 E Douglas St",
    "city": "Wichita",
    "county": "Sedgwick County",
    "created_at": "2012-01-04T20:14:43Z",
    "id": 8939,
    "latitude": "37.686558",
    "longitude": "-97.239094",
    "mascot": "Panthers",
    "name": "Independent School",
    "primary_color": "Royal",
    "secondary_color": "White",
    "state": "KS",
    "timezone": "America/Chicago",
    "updated_at": "2012-07-07T23:54:46Z",
    "zip": "67207"
  },
  {
    "address": "7401 Metcalf Ave",
    "city": "Overland Park",
    "county": "Johnson County",
    "created_at": "2012-01-04T20:14:43Z",
    "id": 8940,
    "latitude": "38.995030",
    "longitude": "-94.667662",
    "mascot": "Eagles",
    "name": "Overland Christian Grade School",
    "primary_color": "Gold",
    "secondary_color": "Purple",
    "state": "KS",
    "timezone": "America/Chicago",
    "updated_at": "2012-07-07T23:54:47Z",
    "zip": "66204"
  },
  {
    "address": "2401 Belle Ave",
    "city": "Topeka",
    "county": "Shawnee County",
    "created_at": "2012-01-04T20:14:43Z",
    "id": 8941,
    "latitude": "39.023409",
    "longitude": "-95.750265",
    "mascot": null,
    "name": "Faith Baptist Christian School",
    "primary_color": "Purple",
    "secondary_color": "Gray",
    "state": "KS",
    "timezone": "America/Chicago",
    "updated_at": "2012-07-07T23:54:47Z",
    "zip": "66614"
  },
  {
    "address": "635 SW Clay St",
    "city": "Topeka",
    "county": "Shawnee County",
    "created_at": "2012-01-04T20:14:43Z",
    "id": 8942,
    "latitude": "39.054912",
    "longitude": "-95.687833",
    "mascot": "Lions",
    "name": "Cair Paravel Latin School",
    "primary_color": "Navy",
    "secondary_color": "White",
    "state": "KS",
    "timezone": "America/Chicago",
    "updated_at": "2012-07-07T23:54:47Z",
    "zip": "66606"
  },
  {
    "address": "300 E Jackson St",
    "city": "Iola",
    "county": "Allen County",
    "created_at": "2012-01-04T20:14:43Z",
    "id": 8943,
    "latitude": "37.923056",
    "longitude": "-95.400886",
    "mascot": "Mustangs And Fillies",
    "name": "Iola Senior High School",
    "primary_color": "Gold",
    "secondary_color": "Royal",
    "state": "KS",
    "timezone": "America/Chicago",
    "updated_at": "2012-07-07T23:54:48Z",
    "zip": "66749"
  },
  {
    "address": "1011 Bridge",
    "city": "Humboldt",
    "county": "Allen County",
    "created_at": "2012-01-04T20:14:43Z",
    "id": 8944,
    "latitude": "37.811234",
    "longitude": "-95.433916",
    "mascot": "Cubs",
    "name": "Humboldt High School",
    "primary_color": "Black",
    "secondary_color": "Orange",
    "state": "KS",
    "timezone": "America/Chicago",
    "updated_at": "2012-07-07T23:54:48Z",
    "zip": "66748"
  },
  {
    "address": "1100 W Hwy 31",
    "city": "Garnett",
    "county": "Anderson County",
    "created_at": "2012-01-04T20:14:43Z",
    "id": 8945,
    "latitude": "38.288362",
    "longitude": "-95.260202",
    "mascot": "Bulldogs",
    "name": "Anderson County Junior Senior High",
    "primary_color": "Red",
    "secondary_color": "White",
    "state": "KS",
    "timezone": "America/Chicago",
    "updated_at": "2012-07-07T23:54:49Z",
    "zip": "66032"
  },
  {
    "address": "1500 W Riley St",
    "city": "Atchison",
    "county": "Atchison County",
    "created_at": "2012-01-04T20:14:43Z",
    "id": 8946,
    "latitude": "39.569242",
    "longitude": "-95.138388",
    "mascot": "Redmen",
    "name": "Atchison Senior High School",
    "primary_color": "Red",
    "secondary_color": "Gold",
    "state": "KS",
    "timezone": "America/Chicago",
    "updated_at": "2012-07-07T23:54:49Z",
    "zip": "66002"
  },
  {
    "address": "506 6th St",
    "city": "Effingham",
    "county": "Atchison County",
    "created_at": "2012-01-04T20:14:43Z",
    "id": 8947,
    "latitude": "39.523150",
    "longitude": "-95.394779",
    "mascot": "Tigers",
    "name": "Atchison County Community High School",
    "primary_color": "Orange",
    "secondary_color": "Black",
    "state": "KS",
    "timezone": "America/Chicago",
    "updated_at": "2012-07-07T23:54:50Z",
    "zip": "66023"
  },
  {
    "address": "1220 N 8th St",
    "city": "Kiowa",
    "county": "Barber County",
    "created_at": "2012-01-04T20:14:43Z",
    "id": 8948,
    "latitude": "37.024350",
    "longitude": "-98.483929",
    "mascot": "Chieftains",
    "name": "South Barber High School",
    "primary_color": "Black",
    "secondary_color": "Gold",
    "state": "KS",
    "timezone": "America/Chicago",
    "updated_at": "2012-07-07T23:54:50Z",
    "zip": "67070"
  },
  {
    "address": "400 El Dorado Ave",
    "city": "Medicine Lodge",
    "county": "Barber County",
    "created_at": "2012-01-04T20:14:43Z",
    "id": 8949,
    "latitude": "37.291498",
    "longitude": "-98.584452",
    "mascot": "Indians",
    "name": "Medicine Lodge High School",
    "primary_color": "Gold",
    "secondary_color": "Purple",
    "state": "KS",
    "timezone": "America/Chicago",
    "updated_at": "2012-07-07T23:54:51Z",
    "zip": "67104"
  },
  {
    "address": "2027 Morton St",
    "city": "Great Bend",
    "county": "Barton County",
    "created_at": "2012-01-04T20:14:43Z",
    "id": 8950,
    "latitude": "38.371345",
    "longitude": "-98.769317",
    "mascot": "Panthers",
    "name": "Great Bend Senior High School",
    "primary_color": "Red",
    "secondary_color": "Black",
    "state": "KS",
    "timezone": "America/Chicago",
    "updated_at": "2012-07-07T23:54:51Z",
    "zip": "67530"
  },
  {
    "address": "218 E 7th St",
    "city": "Hoisington",
    "county": "Barton County",
    "created_at": "2012-01-04T20:14:43Z",
    "id": 8951,
    "latitude": "38.520068",
    "longitude": "-98.775560",
    "mascot": "Cardinals",
    "name": "Hoisington High School",
    "primary_color": "Red",
    "secondary_color": "White",
    "state": "KS",
    "timezone": "America/Chicago",
    "updated_at": "2012-07-07T23:54:52Z",
    "zip": "67544"
  },
  {
    "address": "601 E 5th St",
    "city": "Uniontown",
    "county": "Bourbon County",
    "created_at": "2012-01-04T20:14:43Z",
    "id": 8952,
    "latitude": "37.848672",
    "longitude": "-94.973905",
    "mascot": "Eagles",
    "name": "Uniontown High School",
    "primary_color": "Orange",
    "secondary_color": "Black",
    "state": "KS",
    "timezone": "America/Chicago",
    "updated_at": "2012-07-07T23:54:52Z",
    "zip": "66779"
  },
  {
    "address": "600 Red Hawk Dr",
    "city": "Hiawatha",
    "county": "Brown County",
    "created_at": "2012-01-04T20:14:43Z",
    "id": 8953,
    "latitude": "39.851249",
    "longitude": "-95.524605",
    "mascot": "Red Hawks",
    "name": "Hiawatha High School",
    "primary_color": "Red",
    "secondary_color": "Royal",
    "state": "KS",
    "timezone": "America/Chicago",
    "updated_at": "2012-07-07T23:54:52Z",
    "zip": "66434"
  },
  {
    "address": "1120 1st Ave E",
    "city": "Horton",
    "county": "Brown County",
    "created_at": "2012-01-04T20:14:43Z",
    "id": 8954,
    "latitude": "39.663424",
    "longitude": "-95.525728",
    "mascot": "Chargers",
    "name": "Horton High School",
    "primary_color": "Royal",
    "secondary_color": "White",
    "state": "KS",
    "timezone": "America/Chicago",
    "updated_at": "2012-07-07T23:54:53Z",
    "zip": "66439"
  },
  {
    "address": "1744 Andover Rd",
    "city": "Andover",
    "county": "Butler County",
    "created_at": "2012-01-04T20:14:43Z",
    "id": 8955,
    "latitude": "37.717050",
    "longitude": "-97.135067",
    "mascot": "Trojans",
    "name": "Andover High School",
    "primary_color": "Royal",
    "secondary_color": "White",
    "state": "KS",
    "timezone": "America/Chicago",
    "updated_at": "2012-07-07T23:54:53Z",
    "zip": "67002"
  },
  {
    "address": "2020 Ohio St",
    "city": "Augusta",
    "county": "Butler County",
    "created_at": "2012-01-04T20:14:43Z",
    "id": 8956,
    "latitude": "37.697205",
    "longitude": "-96.971379",
    "mascot": "Orioles",
    "name": "Augusta Senior High School",
    "primary_color": "Orange",
    "secondary_color": "Black",
    "state": "KS",
    "timezone": "America/Chicago",
    "updated_at": "2012-07-07T23:54:54Z",
    "zip": "67010"
  },
  {
    "address": "910 1st St",
    "city": "Douglass",
    "county": "Butler County",
    "created_at": "2012-01-04T20:14:43Z",
    "id": 8957,
    "latitude": "37.519593",
    "longitude": "-97.006603",
    "mascot": "Bulldogs",
    "name": "Douglass High School",
    "primary_color": "Gold",
    "secondary_color": "Purple",
    "state": "KS",
    "timezone": "America/Chicago",
    "updated_at": "2012-07-07T23:54:54Z",
    "zip": "67039"
  },
  {
    "address": "401 McCollum Rd",
    "city": "El Dorado",
    "county": "Butler County",
    "created_at": "2012-01-04T20:14:43Z",
    "id": 8958,
    "latitude": "37.846367",
    "longitude": "-96.846564",
    "mascot": "Wildcats",
    "name": "El Dorado High School",
    "primary_color": "Red",
    "secondary_color": "Black",
    "state": "KS",
    "timezone": "America/Chicago",
    "updated_at": "2012-07-07T23:54:55Z",
    "zip": "67042"
  },
  {
    "address": "500 Bluestem Dr",
    "city": "Leon",
    "county": "Butler County",
    "created_at": "2012-01-04T20:14:43Z",
    "id": 8959,
    "latitude": "37.690663",
    "longitude": "-96.789031",
    "mascot": "Lions",
    "name": "Bluestem High School",
    "primary_color": "Gold",
    "secondary_color": "Royal",
    "state": "KS",
    "timezone": "America/Chicago",
    "updated_at": "2012-07-07T23:54:55Z",
    "zip": "67074"
  },
  {
    "address": "806 SE Rosalia Rd",
    "city": "Rosalia",
    "county": "Butler County",
    "created_at": "2012-01-04T20:14:43Z",
    "id": 8960,
    "latitude": "37.812892",
    "longitude": "-96.620044",
    "mascot": "Mustangs",
    "name": "Flinthills Middle High School",
    "primary_color": "Red",
    "secondary_color": "Black",
    "state": "KS",
    "timezone": "America/Chicago",
    "updated_at": "2012-07-07T23:54:56Z",
    "zip": "67132"
  },
  {
    "address": "104 N Rose Hill Rd",
    "city": "Rose Hill",
    "county": "Butler County",
    "created_at": "2012-01-04T20:14:43Z",
    "id": 8961,
    "latitude": "37.559581",
    "longitude": "-97.135062",
    "mascot": "Rockets",
    "name": "Rose Hill High School",
    "primary_color": "Red",
    "secondary_color": "White",
    "state": "KS",
    "timezone": "America/Chicago",
    "updated_at": "2012-07-07T23:54:56Z",
    "zip": "67133"
  },
  {
    "address": "905 Main St",
    "city": "Towanda",
    "county": "Butler County",
    "created_at": "2012-01-04T20:14:43Z",
    "id": 8962,
    "latitude": "37.795962",
    "longitude": "-96.995923",
    "mascot": "Thunderbirds",
    "name": "Circle High School",
    "primary_color": "Gold",
    "secondary_color": "Royal",
    "state": "KS",
    "timezone": "America/Chicago",
    "updated_at": "2012-07-07T23:54:57Z",
    "zip": "67144"
  },
  {
    "address": "8850 NW Meadowlark",
    "city": "Whitewater",
    "county": "Butler County",
    "created_at": "2012-01-04T20:14:43Z",
    "id": 8963,
    "latitude": "37.954138",
    "longitude": "-97.097450",
    "mascot": "Broncos",
    "name": "Frederic Remington High School",
    "primary_color": "Navy",
    "secondary_color": "Gray",
    "state": "KS",
    "timezone": "America/Chicago",
    "updated_at": "2012-07-07T23:54:57Z",
    "zip": "67154"
  },
  {
    "address": "600 Main St",
    "city": "Cottonwood Falls",
    "county": "Chase County",
    "created_at": "2012-01-04T20:14:43Z",
    "id": 8964,
    "latitude": "38.373270",
    "longitude": "-96.543729",
    "mascot": "Bulldogs",
    "name": "Chase County High School",
    "primary_color": "Red",
    "secondary_color": "Black",
    "state": "KS",
    "timezone": "America/Chicago",
    "updated_at": "2012-07-07T23:54:58Z",
    "zip": "66845"
  },
  {
    "address": "416 E Elm St",
    "city": "Sedan",
    "county": "Chautauqua County",
    "created_at": "2012-01-04T20:14:43Z",
    "id": 8965,
    "latitude": "37.129025",
    "longitude": "-96.182701",
    "mascot": "Blue Devils",
    "name": "Sedan High School",
    "primary_color": "Columbia Blue",
    "secondary_color": "White",
    "state": "KS",
    "timezone": "America/Chicago",
    "updated_at": "2012-07-07T23:54:58Z",
    "zip": "67361"
  },
  {
    "address": "100 N Military Ave",
    "city": "Baxter Springs",
    "county": "Cherokee County",
    "created_at": "2012-01-04T20:14:43Z",
    "id": 8966,
    "latitude": "37.032812",
    "longitude": "-94.734753",
    "mascot": "Lions",
    "name": "Baxter Springs High School",
    "primary_color": "Red",
    "secondary_color": "White",
    "state": "KS",
    "timezone": "America/Chicago",
    "updated_at": "2012-07-07T23:54:59Z",
    "zip": "66713"
  },
  {
    "address": "124 S High School Ave",
    "city": "Columbus",
    "county": "Cherokee County",
    "created_at": "2012-01-04T20:14:43Z",
    "id": 8967,
    "latitude": "37.170536",
    "longitude": "-94.849855",
    "mascot": "Titans",
    "name": "Columbus Unified School",
    "primary_color": "Gold",
    "secondary_color": "Red",
    "state": "KS",
    "timezone": "America/Chicago",
    "updated_at": "2012-07-07T23:54:59Z",
    "zip": "66725"
  },
  {
    "address": "602 E 8th",
    "city": "Galena",
    "county": "Cherokee County",
    "created_at": "2012-01-04T20:14:43Z",
    "id": 8968,
    "latitude": "37.074452",
    "longitude": "-94.634457",
    "mascot": "Bulldogs",
    "name": "Galena High School",
    "primary_color": "Navy",
    "secondary_color": "White",
    "state": "KS",
    "timezone": "America/Chicago",
    "updated_at": "2012-07-07T23:54:59Z",
    "zip": "66739"
  },
  {
    "address": "121 W 6th",
    "city": "Bird City",
    "county": "Cheyenne County",
    "created_at": "2012-01-04T20:14:43Z",
    "id": 8969,
    "latitude": "39.747489",
    "longitude": "-101.533124",
    "mascot": "Cougars",
    "name": "Cheylin School",
    "primary_color": "Columbia Blue",
    "secondary_color": "Navy",
    "state": "KS",
    "timezone": "America/Chicago",
    "updated_at": "2012-07-07T23:55:00Z",
    "zip": "67731"
  },
  {
    "address": "100 S College St",
    "city": "Saint Francis",
    "county": "Cheyenne County",
    "created_at": "2012-01-04T20:14:43Z",
    "id": 8970,
    "latitude": "39.774060",
    "longitude": "-101.795930",
    "mascot": "Indians",
    "name": "Saint Francis Community Junior & Senior",
    "primary_color": "Hunter Green",
    "secondary_color": "White",
    "state": "KS",
    "timezone": "America/Chicago",
    "updated_at": "2012-07-07T23:55:00Z",
    "zip": "67756"
  },
  {
    "address": "311 Clipper St",
    "city": "Ashland",
    "county": "Clark County",
    "created_at": "2012-01-04T20:14:44Z",
    "id": 8971,
    "latitude": "37.148296",
    "longitude": "-99.696069",
    "mascot": "Blue Jays",
    "name": "Ashland Junior Senior High School",
    "primary_color": "Royal",
    "secondary_color": "White",
    "state": "KS",
    "timezone": "America/Chicago",
    "updated_at": "2012-07-07T23:55:01Z",
    "zip": "67831"
  },
  {
    "address": "1630 9th St",
    "city": "Clay Center",
    "county": "Clay County",
    "created_at": "2012-01-04T20:14:44Z",
    "id": 8972,
    "latitude": "39.385818",
    "longitude": "-97.118897",
    "mascot": "Tigers",
    "name": "Clay Center High School",
    "primary_color": "Orange",
    "secondary_color": "Black",
    "state": "KS",
    "timezone": "America/Chicago",
    "updated_at": "2012-07-07T23:55:01Z",
    "zip": "67432"
  },
  {
    "address": "619 Tootle Ave",
    "city": "Miltonvale",
    "county": "Cloud County",
    "created_at": "2012-01-04T20:14:44Z",
    "id": 8973,
    "latitude": "39.346932",
    "longitude": "-97.456759",
    "mascot": "Warriors",
    "name": "Miltonvale High School",
    "primary_color": "Navy Blue",
    "secondary_color": "Metallic Silver",
    "state": "KS",
    "timezone": "America/Chicago",
    "updated_at": "2012-07-07T23:55:02Z",
    "zip": "67466"
  },
  {
    "address": "1010 N Main St",
    "city": "Le Roy",
    "county": "Coffey County",
    "created_at": "2012-01-04T20:14:44Z",
    "id": 8974,
    "latitude": "38.086702",
    "longitude": "-95.633687",
    "mascot": "Blue Jays",
    "name": "Southern Coffey County High School",
    "primary_color": "Royal",
    "secondary_color": "White",
    "state": "KS",
    "timezone": "America/Chicago",
    "updated_at": "2012-07-07T23:55:02Z",
    "zip": "66857"
  },
  {
    "address": "607 Pearson St",
    "city": "Waverly",
    "county": "Coffey County",
    "created_at": "2012-01-04T20:14:44Z",
    "id": 8975,
    "latitude": "38.395428",
    "longitude": "-95.600234",
    "mascot": "Bulldogs",
    "name": "Waverly Junior Senior High School",
    "primary_color": "Black",
    "secondary_color": "Orange",
    "state": "KS",
    "timezone": "America/Chicago",
    "updated_at": "2012-07-07T23:55:03Z",
    "zip": "66871"
  },
  {
    "address": "830 Cross St",
    "city": "Burlington",
    "county": "Coffey County",
    "created_at": "2012-01-04T20:14:44Z",
    "id": 8976,
    "latitude": "38.206484",
    "longitude": "-95.745576",
    "mascot": "Wildcats",
    "name": "Burlington High School",
    "primary_color": "Red",
    "secondary_color": "Gray",
    "state": "KS",
    "timezone": "America/Chicago",
    "updated_at": "2012-07-07T23:55:03Z",
    "zip": "66839"
  },
  {
    "address": "600 Leavenworth",
    "city": "Coldwater",
    "county": "Comanche County",
    "created_at": "2012-01-04T20:14:44Z",
    "id": 8977,
    "latitude": "37.265627",
    "longitude": "-99.321490",
    "mascot": "Timberwolves",
    "name": "South Central High School",
    "primary_color": "Hunter Green",
    "secondary_color": "Black",
    "state": "KS",
    "timezone": "America/Chicago",
    "updated_at": "2012-07-07T23:55:03Z",
    "zip": "67029"
  },
  {
    "address": "700 Main",
    "city": "Burden",
    "county": "Cowley County",
    "created_at": "2012-01-04T20:14:44Z",
    "id": 8978,
    "latitude": "37.318830",
    "longitude": "-96.753419",
    "mascot": "Raiders",
    "name": "Central Junior Senior High School",
    "primary_color": "Red",
    "secondary_color": "White",
    "state": "KS",
    "timezone": "America/Chicago",
    "updated_at": "2012-07-07T23:55:04Z",
    "zip": "67019"
  },
  {
    "address": "311 N Main St",
    "city": "Dexter",
    "county": "Cowley County",
    "created_at": "2012-01-04T20:14:44Z",
    "id": 8979,
    "latitude": "37.181464",
    "longitude": "-96.715353",
    "mascot": "Fighting Cardinals",
    "name": "Dexter High School",
    "primary_color": "Red",
    "secondary_color": "White",
    "state": "KS",
    "timezone": "America/Chicago",
    "updated_at": "2012-07-07T23:55:04Z",
    "zip": "67038"
  },
  {
    "address": "301 W 4th St",
    "city": "Udall",
    "county": "Cowley County",
    "created_at": "2012-01-04T20:14:44Z",
    "id": 8980,
    "latitude": "37.384709",
    "longitude": "-97.120889",
    "mascot": "Eagles",
    "name": "Udall High School",
    "primary_color": "Red",
    "secondary_color": "White",
    "state": "KS",
    "timezone": "America/Chicago",
    "updated_at": "2012-07-07T23:55:05Z",
    "zip": "67146"
  },
  {
    "address": "300 Viking Blvd",
    "city": "Winfield",
    "county": "Cowley County",
    "created_at": "2012-01-04T20:14:44Z",
    "id": 8981,
    "latitude": "37.243869",
    "longitude": "-96.969287",
    "mascot": "Vikings",
    "name": "Winfield High School",
    "primary_color": "Royal",
    "secondary_color": "White",
    "state": "KS",
    "timezone": "America/Chicago",
    "updated_at": "2012-07-07T23:55:05Z",
    "zip": "67156"
  },
  {
    "address": "1003 E South St",
    "city": "Arma",
    "county": "Crawford County",
    "created_at": "2012-01-04T20:14:44Z",
    "id": 8982,
    "latitude": "37.543047",
    "longitude": "-94.691974",
    "mascot": "Vikings",
    "name": "Northeast High School",
    "primary_color": "Maroon",
    "secondary_color": "White",
    "state": "KS",
    "timezone": "America/Chicago",
    "updated_at": "2012-07-07T23:55:06Z",
    "zip": "66712"
  },
  {
    "address": "126 W 160 Hwy",
    "city": "Cherokee",
    "county": "Crawford County",
    "created_at": "2012-01-04T20:14:44Z",
    "id": 8983,
    "latitude": "37.350230",
    "longitude": "-94.832077",
    "mascot": "Lancers",
    "name": "Southeast High School",
    "primary_color": "Columbia Blue",
    "secondary_color": "White",
    "state": "KS",
    "timezone": "America/Chicago",
    "updated_at": "2012-07-07T23:55:06Z",
    "zip": "66724"
  },
  {
    "address": "208 S Cayuga St",
    "city": "Frontenac",
    "county": "Crawford County",
    "created_at": "2012-01-04T20:14:44Z",
    "id": 8984,
    "latitude": "37.453592",
    "longitude": "-94.686609",
    "mascot": "Raiders",
    "name": "Frontenac Junior Senior High School",
    "primary_color": "Black",
    "secondary_color": "White",
    "state": "KS",
    "timezone": "America/Chicago",
    "updated_at": "2012-07-07T23:55:06Z",
    "zip": "66763"
  },
  {
    "address": "415 N Summit St",
    "city": "Girard",
    "county": "Crawford County",
    "created_at": "2012-01-04T20:14:44Z",
    "id": 8985,
    "latitude": "37.514991",
    "longitude": "-94.843489",
    "mascot": "Trojans",
    "name": "Girard High School",
    "primary_color": "Gold",
    "secondary_color": "Maroon",
    "state": "KS",
    "timezone": "America/Chicago",
    "updated_at": "2012-07-07T23:55:07Z",
    "zip": "66743"
  },
  {
    "address": "1978 E 4th St",
    "city": "Pittsburg",
    "county": "Crawford County",
    "created_at": "2012-01-04T20:14:44Z",
    "id": 8986,
    "latitude": "37.410972",
    "longitude": "-94.671613",
    "mascot": "Purple Dragons",
    "name": "Pittsburg High School",
    "primary_color": "Purple",
    "secondary_color": "White",
    "state": "KS",
    "timezone": "America/Chicago",
    "updated_at": "2012-07-07T23:55:07Z",
    "zip": "66762"
  },
  {
    "address": "605 E Commercial St",
    "city": "Oberlin",
    "county": "Decatur County",
    "created_at": "2012-01-04T20:14:44Z",
    "id": 8987,
    "latitude": "39.820821",
    "longitude": "-100.522680",
    "mascot": "Red Devils",
    "name": "Decatur Community Junior Senior High",
    "primary_color": "Gray",
    "secondary_color": "Red",
    "state": "KS",
    "timezone": "America/Chicago",
    "updated_at": "2012-07-07T23:55:08Z",
    "zip": "67749"
  },
  {
    "address": "307 S Pennsylvania",
    "city": "Jennings",
    "county": "Decatur County",
    "created_at": "2012-01-04T20:14:44Z",
    "id": 8988,
    "latitude": "39.678045",
    "longitude": "-100.295980",
    "mascot": "Coyotes",
    "name": "Jennings School",
    "primary_color": "Gold",
    "secondary_color": "Black",
    "state": "KS",
    "timezone": "America/Chicago",
    "updated_at": "2012-07-07T23:55:08Z",
    "zip": "67643"
  },
  {
    "address": "1300 N Cedar St",
    "city": "Abilene",
    "county": "Dickinson County",
    "created_at": "2012-01-04T20:14:44Z",
    "id": 8989,
    "latitude": "38.928870",
    "longitude": "-97.216559",
    "mascot": "Cowboys And Cowgirls",
    "name": "Abilene High School",
    "primary_color": "Orange",
    "secondary_color": "Brown",
    "state": "KS",
    "timezone": "America/Chicago",
    "updated_at": "2012-07-07T23:55:09Z",
    "zip": "67410"
  },
  {
    "address": "400 W 4th St",
    "city": "Chapman",
    "county": "Dickinson County",
    "created_at": "2012-01-04T20:14:44Z",
    "id": 8990,
    "latitude": "38.970324",
    "longitude": "-97.024135",
    "mascot": "Fighting Irish",
    "name": "Chapman High School",
    "primary_color": "Kelly Green",
    "secondary_color": "White",
    "state": "KS",
    "timezone": "America/Chicago",
    "updated_at": "2012-07-07T23:55:09Z",
    "zip": "67431"
  },
  {
    "address": "1401 N D St",
    "city": "Herington",
    "county": "Dickinson County",
    "created_at": "2012-01-04T20:14:44Z",
    "id": 8991,
    "latitude": "38.686433",
    "longitude": "-96.939615",
    "mascot": "Railers",
    "name": "Herington High School",
    "primary_color": "Orange",
    "secondary_color": "Maroon",
    "state": "KS",
    "timezone": "America/Chicago",
    "updated_at": "2012-07-07T23:55:10Z",
    "zip": "67449"
  },
  {
    "address": "409 Pine",
    "city": "Solomon",
    "county": "Dickinson County",
    "created_at": "2012-01-04T20:14:44Z",
    "id": 8992,
    "latitude": "38.921893",
    "longitude": "-97.368614",
    "mascot": "Gorillas",
    "name": "Solomon Junior Senior High School",
    "primary_color": "Red",
    "secondary_color": "White",
    "state": "KS",
    "timezone": "America/Chicago",
    "updated_at": "2012-07-07T23:55:10Z",
    "zip": "67480"
  },
  {
    "address": "12th & Vermont St",
    "city": "Elwood",
    "county": "Doniphan County",
    "created_at": "2012-01-04T20:14:44Z",
    "id": 8993,
    "latitude": "39.756260",
    "longitude": "-94.884509",
    "mascot": "Panthers",
    "name": "Elwood USD 486",
    "primary_color": "Red",
    "secondary_color": "White",
    "state": "KS",
    "timezone": "America/Chicago",
    "updated_at": "2012-07-07T23:55:11Z",
    "zip": "66024"
  },
  {
    "address": "402 E Main St",
    "city": "Highland",
    "county": "Doniphan County",
    "created_at": "2012-01-04T20:14:44Z",
    "id": 8994,
    "latitude": "39.859575",
    "longitude": "-95.261564",
    "mascot": "Blue Streaks",
    "name": "Highland High School",
    "primary_color": "Royal",
    "secondary_color": "White",
    "state": "KS",
    "timezone": "America/Chicago",
    "updated_at": "2012-07-07T23:55:12Z",
    "zip": "66035"
  },
  {
    "address": "319 S Park St",
    "city": "Troy",
    "county": "Doniphan County",
    "created_at": "2012-01-04T20:14:44Z",
    "id": 8995,
    "latitude": "39.784385",
    "longitude": "-95.095124",
    "mascot": "Trojans",
    "name": "Troy High School",
    "primary_color": "Royal",
    "secondary_color": "White",
    "state": "KS",
    "timezone": "America/Chicago",
    "updated_at": "2012-07-07T23:55:12Z",
    "zip": "66087"
  },
  {
    "address": "415 Eisenhower St",
    "city": "Baldwin City",
    "county": "Douglas County",
    "created_at": "2012-01-04T20:14:44Z",
    "id": 8996,
    "latitude": "38.786241",
    "longitude": "-95.182071",
    "mascot": "Bulldogs",
    "name": "Baldwin High School",
    "primary_color": "Purple",
    "secondary_color": "White",
    "state": "KS",
    "timezone": "America/Chicago",
    "updated_at": "2012-07-07T23:55:13Z",
    "zip": "66006"
  },
  {
    "address": "2203 Church Street",
    "city": "Eudora",
    "county": "Douglas County",
    "created_at": "2012-01-04T20:14:44Z",
    "id": 8997,
    "latitude": "38.926199",
    "longitude": "-95.093506",
    "mascot": "Cardinals",
    "name": "Eudora High School",
    "primary_color": "Royal",
    "secondary_color": "Red",
    "state": "KS",
    "timezone": "America/Chicago",
    "updated_at": "2012-07-07T23:55:13Z",
    "zip": "66025"
  },
  {
    "address": "1400 Massachusetts St",
    "city": "Lawrence",
    "county": "Douglas County",
    "created_at": "2012-01-04T20:14:44Z",
    "id": 8998,
    "latitude": "38.958086",
    "longitude": "-95.235891",
    "mascot": "Mustangs",
    "name": "Central Junior High School",
    "primary_color": "Red",
    "secondary_color": "White",
    "state": "KS",
    "timezone": "America/Chicago",
    "updated_at": "2012-07-07T23:55:13Z",
    "zip": "66044"
  },
  {
    "address": "1901 Louisiana St",
    "city": "Lawrence",
    "county": "Douglas County",
    "created_at": "2012-01-04T20:14:44Z",
    "id": 8999,
    "latitude": "38.949897",
    "longitude": "-95.241778",
    "mascot": "Lion",
    "name": "Lawrence High School",
    "primary_color": "Red",
    "secondary_color": "Black",
    "state": "KS",
    "timezone": "America/Chicago",
    "updated_at": "2012-07-07T23:55:14Z",
    "zip": "66046"
  },
  {
    "address": "2734 Louisiana St",
    "city": "Lawrence",
    "county": "Douglas County",
    "created_at": "2012-01-04T20:14:44Z",
    "id": 9000,
    "latitude": "38.934133",
    "longitude": "-95.241846",
    "mascot": null,
    "name": "South Junior High School",
    "primary_color": "Gold",
    "secondary_color": "Black",
    "state": "KS",
    "timezone": "America/Chicago",
    "updated_at": "2012-07-07T23:55:14Z",
    "zip": "66046"
  },
  {
    "address": "2700 Harvard Rd",
    "city": "Lawrence",
    "county": "Douglas County",
    "created_at": "2012-01-04T20:14:44Z",
    "id": 9001,
    "latitude": "38.964732",
    "longitude": "-95.268536",
    "mascot": null,
    "name": "West Junior High School",
    "primary_color": "Royal",
    "secondary_color": "White",
    "state": "KS",
    "timezone": "America/Chicago",
    "updated_at": "2012-07-07T23:55:14Z",
    "zip": "66049"
  },
  {
    "address": "716 Colony",
    "city": "Kinsley",
    "county": "Edwards County",
    "created_at": "2012-01-04T20:14:44Z",
    "id": 9002,
    "latitude": "37.921584",
    "longitude": "-99.412579",
    "mascot": "Coyotes",
    "name": "Kinsley-Offerle Junior Senior High",
    "primary_color": "Red",
    "secondary_color": "White",
    "state": "KS",
    "timezone": "America/Chicago",
    "updated_at": "2012-07-07T23:55:14Z",
    "zip": "67547"
  },
  {
    "address": "1199 St Hwy 99",
    "city": "Howard",
    "county": "Elk County",
    "created_at": "2012-01-04T20:14:44Z",
    "id": 9003,
    "latitude": "37.401183",
    "longitude": "-96.270805",
    "mascot": "Patriots",
    "name": "West Elk Junior Senior High School",
    "primary_color": "Red",
    "secondary_color": "White",
    "state": "KS",
    "timezone": "America/Chicago",
    "updated_at": "2012-07-07T23:55:15Z",
    "zip": "67349"
  },
  {
    "address": "1706 Monroe St",
    "city": "Ellis",
    "county": "Ellis County",
    "created_at": "2012-01-04T20:14:44Z",
    "id": 9004,
    "latitude": "38.929366",
    "longitude": "-99.558119",
    "mascot": "Railroaders",
    "name": "Ellis High School",
    "primary_color": "Orange",
    "secondary_color": "Black",
    "state": "KS",
    "timezone": "America/Chicago",
    "updated_at": "2012-07-07T23:55:15Z",
    "zip": "67637"
  },
  {
    "address": "1105 E 10th St",
    "city": "Victoria",
    "county": "Ellis County",
    "created_at": "2012-01-04T20:14:44Z",
    "id": 9005,
    "latitude": "38.856931",
    "longitude": "-99.146113",
    "mascot": "Knights",
    "name": "Victoria High School",
    "primary_color": "Gold",
    "secondary_color": "Maroon",
    "state": "KS",
    "timezone": "America/Chicago",
    "updated_at": "2012-07-07T23:55:15Z",
    "zip": "67671"
  },
  {
    "address": "11th & Kansas St",
    "city": "Ellsworth",
    "county": "Ellsworth County",
    "created_at": "2012-01-04T20:14:44Z",
    "id": 9006,
    "latitude": "38.736110",
    "longitude": "-98.229069",
    "mascot": "Bear Cats",
    "name": "Ellsworth High School",
    "primary_color": "Red",
    "secondary_color": "Black",
    "state": "KS",
    "timezone": "America/Chicago",
    "updated_at": "2012-07-07T23:55:16Z",
    "zip": "67439"
  },
  {
    "address": "3005 Ave D",
    "city": "Wilson",
    "county": "Ellsworth County",
    "created_at": "2012-01-04T20:14:44Z",
    "id": 9007,
    "latitude": "38.823491",
    "longitude": "-98.472733",
    "mascot": "Dragons",
    "name": "Wilson Junior Senior High School",
    "primary_color": "White",
    "secondary_color": "Purple",
    "state": "KS",
    "timezone": "America/Chicago",
    "updated_at": "2012-07-07T23:55:16Z",
    "zip": "67490"
  },
  {
    "address": "500 S Main",
    "city": "Bushton",
    "county": "Rice County",
    "created_at": "2012-01-04T20:14:44Z",
    "id": 9008,
    "latitude": "38.508152",
    "longitude": "-98.397167",
    "mascot": "Thunder Birds",
    "name": "Quivira Heights High School",
    "primary_color": "Columbia Blue",
    "secondary_color": "White",
    "state": "KS",
    "timezone": "America/Chicago",
    "updated_at": "2012-07-07T23:55:16Z",
    "zip": "67427"
  },
  {
    "address": "1412 N Main St",
    "city": "Garden City",
    "county": "Finney County",
    "created_at": "2012-01-04T20:14:44Z",
    "id": 9009,
    "latitude": "37.977758",
    "longitude": "-100.870624",
    "mascot": "Buffalo",
    "name": "Garden City High School",
    "primary_color": "Brown",
    "secondary_color": "White",
    "state": "KS",
    "timezone": "America/Chicago",
    "updated_at": "2012-07-07T23:55:17Z",
    "zip": "67846"
  },
  {
    "address": "2201 Ross Blvd",
    "city": "Dodge City",
    "county": "Ford County",
    "created_at": "2012-01-04T20:14:44Z",
    "id": 9010,
    "latitude": "37.787432",
    "longitude": "-100.023835",
    "mascot": "Demons",
    "name": "Dodge City High School",
    "primary_color": "Red",
    "secondary_color": "Royal",
    "state": "KS",
    "timezone": "America/Chicago",
    "updated_at": "2012-07-07T23:55:17Z",
    "zip": "67801"
  },
  {
    "address": "305 E Ave B",
    "city": "Spearville",
    "county": "Ford County",
    "created_at": "2012-01-04T20:14:44Z",
    "id": 9011,
    "latitude": "37.816380",
    "longitude": "-99.723505",
    "mascot": "Lancers",
    "name": "Spearville Senior High/Middle School",
    "primary_color": "Royal",
    "secondary_color": "White",
    "state": "KS",
    "timezone": "America/Chicago",
    "updated_at": "2012-07-07T23:55:17Z",
    "zip": "67876"
  },
  {
    "address": "1120 S Ash St",
    "city": "Ottawa",
    "county": "Franklin County",
    "created_at": "2012-01-04T20:14:44Z",
    "id": 9012,
    "latitude": "38.600663",
    "longitude": "-95.277054",
    "mascot": "Cyclones",
    "name": "Ottawa High School",
    "primary_color": "Red",
    "secondary_color": "White",
    "state": "KS",
    "timezone": "America/Chicago",
    "updated_at": "2012-07-07T23:55:18Z",
    "zip": "66067"
  },
  {
    "address": "511 E Franklin",
    "city": "Pomona",
    "county": "Franklin County",
    "created_at": "2012-01-04T20:14:44Z",
    "id": 9013,
    "latitude": "38.608458",
    "longitude": "-95.445669",
    "mascot": "Indians",
    "name": "Pomona High School",
    "primary_color": "Red",
    "secondary_color": "Black",
    "state": "KS",
    "timezone": "America/Chicago",
    "updated_at": "2012-07-07T23:55:18Z",
    "zip": "66076"
  },
  {
    "address": "Hwy 23 I-70",
    "city": "Grainfield",
    "county": "Gove County",
    "created_at": "2012-01-04T20:14:44Z",
    "id": 9014,
    "latitude": "39.110546",
    "longitude": "-100.471118",
    "mascot": "Shockers",
    "name": "Wheatland Junior Senior High School",
    "primary_color": "Columbia Blue",
    "secondary_color": "Gold",
    "state": "KS",
    "timezone": "America/Chicago",
    "updated_at": "2012-07-07T23:55:18Z",
    "zip": "67737"
  },
  {
    "address": "402 S Monroe St",
    "city": "Grinnell",
    "county": "Gove County",
    "created_at": "2012-01-04T20:14:44Z",
    "id": 9015,
    "latitude": "39.122089",
    "longitude": "-100.631759",
    "mascot": "Warriors",
    "name": "Grinnell High School",
    "primary_color": "Red",
    "secondary_color": "Black",
    "state": "KS",
    "timezone": "America/Chicago",
    "updated_at": "2012-07-07T23:55:18Z",
    "zip": "67738"
  },
  {
    "address": "600 Long St",
    "city": "Quinter",
    "county": "Gove County",
    "created_at": "2012-01-04T20:14:44Z",
    "id": 9016,
    "latitude": "39.066274",
    "longitude": "-100.232071",
    "mascot": "Bulldogs",
    "name": "Quinter Junior Senior High School",
    "primary_color": "Red",
    "secondary_color": "White",
    "state": "KS",
    "timezone": "America/Chicago",
    "updated_at": "2012-07-07T23:55:19Z",
    "zip": "67752"
  },
  {
    "address": "1 Ringneck Dr",
    "city": "Hill City",
    "county": "Graham County",
    "created_at": "2012-01-04T20:14:44Z",
    "id": 9017,
    "latitude": "39.369720",
    "longitude": "-99.851448",
    "mascot": "Ringnecks",
    "name": "Hill City High School",
    "primary_color": "Red",
    "secondary_color": "White",
    "state": "KS",
    "timezone": "America/Chicago",
    "updated_at": "2012-07-07T23:55:19Z",
    "zip": "67642"
  },
  {
    "address": "PO Box 128",
    "city": "Morland",
    "county": "Graham County",
    "created_at": "2012-01-04T20:14:44Z",
    "id": 9018,
    "latitude": "39.276908",
    "longitude": "-100.079289",
    "mascot": "Tigers",
    "name": "Morland Junior Senior High School",
    "primary_color": "Orange",
    "secondary_color": "Black",
    "state": "KS",
    "timezone": "America/Chicago",
    "updated_at": "2012-07-07T23:55:19Z",
    "zip": "67650"
  },
  {
    "address": "501 N McCall",
    "city": "Ulysses",
    "county": "Grant County",
    "created_at": "2012-01-04T20:14:44Z",
    "id": 9019,
    "latitude": "37.584816",
    "longitude": "-101.368377",
    "mascot": "Tigers",
    "name": "Ulysses High School",
    "primary_color": "Orange",
    "secondary_color": "Black",
    "state": "KS",
    "timezone": "America/Chicago",
    "updated_at": "2012-07-07T23:55:19Z",
    "zip": "67880"
  },
  {
    "address": "400 N 5th",
    "city": "Cimarron",
    "county": "Gray County",
    "created_at": "2012-01-04T20:14:44Z",
    "id": 9020,
    "latitude": "37.811656",
    "longitude": "-100.342211",
    "mascot": "Blue Jays",
    "name": "Cimarron Junior Senior High School",
    "primary_color": "Columbia Blue",
    "secondary_color": "White",
    "state": "KS",
    "timezone": "America/Chicago",
    "updated_at": "2012-07-07T23:55:19Z",
    "zip": "67835"
  },
  {
    "address": "100 Bulldog Dr",
    "city": "Ingalls",
    "county": "Gray County",
    "created_at": "2012-01-04T20:14:44Z",
    "id": 9021,
    "latitude": "37.848528",
    "longitude": "-100.518797",
    "mascot": "Bulldogs",
    "name": "Ingalls School",
    "primary_color": "Gold",
    "secondary_color": "Purple",
    "state": "KS",
    "timezone": "America/Chicago",
    "updated_at": "2012-07-07T23:55:20Z",
    "zip": "67853"
  },
  {
    "address": "101 S Aztec St",
    "city": "Montezuma",
    "county": "Gray County",
    "created_at": "2012-01-04T20:14:44Z",
    "id": 9022,
    "latitude": "37.595823",
    "longitude": "-100.442902",
    "mascot": "Rebels",
    "name": "South Gray High School",
    "primary_color": "Royal",
    "secondary_color": "Black",
    "state": "KS",
    "timezone": "America/Chicago",
    "updated_at": "2012-07-07T23:55:20Z",
    "zip": "67867"
  },
  {
    "address": "RR 1 Box 5",
    "city": "Hamilton",
    "county": "Greenwood County",
    "created_at": "2012-01-04T20:14:44Z",
    "id": 9023,
    "latitude": "37.979930",
    "longitude": "-96.162594",
    "mascot": "Tigers",
    "name": "Hamilton High School",
    "primary_color": "Black",
    "secondary_color": "Orange",
    "state": "KS",
    "timezone": "America/Chicago",
    "updated_at": "2012-07-07T23:55:20Z",
    "zip": "66853"
  },
  {
    "address": "1500 SW Blvd",
    "city": "Madison",
    "county": "Greenwood County",
    "created_at": "2012-01-04T20:14:44Z",
    "id": 9024,
    "latitude": "38.126320",
    "longitude": "-96.138789",
    "mascot": "Bulldogs",
    "name": "Madison Junior Senior High School",
    "primary_color": "Black",
    "secondary_color": "Gold",
    "state": "KS",
    "timezone": "America/Chicago",
    "updated_at": "2012-07-07T23:55:21Z",
    "zip": "66860"
  },
  {
    "address": "815 N Jefferson",
    "city": "Eureka",
    "county": "Greenwood County",
    "created_at": "2012-01-04T20:14:44Z",
    "id": 9025,
    "latitude": "37.824859",
    "longitude": "-96.280410",
    "mascot": "Tornados",
    "name": "Eureka Junior Senior High School",
    "primary_color": "Royal",
    "secondary_color": "Red",
    "state": "KS",
    "timezone": "America/Chicago",
    "updated_at": "2012-07-07T23:55:21Z",
    "zip": "67045"
  },
  {
    "address": "467 N. State Road",
    "city": "Anthony",
    "county": "Harper County",
    "created_at": "2012-01-04T20:14:44Z",
    "id": 9026,
    "latitude": "37.218556",
    "longitude": "-98.039087",
    "mascot": "Roadrunners",
    "name": "Chaparral High School",
    "primary_color": "Gold",
    "secondary_color": "Royal",
    "state": "KS",
    "timezone": "America/Chicago",
    "updated_at": "2012-07-07T23:55:21Z",
    "zip": "67003"
  },
  {
    "address": "520 W 6th St",
    "city": "Halstead",
    "county": "Harvey County",
    "created_at": "2012-01-04T20:14:44Z",
    "id": 9027,
    "latitude": "37.999445",
    "longitude": "-97.512089",
    "mascot": "Dragons",
    "name": "Halstead High School",
    "primary_color": "Royal",
    "secondary_color": "White",
    "state": "KS",
    "timezone": "America/Chicago",
    "updated_at": "2012-07-07T23:55:22Z",
    "zip": "67056"
  },
  {
    "address": "200 N Ridge Rd",
    "city": "Hesston",
    "county": "Harvey County",
    "created_at": "2012-01-04T20:14:44Z",
    "id": 9028,
    "latitude": "38.143467",
    "longitude": "-97.426941",
    "mascot": "Swathers",
    "name": "Hesston High School",
    "primary_color": "Red",
    "secondary_color": "Black",
    "state": "KS",
    "timezone": "America/Chicago",
    "updated_at": "2012-07-07T23:55:22Z",
    "zip": "67062"
  },
  {
    "address": " 900 W 12th St",
    "city": "Newton",
    "county": "Harvey County",
    "created_at": "2012-01-04T20:14:44Z",
    "id": 9029,
    "latitude": "38.057304",
    "longitude": "-97.360277",
    "mascot": "Railman",
    "name": "Newton High School",
    "primary_color": "Black",
    "secondary_color": "Gold",
    "state": "KS",
    "timezone": "America/Chicago",
    "updated_at": "2012-07-07T23:55:22Z",
    "zip": "67114"
  },
  {
    "address": "400 W 4th St",
    "city": "Sedgwick",
    "county": "Harvey County",
    "created_at": "2012-01-04T20:14:44Z",
    "id": 9030,
    "latitude": "37.915728",
    "longitude": "-97.428488",
    "mascot": "Cardinals",
    "name": "Sedgwick High School",
    "primary_color": "Red",
    "secondary_color": "White",
    "state": "KS",
    "timezone": "America/Chicago",
    "updated_at": "2012-07-07T23:55:22Z",
    "zip": "67135"
  },
  {
    "address": "404 S Main St",
    "city": "Inman",
    "county": "McPherson County",
    "created_at": "2012-01-04T20:14:44Z",
    "id": 9031,
    "latitude": "38.228187",
    "longitude": "-97.775817",
    "mascot": "Teutons",
    "name": "Inman Junior Senior High School",
    "primary_color": "Orange",
    "secondary_color": "Black",
    "state": "KS",
    "timezone": "America/Chicago",
    "updated_at": "2012-07-07T23:55:23Z",
    "zip": "67546"
  },
  {
    "address": "526 E Cole St",
    "city": "Moundridge",
    "county": "McPherson County",
    "created_at": "2012-01-04T20:14:44Z",
    "id": 9032,
    "latitude": "38.203031",
    "longitude": "-97.512667",
    "mascot": "Wildcats",
    "name": "Moundridge High School",
    "primary_color": "Red",
    "secondary_color": "Black",
    "state": "KS",
    "timezone": "America/Chicago",
    "updated_at": "2012-07-07T23:55:23Z",
    "zip": "67107"
  },
  {
    "address": "810 N Sycamore St",
    "city": "Peabody",
    "county": "Marion County",
    "created_at": "2012-01-04T20:14:44Z",
    "id": 9033,
    "latitude": "38.172697",
    "longitude": "-97.105339",
    "mascot": "Warriors",
    "name": "Peabody-Burns Junior Senior High School",
    "primary_color": "Royal",
    "secondary_color": "White",
    "state": "KS",
    "timezone": "America/Chicago",
    "updated_at": "2012-07-07T23:55:23Z",
    "zip": "66866"
  },
  {
    "address": "100 Caddo St",
    "city": "Satanta",
    "county": "Haskell County",
    "created_at": "2012-01-04T20:14:44Z",
    "id": 9034,
    "latitude": "37.440965",
    "longitude": "-100.982984",
    "mascot": "Indians",
    "name": "Satanta Junior Senior High School",
    "primary_color": "Gold",
    "secondary_color": "Kelly Green",
    "state": "KS",
    "timezone": "America/Chicago",
    "updated_at": "2012-07-07T23:55:23Z",
    "zip": "67870"
  },
  {
    "address": "501 Ellis St",
    "city": "Sublette",
    "county": "Haskell County",
    "created_at": "2012-01-04T20:14:44Z",
    "id": 9035,
    "latitude": "37.477864",
    "longitude": "-100.847617",
    "mascot": "Larks",
    "name": "Sublette High School",
    "primary_color": "White",
    "secondary_color": "Red",
    "state": "KS",
    "timezone": "America/Chicago",
    "updated_at": "2012-07-07T23:55:24Z",
    "zip": "67877"
  },
  {
    "address": "203 N West St",
    "city": "Hanston",
    "county": "Hodgeman County",
    "created_at": "2012-01-04T20:14:44Z",
    "id": 9036,
    "latitude": "38.122720",
    "longitude": "-99.717163",
    "mascot": "Elks",
    "name": "Hanston Junior Senior High School",
    "primary_color": "Black",
    "secondary_color": "Orange",
    "state": "KS",
    "timezone": "America/Chicago",
    "updated_at": "2012-07-07T23:55:24Z",
    "zip": "67849"
  },
  {
    "address": "500 Neideracher St",
    "city": "Jetmore",
    "county": "Hodgeman County",
    "created_at": "2012-01-04T20:14:44Z",
    "id": 9037,
    "latitude": "38.083404",
    "longitude": "-99.888654",
    "mascot": "Longhorns",
    "name": "Jetmore High School",
    "primary_color": "Red",
    "secondary_color": "White",
    "state": "KS",
    "timezone": "America/Chicago",
    "updated_at": "2012-07-07T23:55:24Z",
    "zip": "67854"
  },
  {
    "address": "12719 266th Rd",
    "city": "Holton",
    "county": "Jackson County",
    "created_at": "2012-01-04T20:14:44Z",
    "id": 9038,
    "latitude": "39.526672",
    "longitude": "-95.740621",
    "mascot": "Cobras",
    "name": "Jackson Heights High School",
    "primary_color": "Hunter Green",
    "secondary_color": "Gold",
    "state": "KS",
    "timezone": "America/Chicago",
    "updated_at": "2012-07-07T23:55:24Z",
    "zip": "66436"
  },
  {
    "address": "9th & New York Ave",
    "city": "Holton",
    "county": "Jackson County",
    "created_at": "2012-01-04T20:14:44Z",
    "id": 9039,
    "latitude": "39.470290",
    "longitude": "-95.736199",
    "mascot": "Wildcats",
    "name": "Holton High School",
    "primary_color": "Royal",
    "secondary_color": "White",
    "state": "KS",
    "timezone": "America/Chicago",
    "updated_at": "2012-07-07T23:55:25Z",
    "zip": "66436"
  },
  {
    "address": "101 E 1st St",
    "city": "Hoyt",
    "county": "Jackson County",
    "created_at": "2012-01-04T20:14:44Z",
    "id": 9040,
    "latitude": "39.245460",
    "longitude": "-95.706271",
    "mascot": "Panthers",
    "name": "Royal Valley High School",
    "primary_color": "Purple",
    "secondary_color": "White",
    "state": "KS",
    "timezone": "America/Chicago",
    "updated_at": "2012-07-07T23:55:25Z",
    "zip": "66440"
  },
  {
    "address": "619 Condray",
    "city": "Meriden",
    "county": "Jefferson County",
    "created_at": "2012-01-04T20:14:44Z",
    "id": 9041,
    "latitude": "39.194535",
    "longitude": "-95.561432",
    "mascot": "Tigers",
    "name": "Jefferson West High School",
    "primary_color": "Black",
    "secondary_color": "White",
    "state": "KS",
    "timezone": "America/Chicago",
    "updated_at": "2012-07-07T23:55:26Z",
    "zip": "66512"
  },
  {
    "address": "404 Park St",
    "city": "Oskaloosa",
    "county": "Jefferson County",
    "created_at": "2012-01-04T20:14:44Z",
    "id": 9042,
    "latitude": "39.220524",
    "longitude": "-95.314519",
    "mascot": "Bears",
    "name": "Oskaloosa High School",
    "primary_color": "Red",
    "secondary_color": "Royal",
    "state": "KS",
    "timezone": "America/Chicago",
    "updated_at": "2012-07-07T23:55:26Z",
    "zip": "66066"
  },
  {
    "address": "404 Lecompton Rd",
    "city": "Perry",
    "county": "Jefferson County",
    "created_at": "2012-01-04T20:14:44Z",
    "id": 9043,
    "latitude": "39.072335",
    "longitude": "-95.382020",
    "mascot": "Kaws",
    "name": "Perry Lecompton High School",
    "primary_color": "Royal",
    "secondary_color": "White",
    "state": "KS",
    "timezone": "America/Chicago",
    "updated_at": "2012-07-07T23:55:26Z",
    "zip": "66073"
  },