[
  {
    "address": "306 S Main St",
    "city": "Arlington",
    "county": "Kingsbury County",
    "created_at": "2012-01-04T20:17:22Z",
    "id": 21902,
    "latitude": "44.361631",
    "longitude": "-97.136996",
    "mascot": "Cardinals",
    "name": "Arlington School",
    "primary_color": "Red",
    "secondary_color": "White",
    "state": "SD",
    "timezone": "America/Chicago",
    "updated_at": "2012-07-08T01:04:05Z",
    "zip": "57212"
  },
  {
    "address": "619 Longhorn St",
    "city": "Faith",
    "county": "Meade County",
    "created_at": "2012-01-04T20:17:22Z",
    "id": 21903,
    "latitude": "44.987223",
    "longitude": "-102.119634",
    "mascot": "Longhorns",
    "name": "Faith School",
    "primary_color": "Orange",
    "secondary_color": "Black",
    "state": "SD",
    "timezone": "America/Denver",
    "updated_at": "2012-07-08T01:04:06Z",
    "zip": "57626"
  },
  {
    "address": "5 Iowa St",
    "city": "Alcester",
    "county": "Union County",
    "created_at": "2012-01-04T20:17:22Z",
    "id": 21904,
    "latitude": "43.019686",
    "longitude": "-96.630961",
    "mascot": "Cubs",
    "name": "Alcester Junior Senior High School",
    "primary_color": "Gold",
    "secondary_color": "Royal",
    "state": "SD",
    "timezone": "America/Chicago",
    "updated_at": "2012-07-08T01:04:06Z",
    "zip": "57001"
  },
  {
    "address": "916 F Ave",
    "city": "Pollock",
    "county": "Campbell County",
    "created_at": "2012-01-04T20:17:22Z",
    "id": 21905,
    "latitude": "45.901725",
    "longitude": "-100.294514",
    "mascot": "Bulldogs",
    "name": "Pollock School",
    "primary_color": "Gold",
    "secondary_color": "Royal",
    "state": "SD",
    "timezone": "America/Chicago",
    "updated_at": "2012-07-08T01:04:06Z",
    "zip": "57648"
  },
  {
    "address": "221 3rd St",
    "city": "Mellette",
    "county": "Spink County",
    "created_at": "2012-01-04T20:17:22Z",
    "id": 21906,
    "latitude": "45.155428",
    "longitude": "-98.499398",
    "mascot": "Wildcats",
    "name": "Northwestern School",
    "primary_color": "Gold",
    "secondary_color": "Kelly Green",
    "state": "SD",
    "timezone": "America/Chicago",
    "updated_at": "2012-07-08T01:04:06Z",
    "zip": "57461"
  },
  {
    "address": "206 S Nixon Ave",
    "city": "Harrold",
    "county": "Hughes County",
    "created_at": "2012-01-04T20:17:22Z",
    "id": 21907,
    "latitude": "44.522563",
    "longitude": "-99.734606",
    "mascot": "Cardinals",
    "name": "Harrold Independent School",
    "primary_color": "Red",
    "secondary_color": "White",
    "state": "SD",
    "timezone": "America/Chicago",
    "updated_at": "2012-07-08T01:04:07Z",
    "zip": "57536"
  },
  {
    "address": "100 Mission Dr",
    "city": "Pine Ridge",
    "county": "Shannon County",
    "created_at": "2012-01-04T20:17:22Z",
    "id": 21908,
    "latitude": "43.270587",
    "longitude": "-102.714165",
    "mascot": "Crusaders",
    "name": "Red Cloud Indian School",
    "primary_color": "Royal",
    "secondary_color": "White",
    "state": "SD",
    "timezone": "America/Denver",
    "updated_at": "2012-07-08T01:04:07Z",
    "zip": "57770"
  },
  {
    "address": "550 E St",
    "city": "Timber Lake",
    "county": "Dewey County",
    "created_at": "2012-01-04T20:17:22Z",
    "id": 21909,
    "latitude": "45.431769",
    "longitude": "-101.075425",
    "mascot": "Panthers",
    "name": "Timber Lake School",
    "primary_color": "Gold",
    "secondary_color": "Maroon",
    "state": "SD",
    "timezone": "America/Denver",
    "updated_at": "2012-07-08T01:04:07Z",
    "zip": "57656"
  },
  {
    "address": "400 Sunshine Dr",
    "city": "Miller",
    "county": "Hand County",
    "created_at": "2012-01-04T20:17:22Z",
    "id": 21910,
    "latitude": "44.328759",
    "longitude": "-98.984304",
    "mascot": "Crusaders",
    "name": "Sunshine Bible Academy",
    "primary_color": "Gold",
    "secondary_color": "Red",
    "state": "SD",
    "timezone": "America/Chicago",
    "updated_at": "2012-07-08T01:04:07Z",
    "zip": "57362"
  },
  {
    "address": "800 Bayberry St",
    "city": "Kadoka",
    "county": "Jackson County",
    "created_at": "2012-01-04T20:17:22Z",
    "id": 21911,
    "latitude": "43.836810",
    "longitude": "-101.508709",
    "mascot": "Cougars",
    "name": "Kadoka School",
    "primary_color": "Gold",
    "secondary_color": "Purple",
    "state": "SD",
    "timezone": "America/Denver",
    "updated_at": "2012-07-08T01:04:08Z",
    "zip": "57543"
  },
  {
    "address": "601 S Main St",
    "city": "McLaughlin",
    "county": "Corson County",
    "created_at": "2012-01-04T20:17:22Z",
    "id": 21912,
    "latitude": "45.815035",
    "longitude": "-100.810664",
    "mascot": "Midgets",
    "name": "McLaughlin School",
    "primary_color": "Orange",
    "secondary_color": "Black",
    "state": "SD",
    "timezone": "America/Denver",
    "updated_at": "2012-07-08T01:04:08Z",
    "zip": "57642"
  },
  {
    "address": "300 S East St",
    "city": "Kimball",
    "county": "Brule County",
    "created_at": "2012-01-04T20:17:22Z",
    "id": 21913,
    "latitude": "43.741910",
    "longitude": "-98.955349",
    "mascot": "Kiotes",
    "name": "Kimball High School",
    "primary_color": "Kelly Green",
    "secondary_color": "White",
    "state": "SD",
    "timezone": "America/Chicago",
    "updated_at": "2012-07-08T01:04:08Z",
    "zip": "57355"
  },
  {
    "address": "515 Main Ave",
    "city": "Florence",
    "county": "Codington County",
    "created_at": "2012-01-04T20:17:22Z",
    "id": 21914,
    "latitude": "45.054599",
    "longitude": "-97.329691",
    "mascot": "Eagles",
    "name": "Florence School",
    "primary_color": "Orange",
    "secondary_color": "Black",
    "state": "SD",
    "timezone": "America/Chicago",
    "updated_at": "2012-07-08T01:04:08Z",
    "zip": "57235"
  },
  {
    "address": "300 E Ash",
    "city": "New Underwood",
    "county": "Pennington County",
    "created_at": "2012-01-04T20:17:22Z",
    "id": 21915,
    "latitude": "44.094217",
    "longitude": "-102.833319",
    "mascot": null,
    "name": "New Underwood School",
    "primary_color": null,
    "secondary_color": null,
    "state": "SD",
    "timezone": "America/Denver",
    "updated_at": "2012-07-08T01:04:09Z",
    "zip": "57761"
  },
  {
    "address": "506 Main St",
    "city": "Stickney",
    "county": "Aurora County",
    "created_at": "2012-01-04T20:17:22Z",
    "id": 21916,
    "latitude": "43.589165",
    "longitude": "-98.434463",
    "mascot": "Raiders",
    "name": "Stickney School",
    "primary_color": "Orange",
    "secondary_color": "Black",
    "state": "SD",
    "timezone": "America/Chicago",
    "updated_at": "2012-07-08T01:04:14Z",
    "zip": "57375"
  },
  {
    "address": "715 D St",
    "city": "Edgemont",
    "county": "Fall River County",
    "created_at": "2012-01-04T20:17:22Z",
    "id": 21917,
    "latitude": "43.300920",
    "longitude": "-103.832059",
    "mascot": null,
    "name": "Edgemont School",
    "primary_color": "Orange",
    "secondary_color": "Black",
    "state": "SD",
    "timezone": "America/Denver",
    "updated_at": "2012-07-08T01:04:14Z",
    "zip": "57735"
  },
  {
    "address": "108 E Dakota Dr",
    "city": "Selby",
    "county": "Walworth County",
    "created_at": "2012-01-04T20:17:22Z",
    "id": 21918,
    "latitude": "45.508390",
    "longitude": "-100.027879",
    "mascot": "Lions",
    "name": "Selby Area School",
    "primary_color": "Ash Grey",
    "secondary_color": "Gold",
    "state": "SD",
    "timezone": "America/Chicago",
    "updated_at": "2012-07-08T01:04:14Z",
    "zip": "57472"
  },
  {
    "address": "100 S Cedar St",
    "city": "Marion",
    "county": "Turner County",
    "created_at": "2012-01-04T20:17:22Z",
    "id": 21919,
    "latitude": "43.422213",
    "longitude": "-97.259246",
    "mascot": "Bears",
    "name": "Marion School",
    "primary_color": "Maroon",
    "secondary_color": "White",
    "state": "SD",
    "timezone": "America/Chicago",
    "updated_at": "2012-07-08T01:04:15Z",
    "zip": "57043"
  },
  {
    "address": "200 Hansina Ave",
    "city": "Volga",
    "county": "Brookings County",
    "created_at": "2012-01-04T20:17:22Z",
    "id": 21920,
    "latitude": "44.323547",
    "longitude": "-96.921593",
    "mascot": "Cossacks",
    "name": "Sioux Valley Middle & High School",
    "primary_color": "Gold",
    "secondary_color": "Royal",
    "state": "SD",
    "timezone": "America/Chicago",
    "updated_at": "2012-07-08T01:04:15Z",
    "zip": "57071"
  },
  {
    "address": "1001 E Main St",
    "city": "Vermillion",
    "county": "Clay County",
    "created_at": "2012-01-04T20:17:22Z",
    "id": 21921,
    "latitude": "42.779340",
    "longitude": "-96.916261",
    "mascot": "Vermillion Tanagers",
    "name": "Vermillion High School",
    "primary_color": "Red",
    "secondary_color": "White",
    "state": "SD",
    "timezone": "America/Chicago",
    "updated_at": "2012-07-08T01:04:16Z",
    "zip": "57069"
  },
  {
    "address": "16370 482nd Ave",
    "city": "Revillo",
    "county": "Grant County",
    "created_at": "2012-01-04T20:17:22Z",
    "id": 21922,
    "latitude": "45.020813",
    "longitude": "-96.558271",
    "mascot": "Wildcats",
    "name": "Grant Deuel School",
    "primary_color": "Royal",
    "secondary_color": "White",
    "state": "SD",
    "timezone": "America/Chicago",
    "updated_at": "2012-07-08T01:04:16Z",
    "zip": "57259"
  },
  {
    "address": "711 4th St",
    "city": "Scotland",
    "county": "Bon Homme County",
    "created_at": "2012-01-04T20:17:22Z",
    "id": 21923,
    "latitude": "43.148391",
    "longitude": "-97.716153",
    "mascot": "Highlanders",
    "name": "Scotland Junior Senior High School",
    "primary_color": "Orange",
    "secondary_color": "Black",
    "state": "SD",
    "timezone": "America/Chicago",
    "updated_at": "2012-07-08T01:04:17Z",
    "zip": "57059"
  },
  {
    "address": "610 Lincoln St",
    "city": "Centerville",
    "county": "Turner County",
    "created_at": "2012-01-04T20:17:22Z",
    "id": 21924,
    "latitude": "43.118306",
    "longitude": "-96.957195",
    "mascot": "Tornados",
    "name": "Centerville School",
    "primary_color": "Gold",
    "secondary_color": "Purple",
    "state": "SD",
    "timezone": "America/Chicago",
    "updated_at": "2012-07-08T01:04:17Z",
    "zip": "57014"
  },
  {
    "address": "206 Chestnut St",
    "city": "Langford",
    "county": "Marshall County",
    "created_at": "2012-01-04T20:17:22Z",
    "id": 21925,
    "latitude": "45.603608",
    "longitude": "-97.833231",
    "mascot": "Lions",
    "name": "Langford School",
    "primary_color": "Maroon",
    "secondary_color": "White",
    "state": "SD",
    "timezone": "America/Chicago",
    "updated_at": "2012-07-08T01:04:17Z",
    "zip": "57454"
  },
  {
    "address": "400 Main St",
    "city": "Isabel",
    "county": "Dewey County",
    "created_at": "2012-01-04T20:17:22Z",
    "id": 21926,
    "latitude": "45.395270",
    "longitude": "-101.429836",
    "mascot": "Wildcats",
    "name": "Isabel School",
    "primary_color": "Kelly Green",
    "secondary_color": "White",
    "state": "SD",
    "timezone": "America/Denver",
    "updated_at": "2012-07-08T01:04:17Z",
    "zip": "57633"
  },
  {
    "address": "201 School Rd",
    "city": "Wanblee",
    "county": "Jackson County",
    "created_at": "2012-01-04T20:17:22Z",
    "id": 21927,
    "latitude": "43.491094",
    "longitude": "-101.878060",
    "mascot": "Indians",
    "name": "Crazy Horse School",
    "primary_color": "Maroon",
    "secondary_color": "White",
    "state": "SD",
    "timezone": "America/Denver",
    "updated_at": "2012-07-08T01:04:17Z",
    "zip": "57577"
  },
  {
    "address": "130 N 6th St",
    "city": "Emery",
    "county": "Hanson County",
    "created_at": "2012-01-04T20:17:22Z",
    "id": 21928,
    "latitude": "43.602488",
    "longitude": "-97.618388",
    "mascot": "Eagles",
    "name": "Emery School",
    "primary_color": "Red",
    "secondary_color": "White",
    "state": "SD",
    "timezone": "America/Chicago",
    "updated_at": "2012-07-08T01:04:18Z",
    "zip": "57332"
  },
  {
    "address": "400 W Sherman Ave",
    "city": "Summit",
    "county": "Roberts County",
    "created_at": "2012-01-04T20:17:22Z",
    "id": 21929,
    "latitude": "45.305095",
    "longitude": "-97.032449",
    "mascot": "Eagles",
    "name": "Summit School",
    "primary_color": "Red",
    "secondary_color": "Black",
    "state": "SD",
    "timezone": "America/Chicago",
    "updated_at": "2012-07-08T01:04:18Z",
    "zip": "57266"
  },
  {
    "address": "209 3rd St W",
    "city": "Lemmon",
    "county": "Perkins County",
    "created_at": "2012-01-04T20:17:22Z",
    "id": 21930,
    "latitude": "45.941958",
    "longitude": "-102.162562",
    "mascot": "Cowboys",
    "name": "Lemmon Junior Senior High School",
    "primary_color": "Royal",
    "secondary_color": "White",
    "state": "SD",
    "timezone": "America/Denver",
    "updated_at": "2012-07-08T01:04:18Z",
    "zip": "57638"
  },
  {
    "address": "1550 Dakota N",
    "city": "Huron",
    "county": "Beadle County",
    "created_at": "2012-01-04T20:17:22Z",
    "id": 21931,
    "latitude": "44.387388",
    "longitude": "-98.214290",
    "mascot": "Vikings",
    "name": "James Valley Christian School",
    "primary_color": "Gold",
    "secondary_color": "Black",
    "state": "SD",
    "timezone": "America/Chicago",
    "updated_at": "2012-07-08T01:04:18Z",
    "zip": "57350"
  },
  {
    "address": "400 4th St",
    "city": "Geddes",
    "county": "Charles Mix County",
    "created_at": "2012-01-04T20:17:22Z",
    "id": 21932,
    "latitude": "43.252457",
    "longitude": "-98.699919",
    "mascot": "Rams",
    "name": "Geddes Community School",
    "primary_color": "Royal",
    "secondary_color": "White",
    "state": "SD",
    "timezone": "America/Chicago",
    "updated_at": "2012-07-08T01:04:19Z",
    "zip": "57342"
  },
  {
    "address": "203 W Park Ave",
    "city": "Viborg",
    "county": "Turner County",
    "created_at": "2012-01-04T20:17:22Z",
    "id": 21933,
    "latitude": "43.170250",
    "longitude": "-97.086359",
    "mascot": "Vikings",
    "name": "Viborg School",
    "primary_color": "Red",
    "secondary_color": "White",
    "state": "SD",
    "timezone": "America/Chicago",
    "updated_at": "2012-07-08T01:04:19Z",
    "zip": "57070"
  },
  {
    "address": "330 W 2nd St",
    "city": "Parker",
    "county": "Turner County",
    "created_at": "2012-01-04T20:17:22Z",
    "id": 21934,
    "latitude": "43.397699",
    "longitude": "-97.139958",
    "mascot": "Pheasants",
    "name": "Parker School",
    "primary_color": "Royal",
    "secondary_color": "White",
    "state": "SD",
    "timezone": "America/Chicago",
    "updated_at": "2012-07-08T01:04:19Z",
    "zip": "57053"
  },
  {
    "address": "3083 2nd Ave",
    "city": "Bowdle",
    "county": "Edmunds County",
    "created_at": "2012-01-04T20:17:22Z",
    "id": 21935,
    "latitude": "45.450782",
    "longitude": "-99.652293",
    "mascot": "Bobcats",
    "name": "Bowdle School",
    "primary_color": "Gold",
    "secondary_color": "Royal",
    "state": "SD",
    "timezone": "America/Chicago",
    "updated_at": "2012-07-08T01:04:19Z",
    "zip": "57428"
  },
  {
    "address": "PO Box 10",
    "city": "Eureka",
    "county": "Campbell County",
    "created_at": "2012-01-04T20:17:22Z",
    "id": 21936,
    "latitude": "45.767315",
    "longitude": "-99.728159",
    "mascot": "Trojans",
    "name": "Eureka Public School",
    "primary_color": "Red",
    "secondary_color": "White",
    "state": "SD",
    "timezone": "America/Chicago",
    "updated_at": "2012-07-08T01:04:20Z",
    "zip": "57437"
  },
  {
    "address": "202 Nebraska St",
    "city": "Wakonda",
    "county": "Clay County",
    "created_at": "2012-01-04T20:17:22Z",
    "id": 21937,
    "latitude": "43.005541",
    "longitude": "-97.110806",
    "mascot": "Eagles",
    "name": "Wakonda School",
    "primary_color": "Royal",
    "secondary_color": "White",
    "state": "SD",
    "timezone": "America/Chicago",
    "updated_at": "2012-07-08T01:04:20Z",
    "zip": "57073"
  },
  {
    "address": "500 N Main St",
    "city": "Mount Vernon",
    "county": "Davison County",
    "created_at": "2012-01-04T20:17:22Z",
    "id": 21938,
    "latitude": "43.714792",
    "longitude": "-98.260631",
    "mascot": "Mustangs",
    "name": "Mount Vernon School",
    "primary_color": "Orange",
    "secondary_color": "Black",
    "state": "SD",
    "timezone": "America/Chicago",
    "updated_at": "2012-07-08T01:04:20Z",
    "zip": "57363"
  },
  {
    "address": "1300 S 3rd St",
    "city": "Aberdeen",
    "county": "Brown County",
    "created_at": "2012-01-04T20:17:22Z",
    "id": 21939,
    "latitude": "45.451499",
    "longitude": "-98.492407",
    "mascot": "Eagles",
    "name": "Simmons Junior High School",
    "primary_color": "Gold",
    "secondary_color": "Royal",
    "state": "SD",
    "timezone": "America/Chicago",
    "updated_at": "2012-07-08T01:04:20Z",
    "zip": "57401"
  },
  {
    "address": "3201 S Kiwanis Ave",
    "city": "Sioux Falls",
    "county": "Minnehaha County",
    "created_at": "2012-01-04T20:17:22Z",
    "id": 21940,
    "latitude": "43.516616",
    "longitude": "-96.761117",
    "mascot": "Knights",
    "name": "O'Gorman High School",
    "primary_color": "Royal",
    "secondary_color": "White",
    "state": "SD",
    "timezone": "America/Chicago",
    "updated_at": "2012-07-08T01:04:21Z",
    "zip": "57105"
  },
  {
    "address": "530 Elm Ave",
    "city": "Brookings",
    "county": "Brookings County",
    "created_at": "2012-01-04T20:17:22Z",
    "id": 21941,
    "latitude": "44.300047",
    "longitude": "-96.782219",
    "mascot": "Bobcats",
    "name": "Brookings High School",
    "primary_color": "Red",
    "secondary_color": "Black",
    "state": "SD",
    "timezone": "America/Chicago",
    "updated_at": "2012-07-08T01:04:21Z",
    "zip": "57006"
  },
  {
    "address": "225 SE 3rd Ave",
    "city": "Aberdeen",
    "county": "Brown County",
    "created_at": "2012-01-04T20:17:22Z",
    "id": 21942,
    "latitude": "45.462125",
    "longitude": "-98.484725",
    "mascot": "Golden Eagles",
    "name": "Aberdeen Central High School",
    "primary_color": "Gold",
    "secondary_color": "Royal",
    "state": "SD",
    "timezone": "America/Chicago",
    "updated_at": "2012-07-08T01:04:21Z",
    "zip": "57401"
  },
  {
    "address": "1010 E Broadway",
    "city": "Pierre",
    "county": "Hughes County",
    "created_at": "2012-01-04T20:17:22Z",
    "id": 21943,
    "latitude": "44.366478",
    "longitude": "-100.338303",
    "mascot": "Governors",
    "name": "Theodore Fredrick Riggs High School",
    "primary_color": "Kelly Green",
    "secondary_color": "White",
    "state": "SD",
    "timezone": "America/Chicago",
    "updated_at": "2012-07-08T01:04:21Z",
    "zip": "57501"
  },
  {
    "address": "301 S Splitrock Ave",
    "city": "Brandon",
    "county": "Minnehaha County",
    "created_at": "2012-01-04T20:17:22Z",
    "id": 21944,
    "latitude": "43.592236",
    "longitude": "-96.572321",
    "mascot": "Lynx",
    "name": "Brandon Valley High School",
    "primary_color": "Red",
    "secondary_color": "Black",
    "state": "SD",
    "timezone": "America/Chicago",
    "updated_at": "2012-07-08T01:04:22Z",
    "zip": "57005"
  },
  {
    "address": "210 Pine St",
    "city": "Avon",
    "county": "Bon Homme County",
    "created_at": "2012-01-04T20:17:22Z",
    "id": 21945,
    "latitude": "43.005197",
    "longitude": "-98.057307",
    "mascot": "Pirates",
    "name": "Avon School",
    "primary_color": "Red",
    "secondary_color": "Gold",
    "state": "SD",
    "timezone": "America/Chicago",
    "updated_at": "2012-07-08T01:04:22Z",
    "zip": "57315"
  },
  {
    "address": "301 Main St",
    "city": "Alpena",
    "county": "Jerauld County",
    "created_at": "2012-01-04T20:17:22Z",
    "id": 21946,
    "latitude": "44.181341",
    "longitude": "-98.365709",
    "mascot": "Wildcats",
    "name": "Alpena School",
    "primary_color": "Purple",
    "secondary_color": "White",
    "state": "SD",
    "timezone": "America/Chicago",
    "updated_at": "2012-07-08T01:04:22Z",
    "zip": "57312"
  },
  {
    "address": "309 S Church Ave",
    "city": "Montrose",
    "county": "McCook County",
    "created_at": "2012-01-04T20:17:22Z",
    "id": 21947,
    "latitude": "43.698651",
    "longitude": "-97.186650",
    "mascot": "Irish",
    "name": "Montrose School",
    "primary_color": "Black",
    "secondary_color": "White",
    "state": "SD",
    "timezone": "America/Chicago",
    "updated_at": "2012-07-08T01:04:22Z",
    "zip": "57048"
  },
  {
    "address": "105 Carr Street",
    "city": "Colome",
    "county": "Tripp County",
    "created_at": "2012-01-04T20:17:22Z",
    "id": 21948,
    "latitude": "43.262433",
    "longitude": "-99.718170",
    "mascot": "Cowboys And Cowgirls",
    "name": "Colome High School",
    "primary_color": "Kelly Green",
    "secondary_color": "White",
    "state": "SD",
    "timezone": "America/Chicago",
    "updated_at": "2012-07-08T01:04:23Z",
    "zip": "57528"
  },
  {
    "address": "500 S 8th St",
    "city": "Onida",
    "county": "Sully County",
    "created_at": "2012-01-04T20:17:22Z",
    "id": 21949,
    "latitude": "44.702884",
    "longitude": "-100.064424",
    "mascot": "Horses",
    "name": "Agar Blunt Onida School",
    "primary_color": "Gold",
    "secondary_color": "Purple",
    "state": "SD",
    "timezone": "America/Chicago",
    "updated_at": "2012-07-08T01:04:23Z",
    "zip": "57564"
  },
  {
    "address": "40405 SD Hwy 34",
    "city": "Forestburg",
    "county": "Sanborn County",
    "created_at": "2012-01-04T20:17:22Z",
    "id": 21950,
    "latitude": "44.009707",
    "longitude": "-98.021015",
    "mascot": "Rebels",
    "name": "Sandborn Central School",
    "primary_color": "Royal",
    "secondary_color": "Orange",
    "state": "SD",
    "timezone": "America/Chicago",
    "updated_at": "2012-07-08T01:04:23Z",
    "zip": "57314"
  },
  {
    "address": "211 5th St",
    "city": "Ipswich",
    "county": "Edmunds County",
    "created_at": "2012-01-04T20:17:22Z",
    "id": 21951,
    "latitude": "45.445508",
    "longitude": "-99.030735",
    "mascot": "Tigers",
    "name": "Ipswich Junior Senior High School",
    "primary_color": "Orange",
    "secondary_color": "Black",
    "state": "SD",
    "timezone": "America/Chicago",
    "updated_at": "2012-07-08T01:04:23Z",
    "zip": "57451"
  },
  {
    "address": "379 Oak St",
    "city": "Saint Francis",
    "county": "Todd County",
    "created_at": "2012-01-04T20:17:22Z",
    "id": 21952,
    "latitude": "43.146233",
    "longitude": "-100.903819",
    "mascot": "Warriors",
    "name": "Saint Francis Indian School",
    "primary_color": "Red",
    "secondary_color": "Gold",
    "state": "SD",
    "timezone": "America/Chicago",
    "updated_at": "2012-07-08T01:04:24Z",
    "zip": "57572"
  },
  {
    "address": "101 Crow Creek Loop",
    "city": "Stephan",
    "county": "Hyde County",
    "created_at": "2012-01-04T20:17:23Z",
    "id": 21953,
    "latitude": "44.246280",
    "longitude": "-99.453463",
    "mascot": "Chieftains",
    "name": "Crow Creek High School",
    "primary_color": "Red",
    "secondary_color": "White",
    "state": "SD",
    "timezone": "America/Chicago",
    "updated_at": "2012-07-08T01:04:24Z",
    "zip": "57346"
  },
  {
    "address": "1 Iron Nation Rd",
    "city": "Lower Brule",
    "county": "Lyman County",
    "created_at": "2012-01-04T20:17:23Z",
    "id": 21954,
    "latitude": "44.107940",
    "longitude": "-99.724989",
    "mascot": "Brule Sioux",
    "name": "Lower Brule School System",
    "primary_color": "Gold",
    "secondary_color": "Purple",
    "state": "SD",
    "timezone": "America/Chicago",
    "updated_at": "2012-07-08T01:04:24Z",
    "zip": "57548"
  },
  {
    "address": "Campus Dr",
    "city": "Pine Ridge",
    "county": "Shannon County",
    "created_at": "2012-01-04T20:17:23Z",
    "id": 21955,
    "latitude": "43.270579",
    "longitude": "-102.714157",
    "mascot": null,
    "name": "Pine Ridge High School",
    "primary_color": "Red",
    "secondary_color": "White",
    "state": "SD",
    "timezone": "America/Denver",
    "updated_at": "2012-07-08T01:04:25Z",
    "zip": "57770"
  },
  {
    "address": "748 S Main St",
    "city": "Freeman",
    "county": "Hutchinson County",
    "created_at": "2012-01-04T20:17:23Z",
    "id": 21956,
    "latitude": "43.347678",
    "longitude": "-97.437211",
    "mascot": "Bobcats",
    "name": "Freeman Academy",
    "primary_color": "Gold",
    "secondary_color": "Maroon",
    "state": "SD",
    "timezone": "America/Chicago",
    "updated_at": "2012-07-08T01:04:25Z",
    "zip": "57029"
  },
  {
    "address": "805 W 18th St",
    "city": "Mitchell",
    "county": "Davison County",
    "created_at": "2012-01-04T20:17:23Z",
    "id": 21957,
    "latitude": "43.727108",
    "longitude": "-98.033167",
    "mascot": "Eagles",
    "name": "Mitchell Christian School",
    "primary_color": "Gold",
    "secondary_color": "Royal",
    "state": "SD",
    "timezone": "America/Chicago",
    "updated_at": "2012-07-08T01:04:25Z",
    "zip": "57301"
  },
  {
    "address": "1000 S Sycamore Ave",
    "city": "Sioux Falls",
    "county": "Minnehaha County",
    "created_at": "2012-01-04T20:17:23Z",
    "id": 21958,
    "latitude": "43.538223",
    "longitude": "-96.671449",
    "mascot": null,
    "name": "Sioux Falls Christian High School",
    "primary_color": "Royal",
    "secondary_color": "Gray",
    "state": "SD",
    "timezone": "America/Chicago",
    "updated_at": "2012-07-08T01:04:25Z",
    "zip": "57103"
  },
  {
    "address": "812 N State St",
    "city": "Dell Rapids",
    "county": "Minnehaha County",
    "created_at": "2012-01-04T20:17:23Z",
    "id": 21959,
    "latitude": "43.827346",
    "longitude": "-96.708343",
    "mascot": "Cardinals",
    "name": "Saint Mary's Catholic School",
    "primary_color": "Red",
    "secondary_color": "White",
    "state": "SD",
    "timezone": "America/Chicago",
    "updated_at": "2012-07-08T01:04:26Z",
    "zip": "57022"
  },
  {
    "address": "335 S Main St",
    "city": "Hoven",
    "county": "Potter County",
    "created_at": "2012-01-04T20:17:23Z",
    "id": 21960,
    "latitude": "45.241911",
    "longitude": "-99.777161",
    "mascot": "Greyhounds",
    "name": "Hoven Junior Senior High School",
    "primary_color": "Gray",
    "secondary_color": "Purple",
    "state": "SD",
    "timezone": "America/Chicago",
    "updated_at": "2012-07-08T01:04:26Z",
    "zip": "57450"
  },
  {
    "address": "203 S School St",
    "city": "South Shore",
    "county": "Codington County",
    "created_at": "2012-01-04T20:17:23Z",
    "id": 21961,
    "latitude": "45.108223",
    "longitude": "-96.930081",
    "mascot": "Comets",
    "name": "South Shore School",
    "primary_color": "Black",
    "secondary_color": "Gray",
    "state": "SD",
    "timezone": "America/Chicago",
    "updated_at": "2012-07-08T01:04:26Z",
    "zip": "57263"
  },
  {
    "address": "310 E Harry St",
    "city": "Castlewood",
    "county": "Hamlin County",
    "created_at": "2012-01-04T20:17:23Z",
    "id": 21962,
    "latitude": "44.724890",
    "longitude": "-97.028527",
    "mascot": "Warriors",
    "name": "Castlewood Elementary / High School",
    "primary_color": "Gold",
    "secondary_color": "Royal",
    "state": "SD",
    "timezone": "America/Chicago",
    "updated_at": "2012-07-08T01:04:27Z",
    "zip": "57223"
  },
  {
    "address": "1001 S Wipf St",
    "city": "Freeman",
    "county": "Hutchinson County",
    "created_at": "2012-01-04T20:17:23Z",
    "id": 21963,
    "latitude": "43.346300",
    "longitude": "-97.430259",
    "mascot": "Freeman Flyers",
    "name": "Freeman Junior Senior High School",
    "primary_color": "Maroon",
    "secondary_color": "White",
    "state": "SD",
    "timezone": "America/Chicago",
    "updated_at": "2012-07-08T01:04:27Z",
    "zip": "57029"
  },
  {
    "address": "101 E Main",
    "city": "Frederick",
    "county": "Brown County",
    "created_at": "2012-01-04T20:17:23Z",
    "id": 21964,
    "latitude": "45.832358",
    "longitude": "-98.498051",
    "mascot": "North Stars",
    "name": "Frederick High School",
    "primary_color": "Gold",
    "secondary_color": "Royal",
    "state": "SD",
    "timezone": "America/Chicago",
    "updated_at": "2012-07-08T01:04:27Z",
    "zip": "57441"
  },
  {
    "address": "800 N Main St",
    "city": "Canton",
    "county": "Lincoln County",
    "created_at": "2012-01-04T20:17:23Z",
    "id": 21965,
    "latitude": "43.306900",
    "longitude": "-96.592721",
    "mascot": "Canton C Hawks",
    "name": "Canton Senior High School",
    "primary_color": "Gold",
    "secondary_color": "Royal",
    "state": "SD",
    "timezone": "America/Chicago",
    "updated_at": "2012-07-08T01:04:27Z",
    "zip": "57013"
  },
  {
    "address": "1001 E Park Ave",
    "city": "Milbank",
    "county": "Grant County",
    "created_at": "2012-01-04T20:17:23Z",
    "id": 21966,
    "latitude": "45.216462",
    "longitude": "-96.625859",
    "mascot": "Bulldogs",
    "name": "Milbank High School",
    "primary_color": "Maroon",
    "secondary_color": "Gold",
    "state": "SD",
    "timezone": "America/Chicago",
    "updated_at": "2012-07-08T01:04:28Z",
    "zip": "57252"
  },
  {
    "address": "623 E 4th St",
    "city": "Miller",
    "county": "Hand County",
    "created_at": "2012-01-04T20:17:23Z",
    "id": 21967,
    "latitude": "44.519140",
    "longitude": "-98.980524",
    "mascot": "Miller Rustlers",
    "name": "Miller Junior Senior High School",
    "primary_color": "Kelly Green",
    "secondary_color": "White",
    "state": "SD",
    "timezone": "America/Chicago",
    "updated_at": "2012-07-08T01:04:28Z",
    "zip": "57362"
  },
  {
    "address": "10 E Main St",
    "city": "Fort Pierre",
    "county": "Stanley County",
    "created_at": "2012-01-04T20:17:23Z",
    "id": 21968,
    "latitude": "44.354289",
    "longitude": "-100.369340",
    "mascot": "Buffalos",
    "name": "Stanley County Middle High School",
    "primary_color": "Gold",
    "secondary_color": "Purple",
    "state": "SD",
    "timezone": "America/Chicago",
    "updated_at": "2012-07-08T01:04:28Z",
    "zip": "57532"
  },
  {
    "address": "402 S Douglas St",
    "city": "Elk Point",
    "county": "Union County",
    "created_at": "2012-01-04T20:17:23Z",
    "id": 21969,
    "latitude": "42.683452",
    "longitude": "-96.687112",
    "mascot": "Huskies",
    "name": "Elk Point-Jefferson High School",
    "primary_color": "Royal",
    "secondary_color": "Black",
    "state": "SD",
    "timezone": "America/Chicago",
    "updated_at": "2012-07-08T01:04:28Z",
    "zip": "57025"
  },
  {
    "address": "100 S School Ave",
    "city": "White",
    "county": "Brookings County",
    "created_at": "2012-01-04T20:17:23Z",
    "id": 21970,
    "latitude": "44.434680",
    "longitude": "-96.649811",
    "mascot": "Dolphins",
    "name": "Deubrook School",
    "primary_color": "Gold",
    "secondary_color": "Maroon",
    "state": "SD",
    "timezone": "America/Chicago",
    "updated_at": "2012-07-08T01:04:29Z",
    "zip": "57276"
  },
  {
    "address": "404 Jackson Ave",
    "city": "Murdo",
    "county": "Jones County",
    "created_at": "2012-01-04T20:17:23Z",
    "id": 21971,
    "latitude": "43.887470",
    "longitude": "-100.707631",
    "mascot": "Coyotes",
    "name": "Jones County High School",
    "primary_color": "Royal",
    "secondary_color": "Orange",
    "state": "SD",
    "timezone": "America/Chicago",
    "updated_at": "2012-07-08T01:04:29Z",
    "zip": "57559"
  },
  {
    "address": "101 1st Ave",
    "city": "Martin",
    "county": "Bennett County",
    "created_at": "2012-01-04T20:17:23Z",
    "id": 21972,
    "latitude": "43.177500",
    "longitude": "-101.731789",
    "mascot": "Warriors",
    "name": "Bennett County High School",
    "primary_color": "Purple",
    "secondary_color": "Gold",
    "state": "SD",
    "timezone": "America/Denver",
    "updated_at": "2012-07-08T01:04:29Z",
    "zip": "57551"
  },
  {
    "address": "1400 N Dakota St",
    "city": "Aberdeen",
    "county": "Brown County",
    "created_at": "2012-01-04T20:17:23Z",
    "id": 21973,
    "latitude": "45.479338",
    "longitude": "-98.474601",
    "mascot": "Cavaliers",
    "name": "Roncalli School",
    "primary_color": "Gold",
    "secondary_color": "Kelly Green",
    "state": "SD",
    "timezone": "America/Chicago",
    "updated_at": "2012-07-08T01:04:30Z",
    "zip": "57401"
  },
  {
    "address": "PO Box 70",
    "city": "Plankington",
    "county": "Aurora County",
    "created_at": "2012-01-04T20:17:23Z",
    "id": 21974,
    "latitude": "43.745420",
    "longitude": "-98.454949",
    "mascot": null,
    "name": "South Dakota Training School",
    "primary_color": null,
    "secondary_color": null,
    "state": "SD",
    "timezone": "America/Chicago",
    "updated_at": "2012-07-08T01:04:30Z",
    "zip": "57368"
  },
  {
    "address": "1009 E 6th Ave",
    "city": "Mitchell",
    "county": "Davison County",
    "created_at": "2012-01-04T20:17:23Z",
    "id": 21975,
    "latitude": "43.714545",
    "longitude": "-98.011813",
    "mascot": null,
    "name": "Faith Bible Learning Center",
    "primary_color": "Gold",
    "secondary_color": "Royal",
    "state": "SD",
    "timezone": "America/Chicago",
    "updated_at": "2012-07-08T01:04:30Z",
    "zip": "57301"
  },
  {
    "address": "Sky Ranch Ln",
    "city": "Camp Crook",
    "county": "Harding County",
    "created_at": "2012-01-04T20:17:23Z",
    "id": 21976,
    "latitude": "45.559890",
    "longitude": "-103.913329",
    "mascot": null,
    "name": "Sky Ranch School For Boys",
    "primary_color": null,
    "secondary_color": null,
    "state": "SD",
    "timezone": "America/Denver",
    "updated_at": "2012-07-08T01:04:30Z",
    "zip": "57724"
  },
  {
    "address": "1500 E Melgaard Rd",
    "city": "Aberdeen",
    "county": "Brown County",
    "created_at": "2012-01-04T20:17:23Z",
    "id": 21977,
    "latitude": "45.444682",
    "longitude": "-98.466243",
    "mascot": "Crusaders",
    "name": "Aberdeen Christian School",
    "primary_color": "Royal",
    "secondary_color": "White",
    "state": "SD",
    "timezone": "America/Chicago",
    "updated_at": "2012-07-08T01:04:31Z",
    "zip": "57401"
  },
  {
    "address": "PO Box 900",
    "city": "Mitchell",
    "county": "Davison County",
    "created_at": "2012-01-04T20:17:23Z",
    "id": 21978,
    "latitude": "43.715990",
    "longitude": "-98.033914",
    "mascot": null,
    "name": "Abbott House",
    "primary_color": null,
    "secondary_color": null,
    "state": "SD",
    "timezone": "America/Chicago",
    "updated_at": "2012-07-08T01:04:31Z",
    "zip": "57301"
  },
  {
    "address": "37614 SD Hwy 44",
    "city": "Corsica",
    "county": "Douglas County",
    "created_at": "2012-01-04T20:17:23Z",
    "id": 21979,
    "latitude": "43.384310",
    "longitude": "-98.605629",
    "mascot": "Cadets",
    "name": "Dakota Christian School",
    "primary_color": "Black",
    "secondary_color": "White",
    "state": "SD",
    "timezone": "America/Chicago",
    "updated_at": "2012-07-08T01:04:31Z",
    "zip": "57328"
  },
  {
    "address": "630 S 32nd St",
    "city": "Spearfish",
    "county": "Lawrence County",
    "created_at": "2012-01-04T20:17:23Z",
    "id": 21980,
    "latitude": "44.471452",
    "longitude": "-103.806749",
    "mascot": null,
    "name": "Northern Hills Training Center",
    "primary_color": null,
    "secondary_color": null,
    "state": "SD",
    "timezone": "America/Denver",
    "updated_at": "2012-07-08T01:04:32Z",
    "zip": "57783"
  },
  {
    "address": "700 S Sneve Ave",
    "city": "Sioux Falls",
    "county": "Minnehaha County",
    "created_at": "2012-01-04T20:17:23Z",
    "id": 21981,
    "latitude": "43.541895",
    "longitude": "-96.685279",
    "mascot": "Chargers",
    "name": "Sioux Falls Christian School",
    "primary_color": "Royal",
    "secondary_color": "Gray",
    "state": "SD",
    "timezone": "America/Chicago",
    "updated_at": "2012-07-08T01:04:32Z",
    "zip": "57103"
  },
  {
    "address": "47135 260th St",
    "city": "Sioux Falls",
    "county": "Minnehaha County",
    "created_at": "2012-01-04T20:17:23Z",
    "id": 21982,
    "latitude": "43.616374",
    "longitude": "-96.783647",
    "mascot": null,
    "name": "McCrossan Boys Ranch School",
    "primary_color": null,
    "secondary_color": null,
    "state": "SD",
    "timezone": "America/Chicago",
    "updated_at": "2012-07-08T01:04:32Z",
    "zip": "57107"
  },
  {
    "address": "412 S Hawthorne Ave",
    "city": "Sioux Falls",
    "county": "Minnehaha County",
    "created_at": "2012-01-04T20:17:23Z",
    "id": 21983,
    "latitude": "43.543392",
    "longitude": "-96.748693",
    "mascot": null,
    "name": "Empire Baptist Academy",
    "primary_color": null,
    "secondary_color": null,
    "state": "SD",
    "timezone": "America/Chicago",
    "updated_at": "2012-07-08T01:04:32Z",
    "zip": "57104"
  },
  {
    "address": "3600 S Duluth",
    "city": "Sioux Falls",
    "county": "Minnehaha County",
    "created_at": "2012-01-04T20:17:23Z",
    "id": 21984,
    "latitude": "43.512641",
    "longitude": "-96.733706",
    "mascot": null,
    "name": "Dakotabilities",
    "primary_color": null,
    "secondary_color": null,
    "state": "SD",
    "timezone": "America/Chicago",
    "updated_at": "2012-07-08T01:04:33Z",
    "zip": "57105"
  },
  {
    "address": "2217 Lance St",
    "city": "Rapid City",
    "county": "Pennington County",
    "created_at": "2012-01-04T20:17:23Z",
    "id": 21985,
    "latitude": "44.070069",
    "longitude": "-103.256452",
    "mascot": null,
    "name": "Bethel Baptist Christian School",
    "primary_color": "Gold",
    "secondary_color": "Royal",
    "state": "SD",
    "timezone": "America/Denver",
    "updated_at": "2012-07-08T01:04:33Z",
    "zip": "57702"
  },
  {
    "address": "HC 89 Box 235",
    "city": "Hermosa",
    "county": "Custer County",
    "created_at": "2012-01-04T20:17:23Z",
    "id": 21986,
    "latitude": "43.808790",
    "longitude": "-103.144042",
    "mascot": "Eagles",
    "name": "Rapid City Christian Academy",
    "primary_color": "Gold",
    "secondary_color": "Royal",
    "state": "SD",
    "timezone": "America/Denver",
    "updated_at": "2012-07-08T01:04:33Z",
    "zip": "57744"
  },
  {
    "address": "1212 E Fairmont Blvd",
    "city": "Rapid City",
    "county": "Pennington County",
    "created_at": "2012-01-04T20:17:23Z",
    "id": 21987,
    "latitude": "44.053016",
    "longitude": "-103.196093",
    "mascot": "Comets",
    "name": "Rapid City Christian High School",
    "primary_color": "Gold",
    "secondary_color": "Royal",
    "state": "SD",
    "timezone": "America/Denver",
    "updated_at": "2012-07-08T01:04:33Z",
    "zip": "57701"
  },
  {
    "address": "Wolf Creek Rd",
    "city": "Pine Ridge",
    "county": "Shannon County",
    "created_at": "2012-01-04T20:17:23Z",
    "id": 21988,
    "latitude": "43.039190",
    "longitude": "-102.435899",
    "mascot": "Eagles",
    "name": "Pine Ridge Christian Academy",
    "primary_color": "Kelly Green",
    "secondary_color": "Black",
    "state": "SD",
    "timezone": "America/Denver",
    "updated_at": "2012-07-08T01:04:34Z",
    "zip": "57770"
  },
  {
    "address": "325 N Main",
    "city": "Winner",
    "county": "Tripp County",
    "created_at": "2012-01-04T20:17:23Z",
    "id": 21989,
    "latitude": "43.381127",
    "longitude": "-99.856892",
    "mascot": null,
    "name": "South Central Training Center",
    "primary_color": "Royal",
    "secondary_color": "White",
    "state": "SD",
    "timezone": "America/Chicago",
    "updated_at": "2012-07-08T01:04:34Z",
    "zip": "57580"
  },
  {
    "address": "100 S Main St",
    "city": "Marty",
    "county": "Charles Mix County",
    "created_at": "2012-01-04T20:17:23Z",
    "id": 21990,
    "latitude": "42.971930",
    "longitude": "-98.405176",
    "mascot": "Braves",
    "name": "Marty Indian School",
    "primary_color": "Royal",
    "secondary_color": "White",
    "state": "SD",
    "timezone": "America/Chicago",
    "updated_at": "2012-07-08T01:04:34Z",
    "zip": "57361"
  },
  {
    "address": "2006 Main St",
    "city": "Eagle Butte",
    "county": "Dewey County",
    "created_at": "2012-01-04T20:17:23Z",
    "id": 21991,
    "latitude": "45.000380",
    "longitude": "-101.234769",
    "mascot": "Braves",
    "name": "Cheyenne Eagle Butte School",
    "primary_color": "Red",
    "secondary_color": "Columbia Blue",
    "state": "SD",
    "timezone": "America/Denver",
    "updated_at": "2012-07-08T01:04:35Z",
    "zip": "57625"
  },
  {
    "address": "1132 N Crescent St",
    "city": "Flandreau",
    "county": "Moody County",
    "created_at": "2012-01-04T20:17:23Z",
    "id": 21992,
    "latitude": "44.058330",
    "longitude": "-96.593399",
    "mascot": "Indians",
    "name": "Flandreau BIA High School",
    "primary_color": "Columbia Blue",
    "secondary_color": "Red",
    "state": "SD",
    "timezone": "America/Chicago",
    "updated_at": "2012-07-08T01:04:35Z",
    "zip": "57028"
  },
  {
    "address": "502 E Division St",
    "city": "White Lake",
    "county": "Aurora County",
    "created_at": "2012-01-04T20:17:23Z",
    "id": 21993,
    "latitude": "43.730376",
    "longitude": "-98.708888",
    "mascot": "Wolverines",
    "name": "White Lake School",
    "primary_color": "Purple",
    "secondary_color": "White",
    "state": "SD",
    "timezone": "America/Chicago",
    "updated_at": "2012-07-08T01:04:35Z",
    "zip": "57383"
  },
  {
    "address": "1404 Fir St",
    "city": "Tyndall",
    "county": "Bon Homme County",
    "created_at": "2012-01-04T20:17:23Z",
    "id": 21994,
    "latitude": "42.989341",
    "longitude": "-97.868217",
    "mascot": "Bon Homme Cavaliers",
    "name": "Bon Homme High School",
    "primary_color": "Columbia Blue",
    "secondary_color": "Red",
    "state": "SD",
    "timezone": "America/Chicago",
    "updated_at": "2012-07-08T01:04:35Z",
    "zip": "57066"
  },
  {
    "address": "508 Buffalo St",
    "city": "Elkton",
    "county": "Brookings County",
    "created_at": "2012-01-04T20:17:23Z",
    "id": 21995,
    "latitude": "44.232490",
    "longitude": "-96.482637",
    "mascot": "Elks",
    "name": "Elkton School",
    "primary_color": "Royal",
    "secondary_color": "White",
    "state": "SD",
    "timezone": "America/Chicago",
    "updated_at": "2012-07-08T01:04:36Z",
    "zip": "57026"
  },
  {
    "address": "2200 N Dakota St",
    "city": "Aberdeen",
    "county": "Brown County",
    "created_at": "2012-01-04T20:17:23Z",
    "id": 21996,
    "latitude": "45.486838",
    "longitude": "-98.474591",
    "mascot": "Patriots",
    "name": "Holgate Junior High School",
    "primary_color": "Red",
    "secondary_color": "Royal",
    "state": "SD",
    "timezone": "America/Chicago",
    "updated_at": "2012-07-08T01:04:36Z",
    "zip": "57401"
  },
  {
    "address": "125 E 4th Ave",
    "city": "Groton",
    "county": "Brown County",
    "created_at": "2012-01-04T20:17:23Z",
    "id": 21997,
    "latitude": "45.449268",
    "longitude": "-98.101124",
    "mascot": "Tigers",
    "name": "Groton Junior Senior High School",
    "primary_color": "Black",
    "secondary_color": "Gold",
    "state": "SD",
    "timezone": "America/Chicago",
    "updated_at": "2012-07-08T01:04:36Z",
    "zip": "57445"
  },
  {
    "address": "322 S Main St",
    "city": "Barnard",
    "county": "Brown County",
    "created_at": "2012-01-04T20:17:23Z",
    "id": 21998,
    "latitude": "45.734050",
    "longitude": "-98.496966",
    "mascot": "Vikings",
    "name": "Frederick Area School District",
    "primary_color": "Gold",
    "secondary_color": "Navy",
    "state": "SD",
    "timezone": "America/Chicago",
    "updated_at": "2012-07-08T01:04:36Z",
    "zip": "57426"
  },
  {
    "address": "402 Main St",
    "city": "Hecla",
    "county": "Brown County",
    "created_at": "2012-01-04T20:17:23Z",
    "id": 21999,
    "latitude": "45.882478",
    "longitude": "-98.150984",
    "mascot": "North Stars",
    "name": "Hecla Houghton School",
    "primary_color": "Gold",
    "secondary_color": "Navy",
    "state": "SD",
    "timezone": "America/Chicago",
    "updated_at": "2012-07-08T01:04:37Z",
    "zip": "57446"
  },
  {
    "address": "1000 Sorenson Drive",
    "city": "Chamberlain",
    "county": "Brule County",
    "created_at": "2012-01-04T20:17:23Z",
    "id": 22000,
    "latitude": "43.788538",
    "longitude": "-99.325534",
    "mascot": "Cubs",
    "name": "Chamberlain High School",
    "primary_color": "Red",
    "secondary_color": "White",
    "state": "SD",
    "timezone": "America/Chicago",
    "updated_at": "2012-07-08T01:04:37Z",
    "zip": "57325"
  },
  {
    "address": "2305 12th Ave",
    "city": "Belle Fourche",
    "county": "Butte County",
    "created_at": "2012-01-04T20:17:23Z",
    "id": 22001,
    "latitude": "44.651492",
    "longitude": "-103.844541",
    "mascot": "Belle Fourche Broncs",
    "name": "Belle Fourche High School",
    "primary_color": "White",
    "secondary_color": "Purple",
    "state": "SD",
    "timezone": "America/Denver",
    "updated_at": "2012-07-08T01:04:37Z",
    "zip": "57717"
  },
  {
    "address": "501 Dartmouth St",
    "city": "Newell",
    "county": "Butte County",
    "created_at": "2012-01-04T20:17:23Z",
    "id": 22002,
    "latitude": "44.716955",
    "longitude": "-103.425576",
    "mascot": "Irrigators",
    "name": "Newell High School",
    "primary_color": "Maroon",
    "secondary_color": "Gray",
    "state": "SD",
    "timezone": "America/Denver",
    "updated_at": "2012-07-08T01:04:37Z",
    "zip": "57760"
  },
  {
    "address": "302 Main St",
    "city": "Herreid",
    "county": "Campbell County",
    "created_at": "2012-01-04T20:17:23Z",
    "id": 22003,
    "latitude": "45.840481",
    "longitude": "-100.069142",
    "mascot": "Yellow Jackets",
    "name": "Herreid School",
    "primary_color": "Gold",
    "secondary_color": "Black",
    "state": "SD",
    "timezone": "America/Chicago",
    "updated_at": "2012-07-08T01:04:38Z",
    "zip": "57632"
  },
  {
    "address": "400 School St",
    "city": "Lake Andes",
    "county": "Charles Mix County",
    "created_at": "2012-01-04T20:17:23Z",
    "id": 22004,
    "latitude": "43.159720",
    "longitude": "-98.539971",
    "mascot": "Eagles",
    "name": "Andes Junior Senior High School",
    "primary_color": "Black",
    "secondary_color": "Gold",
    "state": "SD",
    "timezone": "America/Chicago",
    "updated_at": "2012-07-08T01:04:38Z",
    "zip": "57356"
  },
  {
    "address": "400 Illinois St",
    "city": "Platte",
    "county": "Charles Mix County",
    "created_at": "2012-01-04T20:17:23Z",
    "id": 22005,
    "latitude": "43.387102",
    "longitude": "-98.839217",
    "mascot": "Black Panthers",
    "name": "Platte High School",
    "primary_color": "Maroon",
    "secondary_color": "White",
    "state": "SD",
    "timezone": "America/Chicago",
    "updated_at": "2012-07-08T01:04:38Z",
    "zip": "57369"
  },
  {
    "address": "101 Walnut Ave SW",
    "city": "Wagner",
    "county": "Charles Mix County",
    "created_at": "2012-01-04T20:17:23Z",
    "id": 22006,
    "latitude": "43.084135",
    "longitude": "-98.303105",
    "mascot": "Red Raiders",
    "name": "Wagner Community School",
    "primary_color": "Red",
    "secondary_color": "White",
    "state": "SD",
    "timezone": "America/Chicago",
    "updated_at": "2012-07-08T01:04:38Z",
    "zip": "57380"
  },
  {
    "address": "220 N Clinton St",
    "city": "Clark",
    "county": "Clark County",
    "created_at": "2012-01-04T20:17:23Z",
    "id": 22007,
    "latitude": "44.879058",
    "longitude": "-97.741617",
    "mascot": "Comets",
    "name": "Clark Junior Senior High School",
    "primary_color": "Maroon",
    "secondary_color": "White",
    "state": "SD",
    "timezone": "America/Chicago",
    "updated_at": "2012-07-08T01:04:39Z",
    "zip": "57225"
  },
  {
    "address": "111 N Cedar St",
    "city": "Henry",
    "county": "Codington County",
    "created_at": "2012-01-04T20:17:23Z",
    "id": 22008,
    "latitude": "44.880640",
    "longitude": "-97.461804",
    "mascot": "Owls",
    "name": "Henry School District 14-2",
    "primary_color": "Red",
    "secondary_color": "White",
    "state": "SD",
    "timezone": "America/Chicago",
    "updated_at": "2012-07-08T01:04:39Z",
    "zip": "57243"
  },
  {
    "address": "200 9th St NE",
    "city": "Watertown",
    "county": "Codington County",
    "created_at": "2012-01-04T20:17:23Z",
    "id": 22009,
    "latitude": "44.903393",
    "longitude": "-97.099087",
    "mascot": "Arrows",
    "name": "Watertown Senior High School",
    "primary_color": "Purple",
    "secondary_color": "Gold",
    "state": "SD",
    "timezone": "America/Chicago",
    "updated_at": "2012-07-08T01:04:39Z",
    "zip": "57201"
  },
  {
    "address": "319 Mary Pl",
    "city": "Waverly",
    "county": "Codington County",
    "created_at": "2012-01-04T20:17:23Z",
    "id": 22010,
    "latitude": "44.912960",
    "longitude": "-97.118211",
    "mascot": "Woodchucks",
    "name": "Waverly School",
    "primary_color": "Orange",
    "secondary_color": "Black",
    "state": "SD",
    "timezone": "America/Chicago",
    "updated_at": "2012-07-08T01:04:40Z",
    "zip": "57201"
  },
  {
    "address": "12250 Hwy 1806",
    "city": "Wakpala",
    "county": "Corson County",
    "created_at": "2012-01-04T20:17:23Z",
    "id": 22011,
    "latitude": "45.857099",
    "longitude": "-100.459883",
    "mascot": null,
    "name": "Wakpala School",
    "primary_color": "Royal",
    "secondary_color": "White",
    "state": "SD",
    "timezone": "America/Denver",
    "updated_at": "2012-07-08T01:04:40Z",
    "zip": "57658"
  },
  {
    "address": "527 Montgomery St",
    "city": "Custer",
    "county": "Custer County",
    "created_at": "2012-01-04T20:17:23Z",
    "id": 22012,
    "latitude": "43.769888",
    "longitude": "-103.601617",
    "mascot": "Wildcats",
    "name": "Custer High School",
    "primary_color": "Purple",
    "secondary_color": "Gold",
    "state": "SD",
    "timezone": "America/Denver",
    "updated_at": "2012-07-08T01:04:40Z",
    "zip": "57730"
  },
  {
    "address": "320 S School St",
    "city": "Ethan",
    "county": "Davison County",
    "created_at": "2012-01-04T20:17:23Z",
    "id": 22013,
    "latitude": "43.542395",
    "longitude": "-98.055029",
    "mascot": "Rustlers",
    "name": "Ethan School",
    "primary_color": "Maroon",
    "secondary_color": "Gold",
    "state": "SD",
    "timezone": "America/Chicago",
    "updated_at": "2012-07-08T01:04:40Z",
    "zip": "57334"
  },
  {
    "address": "920 N Capital St",
    "city": "Mitchell",
    "county": "Davison County",
    "created_at": "2012-01-04T20:17:23Z",
    "id": 22014,
    "latitude": "43.719983",
    "longitude": "-98.017136",
    "mascot": "Kernels",
    "name": "Mitchell Senior High School",
    "primary_color": "Gold",
    "secondary_color": "Black",
    "state": "SD",
    "timezone": "America/Chicago",
    "updated_at": "2012-07-08T01:04:41Z",
    "zip": "57301"
  },
  {
    "address": "500 S 3rd St",
    "city": "Bristol",
    "county": "Day County",
    "created_at": "2012-01-04T20:17:23Z",
    "id": 22015,
    "latitude": "45.342249",
    "longitude": "-97.748587",
    "mascot": "Pirates",
    "name": "Bristol School",
    "primary_color": "Gold",
    "secondary_color": "Purple",
    "state": "SD",
    "timezone": "America/Chicago",
    "updated_at": "2012-07-08T01:04:42Z",
    "zip": "57219"
  },
  {
    "address": "202 W School Rd",
    "city": "Waubay",
    "county": "Day County",
    "created_at": "2012-01-04T20:17:23Z",
    "id": 22016,
    "latitude": "45.398943",
    "longitude": "-97.287489",
    "mascot": "Dragons",
    "name": "Waubay School",
    "primary_color": "Kelly Green",
    "secondary_color": "White",
    "state": "SD",
    "timezone": "America/Chicago",
    "updated_at": "2012-07-08T01:04:42Z",
    "zip": "57273"
  },
  {
    "address": "102 E 9th Ave",
    "city": "Webster",
    "county": "Day County",
    "created_at": "2012-01-04T20:17:23Z",
    "id": 22017,
    "latitude": "45.334203",
    "longitude": "-97.518522",
    "mascot": "Bear Cats",
    "name": "Webster Junior Senior High School",
    "primary_color": "Maroon",
    "secondary_color": "Gold",
    "state": "SD",
    "timezone": "America/Chicago",
    "updated_at": "2012-07-08T01:04:42Z",
    "zip": "57274"
  },
  {
    "address": "410 5th St W",
    "city": "Clear Lake",
    "county": "Deuel County",
    "created_at": "2012-01-04T20:17:23Z",
    "id": 22018,
    "latitude": "44.754716",
    "longitude": "-96.684889",
    "mascot": "Cardinals",
    "name": "Deuel School",
    "primary_color": "Red",
    "secondary_color": "Black",
    "state": "SD",
    "timezone": "America/Chicago",
    "updated_at": "2012-07-08T01:04:43Z",
    "zip": "57226"
  },
  {
    "address": "Main St",
    "city": "Eagle Butte",
    "county": "Dewey County",
    "created_at": "2012-01-04T20:17:23Z",
    "id": 22019,
    "latitude": "45.000380",
    "longitude": "-101.234769",
    "mascot": "Braves",
    "name": "Eagle Butte High School",
    "primary_color": "Red",
    "secondary_color": "Columbia Blue",
    "state": "SD",
    "timezone": "America/Denver",
    "updated_at": "2012-07-08T01:04:43Z",
    "zip": "57625"
  },
  {
    "address": "604 3rd St",
    "city": "Armour",
    "county": "Douglas County",
    "created_at": "2012-01-04T20:17:23Z",
    "id": 22020,
    "latitude": "43.319887",
    "longitude": "-98.347770",
    "mascot": "Packers",
    "name": "Armour High School",
    "primary_color": "Maroon",
    "secondary_color": "Gold",
    "state": "SD",
    "timezone": "America/Chicago",
    "updated_at": "2012-07-08T01:04:43Z",
    "zip": "57313"
  },
  {
    "address": "120 S Napolean Ave",
    "city": "Corsica",
    "county": "Douglas County",
    "created_at": "2012-01-04T20:17:23Z",
    "id": 22021,
    "latitude": "43.423424",
    "longitude": "-98.400674",
    "mascot": "Comets",
    "name": "Corsica Public School",
    "primary_color": "Maroon",
    "secondary_color": "White",
    "state": "SD",
    "timezone": "America/Chicago",
    "updated_at": "2012-07-08T01:04:44Z",
    "zip": "57328"
  },
  {
    "address": "105 S Sloan St",
    "city": "Tripp",
    "county": "Hutchinson County",
    "created_at": "2012-01-04T20:17:23Z",
    "id": 22022,
    "latitude": "43.226360",
    "longitude": "-97.967053",
    "mascot": "Wildcats",
    "name": "Tripp-Delmont School",
    "primary_color": "Red",
    "secondary_color": "Royal",
    "state": "SD",
    "timezone": "America/Chicago",
    "updated_at": "2012-07-08T01:04:44Z",
    "zip": "57376"
  },
  {
    "address": "1609 University Ave",
    "city": "Hot Springs",
    "county": "Fall River County",
    "created_at": "2012-01-04T20:17:23Z",
    "id": 22023,
    "latitude": "43.429876",
    "longitude": "-103.480806",
    "mascot": "Bison",
    "name": "Hot Springs High School",
    "primary_color": "Royal",
    "secondary_color": "White",
    "state": "SD",
    "timezone": "America/Denver",
    "updated_at": "2012-07-08T01:04:44Z",
    "zip": "57747"
  },
  {
    "address": "625 Walnut St",
    "city": "Oelrichs",
    "county": "Fall River County",
    "created_at": "2012-01-04T20:17:23Z",
    "id": 22024,
    "latitude": "43.182605",
    "longitude": "-103.233078",
    "mascot": "Tigers",
    "name": "Oelrichs School",
    "primary_color": "Royal",
    "secondary_color": "White",
    "state": "SD",
    "timezone": "America/Denver",
    "updated_at": "2012-07-08T01:04:44Z",
    "zip": "57763"
  },
  {
    "address": "301 7th St E",
    "city": "Cresbard",
    "county": "Faulk County",
    "created_at": "2012-01-04T20:17:23Z",
    "id": 22025,
    "latitude": "45.172548",
    "longitude": "-98.945527",
    "mascot": "Comets",
    "name": "Cresbard School",
    "primary_color": "Gold",
    "secondary_color": "Purple",
    "state": "SD",
    "timezone": "America/Chicago",
    "updated_at": "2012-07-08T01:04:45Z",
    "zip": "57435"
  },
  {
    "address": "110 Birdsell St",
    "city": "Bonesteel",
    "county": "Gregory County",
    "created_at": "2012-01-04T20:17:23Z",
    "id": 22026,
    "latitude": "43.081509",
    "longitude": "-98.950868",
    "mascot": "Tigers",
    "name": "Bonesteel-Fairfax Junior Senior High",
    "primary_color": "Orange",
    "secondary_color": "Black",
    "state": "SD",
    "timezone": "America/Chicago",
    "updated_at": "2012-07-08T01:04:45Z",
    "zip": "57317"
  },
  {
    "address": "900 Washington St",
    "city": "Burke",
    "county": "Gregory County",
    "created_at": "2012-01-04T20:17:23Z",
    "id": 22027,
    "latitude": "43.181328",
    "longitude": "-99.290704",
    "mascot": "Bulldogs",
    "name": "Burke School",
    "primary_color": "Gold",
    "secondary_color": "Maroon",
    "state": "SD",
    "timezone": "America/Chicago",
    "updated_at": "2012-07-08T01:04:45Z",
    "zip": "57523"
  },
  {
    "address": "330 Scottie Dr",
    "city": "Philip",
    "county": "Haakon County",
    "created_at": "2012-01-04T20:17:23Z",
    "id": 22028,
    "latitude": "44.067066",
    "longitude": "-101.692549",
    "mascot": "Scottie Dogs",
    "name": "Haakon School District",
    "primary_color": "Orange",
    "secondary_color": "Black",
    "state": "SD",
    "timezone": "America/Denver",
    "updated_at": "2012-07-08T01:04:45Z",
    "zip": "57567"
  },
  {
    "address": "708 Davis Ave",
    "city": "Estelline",
    "county": "Hamlin County",
    "created_at": "2012-01-04T20:17:23Z",
    "id": 22029,
    "latitude": "44.576755",
    "longitude": "-96.897239",
    "mascot": "Redmen",
    "name": "Estelline High School",
    "primary_color": "Red",
    "secondary_color": "White",
    "state": "SD",
    "timezone": "America/Chicago",
    "updated_at": "2012-07-08T01:04:46Z",
    "zip": "57234"
  },
  {
    "address": "310 5th St",
    "city": "Hayti",
    "county": "Hamlin County",
    "created_at": "2012-01-04T20:17:23Z",
    "id": 22030,
    "latitude": "44.659945",
    "longitude": "-97.202984",
    "mascot": "Chargers",
    "name": "Hamlin High School",
    "primary_color": "Columbia Blue",
    "secondary_color": "Gold",
    "state": "SD",
    "timezone": "America/Chicago",
    "updated_at": "2012-07-08T01:04:46Z",
    "zip": "57241"
  },
  {
    "address": "102 W Allison St Hwy 85 N",
    "city": "Buffalo",
    "county": "Harding County",
    "created_at": "2012-01-04T20:17:23Z",
    "id": 22031,
    "latitude": "45.581920",
    "longitude": "-103.545869",
    "mascot": "Ranchers",
    "name": "Harding County School",
    "primary_color": "Gold",
    "secondary_color": "Purple",
    "state": "SD",
    "timezone": "America/Denver",
    "updated_at": "2012-07-08T01:04:46Z",
    "zip": "57720"
  },
  {
    "address": "410 S 5th St",
    "city": "Menno",
    "county": "Hutchinson County",
    "created_at": "2012-01-04T20:17:23Z",
    "id": 22032,
    "latitude": "43.237076",
    "longitude": "-97.577941",
    "mascot": "Wolves",
    "name": "Menno Junior Senior High School",
    "primary_color": "Gold",
    "secondary_color": "Maroon",
    "state": "SD",
    "timezone": "America/Chicago",
    "updated_at": "2012-07-08T01:04:47Z",
    "zip": "57045"
  },
  {
    "address": "102A S Chapman Dr",
    "city": "Parkston",
    "county": "Hutchinson County",
    "created_at": "2012-01-04T20:17:23Z",
    "id": 22033,
    "latitude": "43.390982",
    "longitude": "-97.976356",
    "mascot": "Trojans",
    "name": "Parkston Junior Senior High School",
    "primary_color": "Orange",
    "secondary_color": "Royal",
    "state": "SD",
    "timezone": "America/Chicago",
    "updated_at": "2012-07-08T01:04:47Z",
    "zip": "57366"
  },
  {
    "address": "100 4th St",
    "city": "Highmore",
    "county": "Hyde County",
    "created_at": "2012-01-04T20:17:24Z",
    "id": 22034,
    "latitude": "44.516950",
    "longitude": "-99.446729",
    "mascot": "Pirates",
    "name": "Highmore High School",
    "primary_color": "Red",
    "secondary_color": "White",
    "state": "SD",
    "timezone": "America/Chicago",
    "updated_at": "2012-07-08T01:04:47Z",
    "zip": "57345"
  },
  {
    "address": "301 Dakato Ave",
    "city": "Wessington Springs",
    "county": "Jerauld County",
    "created_at": "2012-01-04T20:17:24Z",
    "id": 22035,
    "latitude": "44.079972",
    "longitude": "-98.639999",
    "mascot": "Spartans",
    "name": "Wessington Springs High School",
    "primary_color": "Royal",
    "secondary_color": "Gold",
    "state": "SD",
    "timezone": "America/Chicago",
    "updated_at": "2012-07-08T01:04:47Z",
    "zip": "57382"
  },
  {
    "address": "405 3rd Ave SW",
    "city": "De Smet",
    "county": "Kingsbury County",
    "created_at": "2012-01-04T20:17:24Z",
    "id": 22036,
    "latitude": "44.385607",
    "longitude": "-97.554608",
    "mascot": "Bulldogs",
    "name": "De Smet High School",
    "primary_color": "Gold",
    "secondary_color": "Maroon",
    "state": "SD",
    "timezone": "America/Chicago",
    "updated_at": "2012-07-08T01:04:48Z",
    "zip": "57231"
  },
  {
    "address": "111 E Washita",
    "city": "Iroquois",
    "county": "Kingsbury County",
    "created_at": "2012-01-04T20:17:24Z",
    "id": 22037,
    "latitude": "44.366992",
    "longitude": "-97.852757",
    "mascot": "Chiefs",
    "name": "Iroquois Public School",
    "primary_color": "Black",
    "secondary_color": "Orange",
    "state": "SD",
    "timezone": "America/Chicago",
    "updated_at": "2012-07-08T01:04:48Z",
    "zip": "57353"
  },
  {
    "address": "300 1st St NE",
    "city": "Lake Preston",
    "county": "Kingsbury County",
    "created_at": "2012-01-04T20:17:24Z",
    "id": 22038,
    "latitude": "44.361049",
    "longitude": "-97.373828",
    "mascot": "Divers",
    "name": "Lake Preston School",
    "primary_color": "Navy",
    "secondary_color": "Gold",
    "state": "SD",
    "timezone": "America/Chicago",
    "updated_at": "2012-07-08T01:04:48Z",
    "zip": "57249"
  },
  {
    "address": "303 E 1st St",
    "city": "Lake Preston",
    "county": "Kingsbury County",
    "created_at": "2012-01-04T20:17:24Z",
    "id": 22039,
    "latitude": "44.361064",
    "longitude": "-97.373801",
    "mascot": "Divers",
    "name": "Lake Preston Junior Senior High School",
    "primary_color": "Navy",
    "secondary_color": "Gold",
    "state": "SD",
    "timezone": "America/Chicago",
    "updated_at": "2012-07-08T01:04:49Z",
    "zip": "57249"
  },
  {
    "address": "220 W. 2nd St",
    "city": "Ramona",
    "county": "Lake County",
    "created_at": "2012-01-04T20:17:24Z",
    "id": 22040,
    "latitude": "44.120493",
    "longitude": "-97.219224",
    "mascot": "Raiders",
    "name": "Oldham-Ramona School",
    "primary_color": "Gray",
    "secondary_color": "Red",
    "state": "SD",
    "timezone": "America/Chicago",
    "updated_at": "2012-07-08T01:04:49Z",
    "zip": "57054"
  },
  {
    "address": "102 2nd Ave",
    "city": "Chester",
    "county": "Lake County",
    "created_at": "2012-01-04T20:17:24Z",
    "id": 22041,
    "latitude": "43.901004",
    "longitude": "-96.928895",
    "mascot": "Pegasus",
    "name": "Chester Area School",
    "primary_color": "Red",
    "secondary_color": "White",
    "state": "SD",
    "timezone": "America/Chicago",
    "updated_at": "2012-07-08T01:04:49Z",
    "zip": "57016"
  },
  {
    "address": "102 School St",
    "city": "Rutland",
    "county": "Lake County",
    "created_at": "2012-01-04T20:17:24Z",
    "id": 22042,
    "latitude": "44.089407",
    "longitude": "-96.965848",
    "mascot": "Ramblers",
    "name": "Rutland School",
    "primary_color": "Orange",
    "secondary_color": "Black",
    "state": "SD",
    "timezone": "America/Chicago",
    "updated_at": "2012-07-08T01:04:49Z",
    "zip": "57057"
  },
  {
    "address": "320 S Main St",
    "city": "Lead",
    "county": "Lawrence County",
    "created_at": "2012-01-04T20:17:24Z",
    "id": 22043,
    "latitude": "44.348480",
    "longitude": "-103.775104",
    "mascot": "Gold Diggers",
    "name": "Lead High School",
    "primary_color": "Black",
    "secondary_color": "Maroon",
    "state": "SD",
    "timezone": "America/Denver",
    "updated_at": "2012-07-08T01:04:50Z",
    "zip": "57754"
  },
  {
    "address": "208 W 5th Ave",
    "city": "Lennox",
    "county": "Lincoln County",
    "created_at": "2012-01-04T20:17:24Z",
    "id": 22044,
    "latitude": "43.350608",
    "longitude": "-96.892894",
    "mascot": "Orioles",
    "name": "Lennox High School",
    "primary_color": "Orange",
    "secondary_color": "Black",
    "state": "SD",
    "timezone": "America/Chicago",
    "updated_at": "2012-07-08T01:04:50Z",
    "zip": "57039"
  },
  {
    "address": "201 S Birch Ave",
    "city": "Presho",
    "county": "Lyman County",
    "created_at": "2012-01-04T20:17:24Z",
    "id": 22045,
    "latitude": "43.904230",
    "longitude": "-100.062939",
    "mascot": "Raiders",
    "name": "Lyman High School",
    "primary_color": "Red",
    "secondary_color": "White",
    "state": "SD",
    "timezone": "America/Chicago",
    "updated_at": "2012-07-08T01:04:50Z",
    "zip": "57568"
  },
  {
    "address": "510 Main St",
    "city": "Bridgewater",
    "county": "Turner County",
    "created_at": "2012-01-04T20:17:24Z",
    "id": 22046,
    "latitude": "43.499790",
    "longitude": "-97.388099",
    "mascot": "Wildcats",
    "name": "Bridgewater School",
    "primary_color": "Purple",
    "secondary_color": "White",
    "state": "SD",
    "timezone": "America/Chicago",
    "updated_at": "2012-07-08T01:04:51Z",
    "zip": "57319"
  },
  {
    "address": "36848 123rd St",
    "city": "Leola",
    "county": "McPherson County",
    "created_at": "2012-01-04T20:17:24Z",
    "id": 22047,
    "latitude": "45.606870",
    "longitude": "-99.035389",
    "mascot": "Titans",
    "name": "Longlake Hutterite Colony School",
    "primary_color": "Royal",
    "secondary_color": "White",
    "state": "SD",
    "timezone": "America/Chicago",
    "updated_at": "2012-07-08T01:04:51Z",
    "zip": "57456"
  },
  {
    "address": "759 5th St",
    "city": "Britton",
    "county": "Marshall County",
    "created_at": "2012-01-04T20:17:24Z",
    "id": 22048,
    "latitude": "45.794407",
    "longitude": "-97.750857",
    "mascot": "Braves",
    "name": "Britton Hecla School",
    "primary_color": "Red",
    "secondary_color": "White",
    "state": "SD",
    "timezone": "America/Chicago",
    "updated_at": "2012-07-08T01:04:51Z",
    "zip": "57430"
  },
  {
    "address": "759 5th St",
    "city": "Britton",
    "county": "Marshall County",
    "created_at": "2012-01-04T20:17:24Z",
    "id": 22049,
    "latitude": "45.794407",
    "longitude": "-97.750857",
    "mascot": "Braves",
    "name": "Britton High School",
    "primary_color": "Red",
    "secondary_color": "White",
    "state": "SD",
    "timezone": "America/Chicago",
    "updated_at": "2012-07-08T01:04:51Z",
    "zip": "57430"
  },
  {
    "address": "12930 E Hwy 34",
    "city": "Sturgis",
    "county": "Meade County",
    "created_at": "2012-01-04T20:17:24Z",
    "id": 22050,
    "latitude": "44.414897",
    "longitude": "-103.468285",
    "mascot": "Sturgis Scoopers",
    "name": "Sturgis Brown High School",
    "primary_color": "Black",
    "secondary_color": "White",
    "state": "SD",
    "timezone": "America/Denver",
    "updated_at": "2012-07-08T01:04:52Z",
    "zip": "57785"
  },
  {
    "address": "500 N Section Line",
    "city": "Howard",
    "county": "Miner County",
    "created_at": "2012-01-04T20:17:24Z",
    "id": 22051,
    "latitude": "44.016548",
    "longitude": "-97.530412",
    "mascot": "Tigers",
    "name": "Howard Junior Senior High School",
    "primary_color": "Black",
    "secondary_color": "Orange",
    "state": "SD",
    "timezone": "America/Chicago",
    "updated_at": "2012-07-08T01:04:52Z",
    "zip": "57349"
  },
  {
    "address": "601 5th St",
    "city": "Baltic",
    "county": "Minnehaha County",
    "created_at": "2012-01-04T20:17:24Z",
    "id": 22052,
    "latitude": "43.759010",
    "longitude": "-96.731299",
    "mascot": "Bulldogs",
    "name": "Baltic High School",
    "primary_color": "Gold",
    "secondary_color": "Royal",
    "state": "SD",
    "timezone": "America/Chicago",
    "updated_at": "2012-07-08T01:04:52Z",
    "zip": "57003"
  },
  {
    "address": "1216 N Garfield",
    "city": "Dell Rapids",
    "county": "Minnehaha County",
    "created_at": "2012-01-04T20:17:24Z",
    "id": 22053,
    "latitude": "43.832497",
    "longitude": "-96.706491",
    "mascot": "Quarriers",
    "name": "Dell Rapids High School",
    "primary_color": "Orange",
    "secondary_color": "Black",
    "state": "SD",
    "timezone": "America/Chicago",
    "updated_at": "2012-07-08T01:04:52Z",
    "zip": "57022"
  },
  {
    "address": "1200 E 3rd St",
    "city": "Sioux Falls",
    "county": "Minnehaha County",
    "created_at": "2012-01-04T20:17:24Z",
    "id": 22054,
    "latitude": "43.554848",
    "longitude": "-96.711255",
    "mascot": null,
    "name": "Joe Foss Alternative High School",
    "primary_color": "Red",
    "secondary_color": "Black",
    "state": "SD",
    "timezone": "America/Chicago",
    "updated_at": "2012-07-08T01:04:53Z",
    "zip": "57103"
  },
  {
    "address": "2900 S Cliff Ave",
    "city": "Sioux Falls",
    "county": "Minnehaha County",
    "created_at": "2012-01-04T20:17:24Z",
    "id": 22055,
    "latitude": "43.519295",
    "longitude": "-96.711240",
    "mascot": "Patriots",
    "name": "Lincoln High School",
    "primary_color": "Royal",
    "secondary_color": "Red",
    "state": "SD",
    "timezone": "America/Chicago",
    "updated_at": "2012-07-08T01:04:53Z",
    "zip": "57104"
  },
  {
    "address": "501 N Sycamore",
    "city": "Sioux Falls",
    "county": "Minnehaha County",
    "created_at": "2012-01-04T20:17:24Z",
    "id": 22056,
    "latitude": "43.551475",
    "longitude": "-96.671597",
    "mascot": "Warriors",
    "name": "Washington Senior High School",
    "primary_color": "Orange",
    "secondary_color": "Black",
    "state": "SD",
    "timezone": "America/Chicago",
    "updated_at": "2012-07-08T01:04:53Z",
    "zip": "57110"
  },
  {
    "address": "705 E 2nd St",
    "city": "Hartford",
    "county": "Minnehaha County",
    "created_at": "2012-01-04T20:17:24Z",
    "id": 22057,
    "latitude": "43.623513",
    "longitude": "-96.935167",
    "mascot": "Trojans",
    "name": "West Central High School",
    "primary_color": "Royal",
    "secondary_color": "White",
    "state": "SD",
    "timezone": "America/Chicago",
    "updated_at": "2012-07-08T01:04:54Z",
    "zip": "57033"
  },
  {
    "address": "200 S Loban",
    "city": "Coleman",
    "county": "Moody County",
    "created_at": "2012-01-04T20:17:24Z",
    "id": 22058,
    "latitude": "43.980910",
    "longitude": "-96.811072",
    "mascot": "Hawks",
    "name": "Coleman-Egan Area High School",
    "primary_color": "Gold",
    "secondary_color": "Black",
    "state": "SD",
    "timezone": "America/Chicago",
    "updated_at": "2012-07-08T01:04:54Z",
    "zip": "57017"
  },
  {
    "address": "600 W 1st Ave",
    "city": "Flandreau",
    "county": "Moody County",
    "created_at": "2012-01-04T20:17:24Z",
    "id": 22059,
    "latitude": "44.050488",
    "longitude": "-96.603067",
    "mascot": "Flandreau Fliers",
    "name": "Flandreau Public High School",
    "primary_color": "Gold",
    "secondary_color": "Purple",
    "state": "SD",
    "timezone": "America/Chicago",
    "updated_at": "2012-07-08T01:04:54Z",
    "zip": "57028"
  },
  {
    "address": "420 Patriot Dr",
    "city": "Box Elder",
    "county": "Pennington County",
    "created_at": "2012-01-04T20:17:24Z",
    "id": 22060,
    "latitude": "44.134259",
    "longitude": "-103.064570",
    "mascot": "Patriots",
    "name": "Douglas High School",
    "primary_color": "Red",
    "secondary_color": "Royal",
    "state": "SD",
    "timezone": "America/Denver",
    "updated_at": "2012-07-08T01:04:54Z",
    "zip": "57719"
  },
  {
    "address": "421 Main St",
    "city": "Hill City",
    "county": "Pennington County",
    "created_at": "2012-01-04T20:17:24Z",
    "id": 22061,
    "latitude": "43.929473",
    "longitude": "-103.575855",
    "mascot": "Hill City Rangers",
    "name": "Hill City High School",
    "primary_color": "Kelly Green",
    "secondary_color": "Gold",
    "state": "SD",
    "timezone": "America/Denver",
    "updated_at": "2012-07-08T01:04:55Z",
    "zip": "57745"
  },
  {
    "address": "1200 44th St",
    "city": "Rapid City",
    "county": "Pennington County",
    "created_at": "2012-01-04T20:17:24Z",
    "id": 22062,
    "latitude": "44.073612",
    "longitude": "-103.292368",
    "mascot": "Raiders",
    "name": "Stevens Senior High School",
    "primary_color": "Royal",
    "secondary_color": "Gray",
    "state": "SD",
    "timezone": "America/Denver",
    "updated_at": "2012-07-08T01:04:55Z",
    "zip": "57702"
  },
  {
    "address": "512 Norris St",
    "city": "Wall",
    "county": "Pennington County",
    "created_at": "2012-01-04T20:17:24Z",
    "id": 22063,
    "latitude": "43.993123",
    "longitude": "-102.240323",
    "mascot": "Eagles",
    "name": "Wall School",
    "primary_color": "Gold",
    "secondary_color": "Royal",
    "state": "SD",
    "timezone": "America/Denver",
    "updated_at": "2012-07-08T01:04:55Z",
    "zip": "57790"
  },
  {
    "address": "200 E Carr St",
    "city": "Bison",
    "county": "Perkins County",
    "created_at": "2012-01-04T20:17:24Z",
    "id": 22064,
    "latitude": "45.523435",
    "longitude": "-102.461654",
    "mascot": "Cardinals",
    "name": "Bison School",
    "primary_color": "Red",
    "secondary_color": "White",
    "state": "SD",
    "timezone": "America/Denver",
    "updated_at": "2012-07-08T01:04:55Z",
    "zip": "57620"
  },
  {
    "address": "100 E King Ave",
    "city": "Gettysburg",
    "county": "Potter County",
    "created_at": "2012-01-04T20:17:24Z",
    "id": 22065,
    "latitude": "45.008112",
    "longitude": "-99.955576",
    "mascot": "Battlers",
    "name": "Gettysburg Senior High School",
    "primary_color": "Red",
    "secondary_color": "White",
    "state": "SD",
    "timezone": "America/Chicago",
    "updated_at": "2012-07-08T01:04:56Z",
    "zip": "57442"
  },
  {
    "address": "202 Finley Ave",
    "city": "Rosholt",
    "county": "Roberts County",
    "created_at": "2012-01-04T20:17:24Z",
    "id": 22066,
    "latitude": "45.892707",
    "longitude": "-96.719699",
    "mascot": "Rams",
    "name": "Rosholt High School",
    "primary_color": "Purple",
    "secondary_color": "White",
    "state": "SD",
    "timezone": "America/Chicago",
    "updated_at": "2012-07-08T01:04:56Z",
    "zip": "57260"
  },
  {
    "address": "516 W 8th Ave",
    "city": "Sisseton",
    "county": "Roberts County",
    "created_at": "2012-01-04T20:17:24Z",
    "id": 22067,
    "latitude": "45.664797",
    "longitude": "-97.061127",
    "mascot": "Sisseton Redmen",
    "name": "Sisseton High School",
    "primary_color": "Red",
    "secondary_color": "Black",
    "state": "SD",
    "timezone": "America/Chicago",
    "updated_at": "2012-07-08T01:04:57Z",
    "zip": "57262"
  },
  {
    "address": "800 Ordway St",
    "city": "Wilmot",
    "county": "Roberts County",
    "created_at": "2012-01-04T20:17:24Z",
    "id": 22068,
    "latitude": "45.406672",
    "longitude": "-96.856305",
    "mascot": "Wolves",
    "name": "Wilmot School",
    "primary_color": "Maroon",
    "secondary_color": "White",
    "state": "SD",
    "timezone": "America/Chicago",
    "updated_at": "2012-07-08T01:04:57Z",
    "zip": "57279"
  },
  {
    "address": "101 N 2nd Ave",
    "city": "Woonsocket",
    "county": "Sanborn County",
    "created_at": "2012-01-04T20:17:24Z",
    "id": 22069,
    "latitude": "44.054082",
    "longitude": "-98.278599",
    "mascot": "Indian Chiefs",
    "name": "Woonsocket School",
    "primary_color": "Red",
    "secondary_color": "White",
    "state": "SD",
    "timezone": "America/Chicago",
    "updated_at": "2012-07-08T01:04:57Z",
    "zip": "57385"
  },
  {
    "address": "375 Ash St ",
    "city": "Wolsey",
    "county": "Beadle County",
    "created_at": "2012-01-04T20:17:24Z",
    "id": 22070,
    "latitude": "44.405963",
    "longitude": "-98.473729",
    "mascot": "Warbirds",
    "name": "Wolsey-Wessington School",
    "primary_color": "Black",
    "secondary_color": "Gold",
    "state": "SD",
    "timezone": "America/Chicago",
    "updated_at": "2012-07-08T01:04:57Z",
    "zip": "57384"
  },
  {
    "address": "130 3rd St SW",
    "city": "Conde",
    "county": "Spink County",
    "created_at": "2012-01-04T20:17:24Z",
    "id": 22071,
    "latitude": "45.156904",
    "longitude": "-98.099170",
    "mascot": "Chargers",
    "name": "Conde School",
    "primary_color": "Orange",
    "secondary_color": "Black",
    "state": "SD",
    "timezone": "America/Chicago",
    "updated_at": "2012-07-08T01:04:58Z",
    "zip": "57434"
  },
  {
    "address": "502 E 2nd St",
    "city": "Redfield",
    "county": "Spink County",
    "created_at": "2012-01-04T20:17:24Z",
    "id": 22072,
    "latitude": "44.877982",
    "longitude": "-98.515178",
    "mascot": "Pheasants",
    "name": "Redfield Public School",
    "primary_color": "Royal Blue",
    "secondary_color": "White",
    "state": "SD",
    "timezone": "America/Chicago",
    "updated_at": "2012-07-08T01:04:58Z",
    "zip": "57469"
  },
  {
    "address": "401 4th Ave",
    "city": "Tulare",
    "county": "Spink County",
    "created_at": "2012-01-04T20:17:24Z",
    "id": 22073,
    "latitude": "44.739128",
    "longitude": "-98.509787",
    "mascot": "Chiefs",
    "name": "Tulare High School",
    "primary_color": "Black",
    "secondary_color": "Red",
    "state": "SD",
    "timezone": "America/Chicago",
    "updated_at": "2012-07-08T01:04:58Z",
    "zip": "57476"
  },
  {
    "address": "500 8th St",
    "city": "Onida",
    "county": "Sully County",
    "created_at": "2012-01-04T20:17:24Z",
    "id": 22074,
    "latitude": "44.702884",
    "longitude": "-100.064424",
    "mascot": "Chargers",
    "name": "Sully Buttes School",
    "primary_color": "Gold",
    "secondary_color": "Purple",
    "state": "SD",
    "timezone": "America/Chicago",
    "updated_at": "2012-07-08T01:04:58Z",
    "zip": "57564"
  },
  {
    "address": "E Denver Dr",
    "city": "Mission",
    "county": "Todd County",
    "created_at": "2012-01-04T20:17:24Z",
    "id": 22075,
    "latitude": "43.301253",
    "longitude": "-100.656577",
    "mascot": "Falcons",
    "name": "Todd County High School",
    "primary_color": "Royal",
    "secondary_color": "Gold",
    "state": "SD",
    "timezone": "America/Chicago",
    "updated_at": "2012-07-08T01:04:59Z",
    "zip": "57555"
  },
  {
    "address": "PO Box 519",
    "city": "Mission",
    "county": "Todd County",
    "created_at": "2012-01-04T20:17:24Z",
    "id": 22076,
    "latitude": "43.222301",
    "longitude": "-100.558848",
    "mascot": "Falcons",
    "name": "Special Education School",
    "primary_color": "Gold",
    "secondary_color": "Royal",
    "state": "SD",
    "timezone": "America/Chicago",
    "updated_at": "2012-07-08T01:05:00Z",
    "zip": "57555"
  },
  {
    "address": "105 Carr St",
    "city": "Colome",
    "county": "Tripp County",
    "created_at": "2012-01-04T20:17:24Z",
    "id": 22077,
    "latitude": "43.262433",
    "longitude": "-99.718170",
    "mascot": "Cowboys/Cowgirls",
    "name": "Colome School District 59-1",
    "primary_color": "Kelly Green",
    "secondary_color": "White",
    "state": "SD",
    "timezone": "America/Chicago",
    "updated_at": "2012-07-08T01:05:00Z",
    "zip": "57528"
  },
  {
    "address": "321 S Monroe",
    "city": "Winner",
    "county": "Tripp County",
    "created_at": "2012-01-04T20:17:24Z",
    "id": 22078,
    "latitude": "43.375206",
    "longitude": "-99.858377",
    "mascot": "Warriors",
    "name": "Winner High School",
    "primary_color": "Purple",
    "secondary_color": "Gold",
    "state": "SD",
    "timezone": "America/Chicago",
    "updated_at": "2012-07-08T01:05:00Z",
    "zip": "57580"
  },
  {
    "address": "301 W Maple St",
    "city": "Beresford",
    "county": "Union County",
    "created_at": "2012-01-04T20:17:24Z",
    "id": 22079,
    "latitude": "43.076311",
    "longitude": "-96.776977",
    "mascot": "Watchdogs",
    "name": "Beresford High School",
    "primary_color": "Purple",
    "secondary_color": "White",
    "state": "SD",
    "timezone": "America/Chicago",
    "updated_at": "2012-07-08T01:05:01Z",
    "zip": "57004"
  },
  {
    "address": "47256 297th St Hwy 46",
    "city": "Beresford",
    "county": "Union County",
    "created_at": "2012-01-04T20:17:24Z",
    "id": 22080,
    "latitude": "43.070100",
    "longitude": "-96.786031",
    "mascot": null,
    "name": "Woodfield Center School",
    "primary_color": "Purple",
    "secondary_color": "White",
    "state": "SD",
    "timezone": "America/Chicago",
    "updated_at": "2012-07-08T01:05:01Z",
    "zip": "57004"
  },
  {
    "address": "114 E 10th St",
    "city": "Mobridge",
    "county": "Walworth County",
    "created_at": "2012-01-04T20:17:24Z",
    "id": 22081,
    "latitude": "45.542458",
    "longitude": "-100.433521",
    "mascot": "Tigers",
    "name": "Mobridge High School",
    "primary_color": "Orange",
    "secondary_color": "Black",
    "state": "SD",
    "timezone": "America/Chicago",
    "updated_at": "2012-07-08T01:05:01Z",
    "zip": "57601"
  },
  {
    "address": "114 E 10th St",
    "city": "Mobridge",
    "county": "Walworth County",
    "created_at": "2012-01-04T20:17:24Z",
    "id": 22082,
    "latitude": "45.542458",
    "longitude": "-100.433521",
    "mascot": "Tigers",
    "name": "Mobridge Middle School",
    "primary_color": "Orange",
    "secondary_color": "Black",
    "state": "SD",
    "timezone": "America/Chicago",
    "updated_at": "2012-07-08T01:05:01Z",
    "zip": "57601"
  },
  {
    "address": "100 Kingsbury St",
    "city": "Gayville",
    "county": "Yankton County",
    "created_at": "2012-01-04T20:17:24Z",
    "id": 22083,
    "latitude": "42.892550",
    "longitude": "-97.173909",
    "mascot": "Raiders",
    "name": "Gayville-Volin School",
    "primary_color": "Gold",
    "secondary_color": "Navy",
    "state": "SD",
    "timezone": "America/Chicago",
    "updated_at": "2012-07-08T01:05:01Z",
    "zip": "57031"
  },
  {
    "address": "1801 Summit St",
    "city": "Yankton",
    "county": "Yankton County",
    "created_at": "2012-01-04T20:17:24Z",
    "id": 22084,
    "latitude": "42.883919",
    "longitude": "-97.407254",
    "mascot": "Bucks And Gazelles",
    "name": "Yankton High School",
    "primary_color": "Red",
    "secondary_color": "Black",
    "state": "SD",
    "timezone": "America/Chicago",
    "updated_at": "2012-07-08T01:05:02Z",
    "zip": "57078"
  },
  {
    "address": "10 E Main",
    "city": "Dupree",
    "county": "Ziebach County",
    "created_at": "2012-01-04T20:17:24Z",
    "id": 22085,
    "latitude": "45.053735",
    "longitude": "-101.603138",
    "mascot": "Tigers",
    "name": "Dupree School",
    "primary_color": "Gold",
    "secondary_color": "Purple",
    "state": "SD",
    "timezone": "America/Denver",
    "updated_at": "2012-07-08T01:05:02Z",
    "zip": "57623"
  },
  {
    "address": "400 Illinois",
    "city": "Platte",
    "county": "Charles Mix County",
    "created_at": "2012-01-04T20:17:24Z",
    "id": 22086,
    "latitude": "43.387102",
    "longitude": "-98.839217",
    "mascot": "Panthers",
    "name": "Platte Community School",
    "primary_color": "Maroon",
    "secondary_color": "White",
    "state": "SD",
    "timezone": "America/Chicago",
    "updated_at": "2012-07-08T01:05:02Z",
    "zip": "57369"
  },
  {
    "address": "405 Humphrey Dr",
    "city": "Doland",
    "county": "Spink County",
    "created_at": "2012-01-04T20:17:24Z",
    "id": 22087,
    "latitude": "44.897139",
    "longitude": "-98.101804",
    "mascot": "Chargers",
    "name": "Doland High School",
    "primary_color": "Orange",
    "secondary_color": "Black",
    "state": "SD",
    "timezone": "America/Chicago",
    "updated_at": "2012-07-08T01:05:03Z",
    "zip": "57436"
  },
  {
    "address": "HC 77 Box 537",
    "city": "Howes",
    "county": "Meade County",
    "created_at": "2012-01-04T20:17:24Z",
    "id": 22088,
    "latitude": "44.598480",
    "longitude": "-102.181325",
    "mascot": "Skyhawks",
    "name": "Takini School",
    "primary_color": "Royal",
    "secondary_color": "Gray",
    "state": "SD",
    "timezone": "America/Denver",
    "updated_at": "2012-07-08T01:05:03Z",
    "zip": "57748"
  },
  {
    "address": "101 Thorpe Cir",
    "city": "Pine Ridge",
    "county": "Shannon County",
    "created_at": "2012-01-04T20:17:24Z",
    "id": 22089,
    "latitude": "43.270587",
    "longitude": "-102.714165",
    "mascot": "Thorpes",
    "name": "Pine Ridge School",
    "primary_color": "Red",
    "secondary_color": "White",
    "state": "SD",
    "timezone": "America/Denver",
    "updated_at": "2012-07-08T01:05:03Z",
    "zip": "57770"
  },
  {
    "address": "801 18th SW",
    "city": "Huron",
    "county": "Beadle County",
    "created_at": "2012-01-04T20:17:24Z",
    "id": 22090,
    "latitude": "44.345400",
    "longitude": "-98.227676",
    "mascot": "Tigers",
    "name": "Huron High School",
    "primary_color": "Orange",
    "secondary_color": "Black",
    "state": "SD",
    "timezone": "America/Chicago",
    "updated_at": "2012-07-08T01:05:03Z",
    "zip": "57350"
  },
  {
    "address": "700 Elm Ave",
    "city": "Brookings",
    "county": "Brookings County",
    "created_at": "2012-01-04T20:17:24Z",
    "id": 22091,
    "latitude": "44.298008",
    "longitude": "-96.782228",
    "mascot": null,
    "name": "East Central Multi District School",
    "primary_color": "Royal",
    "secondary_color": "White",
    "state": "SD",
    "timezone": "America/Chicago",
    "updated_at": "2012-07-08T01:05:04Z",
    "zip": "57006"
  },
  {
    "address": "504 3rd Ave",
    "city": "Brookings",
    "county": "Brookings County",
    "created_at": "2012-01-04T20:17:24Z",
    "id": 22092,
    "latitude": "44.310479",
    "longitude": "-96.800261",
    "mascot": null,
    "name": "Select High School",
    "primary_color": null,
    "secondary_color": null,
    "state": "SD",
    "timezone": "America/Chicago",
    "updated_at": "2012-07-08T01:05:04Z",
    "zip": "57006"
  },
  {
    "address": "640 9th Ave SW",
    "city": "Aberdeen",
    "county": "Brown County",
    "created_at": "2012-01-04T20:17:24Z",
    "id": 22093,
    "latitude": "45.456125",
    "longitude": "-98.496262",
    "mascot": null,
    "name": "Hub Area Technical School",
    "primary_color": null,
    "secondary_color": null,
    "state": "SD",
    "timezone": "America/Chicago",
    "updated_at": "2012-07-08T01:05:04Z",
    "zip": "57401"
  },
  {
    "address": "147 N 5th St",
    "city": "Custer",
    "county": "Custer County",
    "created_at": "2012-01-04T20:17:24Z",
    "id": 22094,
    "latitude": "43.767989",
    "longitude": "-103.601058",
    "mascot": "Wildcats",
    "name": "Custer Alternative School",
    "primary_color": "Purple",
    "secondary_color": "Gold",
    "state": "SD",
    "timezone": "America/Denver",
    "updated_at": "2012-07-08T01:05:04Z",
    "zip": "57730"
  },
  {
    "address": "117 E 4th Ave",
    "city": "Mitchell",
    "county": "Davison County",
    "created_at": "2012-01-04T20:17:24Z",
    "id": 22095,
    "latitude": "43.712444",
    "longitude": "-98.025169",
    "mascot": "Ears Of Corn",
    "name": "Second Chance High School",
    "primary_color": "Black",
    "secondary_color": "Gold",
    "state": "SD",
    "timezone": "America/Chicago",
    "updated_at": "2012-07-08T01:05:05Z",
    "zip": "57301"
  },
  {
    "address": "Nemo Rd",
    "city": "Nemo",
    "county": "Lawrence County",
    "created_at": "2012-01-04T20:17:24Z",
    "id": 22096,
    "latitude": "44.201304",
    "longitude": "-103.504175",
    "mascot": "Bobcats",
    "name": "Black Hills Forest High School",
    "primary_color": "Royal",
    "secondary_color": "White",
    "state": "SD",
    "timezone": "America/Denver",
    "updated_at": "2012-07-08T01:05:05Z",
    "zip": "57759"
  },
  {
    "address": "1725 N Main St",
    "city": "Spearfish",
    "county": "Lawrence County",
    "created_at": "2012-01-04T20:17:24Z",
    "id": 22097,
    "latitude": "44.500522",
    "longitude": "-103.861255",
    "mascot": "Spartans",
    "name": "Spearfish High School",
    "primary_color": "Maroon",
    "secondary_color": "White",
    "state": "SD",
    "timezone": "America/Denver",
    "updated_at": "2012-07-08T01:05:06Z",
    "zip": "57783"
  },
  {
    "address": "6600 W 41st St",
    "city": "Sioux Falls",
    "county": "Minnehaha County",
    "created_at": "2012-01-04T20:17:24Z",
    "id": 22098,
    "latitude": "43.514834",
    "longitude": "-96.807470",
    "mascot": "Rough Riders",
    "name": "Roosevelt High School",
    "primary_color": "Gold",
    "secondary_color": "Maroon",
    "state": "SD",
    "timezone": "America/Chicago",
    "updated_at": "2012-07-08T01:05:06Z",
    "zip": "57106"
  },
  {
    "address": "46450 252nd St",
    "city": "Colton",
    "county": "Minnehaha County",
    "created_at": "2012-01-04T20:17:24Z",
    "id": 22099,
    "latitude": "43.732130",
    "longitude": "-96.871209",
    "mascot": "Mustangs",
    "name": "Tri-Valley High School",
    "primary_color": "Maroon",
    "secondary_color": "White",
    "state": "SD",
    "timezone": "America/Chicago",
    "updated_at": "2012-07-08T01:05:06Z",
    "zip": "57018"
  },
  {
    "address": "21 St Joe Rd",
    "city": "Rapid City",
    "county": "Pennington County",
    "created_at": "2012-01-04T20:17:24Z",
    "id": 22100,
    "latitude": "44.081165",
    "longitude": "-103.230889",
    "mascot": "Jaguars",
    "name": "Jefferson Academy",
    "primary_color": "Teal",
    "secondary_color": "Purple",
    "state": "SD",
    "timezone": "America/Denver",
    "updated_at": "2012-07-08T01:05:07Z",
    "zip": "57701"
  },
  {
    "address": "100 E King Ave",
    "city": "Gettysburg",
    "county": "Potter County",
    "created_at": "2012-01-04T20:17:24Z",
    "id": 22101,
    "latitude": "45.008112",
    "longitude": "-99.955576",
    "mascot": "Battlers",
    "name": "Gettysburg Middle School",
    "primary_color": "Ash Grey",
    "secondary_color": "Red",
    "state": "SD",
    "timezone": "America/Chicago",
    "updated_at": "2012-07-08T01:05:07Z",
    "zip": "57442"
  },
  {
    "address": "707 Rosebud St",
    "city": "Gregory",
    "county": "Gregory County",
    "created_at": "2012-01-04T20:17:24Z",
    "id": 22102,
    "latitude": "43.233530",
    "longitude": "-99.429253",
    "mascot": "Gorillas",
    "name": "Gregory High School",
    "primary_color": "Red",
    "secondary_color": "White",
    "state": "SD",
    "timezone": "America/Chicago",
    "updated_at": "2012-07-08T01:05:07Z",
    "zip": "57533"
  },
  {
    "address": "800 NE 9th St",
    "city": "Madison",
    "county": "Lake County",
    "created_at": "2012-01-04T20:17:24Z",
    "id": 22103,
    "latitude": "44.015034",
    "longitude": "-97.103700",
    "mascot": "Bulldogs",
    "name": "Madison High School",
    "primary_color": "Maroon",
    "secondary_color": "White",
    "state": "SD",
    "timezone": "America/Chicago",
    "updated_at": "2012-07-08T01:05:07Z",
    "zip": "57042"
  },
  {
    "address": "1150 Northshore Dr",
    "city": "North Sioux City",
    "county": "Union County",
    "created_at": "2012-01-04T20:17:24Z",
    "id": 22104,
    "latitude": "42.550198",
    "longitude": "-96.509460",
    "mascot": "Panthers",
    "name": "Dakota Valley High School",
    "primary_color": "Purple",
    "secondary_color": "Black",
    "state": "SD",
    "timezone": "America/Chicago",
    "updated_at": "2012-07-08T01:05:08Z",
    "zip": "57049"
  },
  {
    "address": "1404 Fir St",
    "city": "Tyndall",
    "county": "Bon Homme County",
    "created_at": "2012-01-04T20:17:24Z",
    "id": 22105,
    "latitude": "42.989341",
    "longitude": "-97.868217",
    "mascot": "Cavaliers",
    "name": "Bon Homme School",
    "primary_color": "White",
    "secondary_color": "Columbia Blue",
    "state": "SD",
    "timezone": "America/Chicago",
    "updated_at": "2012-07-08T01:05:08Z",
    "zip": "57066"
  },
  {
    "address": "2nd & Brock",
    "city": "White River",
    "county": "Mellette County",
    "created_at": "2012-01-04T20:17:24Z",
    "id": 22106,
    "latitude": "43.566730",
    "longitude": "-100.744029",
    "mascot": "Tigers",
    "name": "White River High School",
    "primary_color": "Gold",
    "secondary_color": "Purple",
    "state": "SD",
    "timezone": "America/Chicago",
    "updated_at": "2012-07-08T01:05:08Z",
    "zip": "57579"
  },
  {
    "address": "230 6th St",
    "city": "Alexandria",
    "county": "Hanson County",
    "created_at": "2012-01-04T20:17:24Z",
    "id": 22107,
    "latitude": "43.655465",
    "longitude": "-97.785085",
    "mascot": "Beavers",
    "name": "Hanson School",
    "primary_color": "Royal",
    "secondary_color": "White",
    "state": "SD",
    "timezone": "America/Chicago",
    "updated_at": "2012-07-08T01:05:09Z",
    "zip": "57311"
  },
  {
    "address": "204 West 5th",
    "city": "Faith",
    "county": "Meade County",
    "created_at": "2012-01-04T20:17:24Z",
    "id": 22108,
    "latitude": "45.019137",
    "longitude": "-102.041516",
    "mascot": "Longhorns",
    "name": "Faith School",
    "primary_color": "Orange",
    "secondary_color": "Black",
    "state": "SD",
    "timezone": "America/Denver",
    "updated_at": "2012-07-08T01:05:09Z",
    "zip": "57626"
  },
  {
    "address": "1200 Luther Ln NE",
    "city": "Watertown",
    "county": "Codington County",
    "created_at": "2012-01-04T20:17:24Z",
    "id": 22109,
    "latitude": "44.912960",
    "longitude": "-97.118211",
    "mascot": "Panthers",
    "name": "Great Plains Lutheran High School",
    "primary_color": "Navy",
    "secondary_color": "White",
    "state": "SD",
    "timezone": "America/Chicago",
    "updated_at": "2012-07-08T01:05:09Z",
    "zip": "57201"
  },
  {
    "address": "433 Mount Rushmore Rd",
    "city": "Rapid City",
    "county": "Pennington County",
    "created_at": "2012-01-04T20:17:24Z",
    "id": 22110,
    "latitude": "44.082357",
    "longitude": "-103.230521",
    "mascot": "Cobblers",
    "name": "Rapid City Central High School",
    "primary_color": "Red",
    "secondary_color": "White",
    "state": "SD",
    "timezone": "America/Denver",
    "updated_at": "2012-07-08T01:05:09Z",
    "zip": "57701"
  },
  {
    "address": "1005 S Mountain Chief Dr",
    "city": "Flandreau",
    "county": "Moody County",
    "created_at": "2012-01-04T20:17:24Z",
    "id": 22111,
    "latitude": "44.065742",
    "longitude": "-96.623269",
    "mascot": null,
    "name": "Flandreau Indian High School",
    "primary_color": null,
    "secondary_color": null,
    "state": "SD",
    "timezone": "America/Chicago",
    "updated_at": "2012-07-08T01:05:10Z",
    "zip": "57028"
  },
  {
    "address": "15 12th Ave NE",
    "city": "Watertown",
    "county": "Codington County",
    "created_at": "2012-01-04T20:17:24Z",
    "id": 22112,
    "latitude": "44.916310",
    "longitude": "-97.112373",
    "mascot": "Eagles",
    "name": "Watertown Christian School",
    "primary_color": "Purple",
    "secondary_color": "Gold",
    "state": "SD",
    "timezone": "America/Chicago",
    "updated_at": "2012-07-08T01:05:10Z",
    "zip": "57201"
  },
  {
    "address": "600 S Cliff Ave",
    "city": "Harrisburg",
    "county": "Lincoln County",
    "created_at": "2012-01-04T20:17:24Z",
    "id": 22113,
    "latitude": "43.427045",
    "longitude": "-96.707626",
    "mascot": "Tigers",
    "name": "Harrisburg High School",
    "primary_color": "Maroon",
    "secondary_color": "Gold",
    "state": "SD",
    "timezone": "America/Chicago",
    "updated_at": "2012-07-08T01:05:10Z",
    "zip": "57032"
  },
  {
    "address": "100 Mission Dr",
    "city": "Pine Ridge",
    "county": "Shannon County",
    "created_at": "2012-01-04T20:17:24Z",
    "id": 22114,
    "latitude": "43.270587",
    "longitude": "-102.714165",
    "mascot": "Crusaders",
    "name": "Red Cloud High School",
    "primary_color": "Red",
    "secondary_color": "White",
    "state": "SD",
    "timezone": "America/Denver",
    "updated_at": "2012-07-08T01:05:10Z",
    "zip": "57770"
  },
  {
    "address": "1109 West Cedar",
    "city": "Beresford",
    "county": "Union County",
    "created_at": "2012-01-04T20:17:24Z",
    "id": 22115,
    "latitude": "43.083673",
    "longitude": "-96.786806",
    "mascot": null,
    "name": "Aspire High School",
    "primary_color": null,
    "secondary_color": null,
    "state": "SD",
    "timezone": "America/Chicago",
    "updated_at": "2012-07-08T01:05:11Z",
    "zip": "57004"
  },
  {
    "address": "500 W Bryan St",
    "city": "Tea",
    "county": "Lincoln County",
    "created_at": "2012-01-04T20:17:24Z",
    "id": 22116,
    "latitude": "43.453789",
    "longitude": "-96.841486",
    "mascot": "Titans",
    "name": "Tea Area Middle/High School",
    "primary_color": "Blue",
    "secondary_color": "Yellow",
    "state": "SD",
    "timezone": "America/Chicago",
    "updated_at": "2012-07-08T01:05:11Z",
    "zip": "57064"
  },
  {
    "address": "180 Old Stone Rd",
    "city": "Sturgis",
    "county": "Meade County",
    "created_at": "2012-01-04T20:17:24Z",
    "id": 22117,
    "latitude": "44.394596",
    "longitude": "-103.491972",
    "mascot": null,
    "name": "Believers Fellowship School",
    "primary_color": null,
    "secondary_color": null,
    "state": "SD",
    "timezone": "America/Denver",
    "updated_at": "2012-07-08T01:05:12Z",
    "zip": "57785"
  },
  {
    "address": "130 E State St",
    "city": "Irene",
    "county": "Turner County",
    "created_at": "2012-01-04T20:17:24Z",
    "id": 22118,
    "latitude": "43.085121",
    "longitude": "-97.157391",
    "mascot": "Eagles",
    "name": "Irene-Wakonda Jr/Sr High School",
    "primary_color": "Royal Blue",
    "secondary_color": "Black",
    "state": "SD",
    "timezone": "America/Chicago",
    "updated_at": "2012-07-08T01:05:12Z",
    "zip": "57037"
  }
]