[
  {
    "address": "3911 Ave I",
    "city": "Rosenberg",
    "county": "Fort Bend County",
    "created_at": "2012-01-04T20:17:33Z",
    "id": 22690,
    "latitude": "29.557819",
    "longitude": "-95.786637",
    "mascot": null,
    "name": "1621 Place Alternative School",
    "primary_color": null,
    "secondary_color": null,
    "state": "TX",
    "timezone": "America/Chicago",
    "updated_at": "2012-07-08T01:07:59Z",
    "zip": "77471"
  },
  {
    "address": "1801 Harvey Mitchell Pky S",
    "city": "College Station",
    "county": "Brazos County",
    "created_at": "2012-01-04T20:17:33Z",
    "id": 22691,
    "latitude": "30.590048",
    "longitude": "-96.316228",
    "mascot": "Tigers",
    "name": "A & M Consolidated High School",
    "primary_color": "Maroon",
    "secondary_color": "White",
    "state": "TX",
    "timezone": "America/Chicago",
    "updated_at": "2012-07-08T01:07:59Z",
    "zip": "77840"
  },
  {
    "address": "1902 N Adams St",
    "city": "Beeville",
    "county": "Bee County",
    "created_at": "2012-01-04T20:17:33Z",
    "id": 22692,
    "latitude": "28.419037",
    "longitude": "-97.754262",
    "mascot": "Trojans",
    "name": "A C Jones High School",
    "primary_color": "Orange",
    "secondary_color": "White",
    "state": "TX",
    "timezone": "America/Chicago",
    "updated_at": "2012-07-08T01:07:59Z",
    "zip": "78102"
  },
  {
    "address": "500 N University Park Dr",
    "city": "Waco",
    "county": "McLennan County",
    "created_at": "2012-01-04T20:17:33Z",
    "id": 22693,
    "latitude": "31.562665",
    "longitude": "-97.131971",
    "mascot": "Bulldogs",
    "name": "A J Moore Academy",
    "primary_color": "Royal",
    "secondary_color": "White",
    "state": "TX",
    "timezone": "America/Chicago",
    "updated_at": "2012-07-08T01:08:00Z",
    "zip": "76702"
  },
  {
    "address": "6817 Telephone Rd",
    "city": "Lake Worth",
    "county": "Tarrant County",
    "created_at": "2012-01-04T20:17:33Z",
    "id": 22694,
    "latitude": "32.812128",
    "longitude": "-97.437903",
    "mascot": "Bullfrogs",
    "name": "A M Sullivan High School",
    "primary_color": "Green",
    "secondary_color": "Black",
    "state": "TX",
    "timezone": "America/Chicago",
    "updated_at": "2012-07-08T01:08:00Z",
    "zip": "76135"
  },
  {
    "address": "3030 Stag Rd",
    "city": "Dallas",
    "county": "Dallas County",
    "created_at": "2012-01-04T20:17:33Z",
    "id": 22695,
    "latitude": "32.692787",
    "longitude": "-96.767394",
    "mascot": "Falcons",
    "name": "A Maceo Smith High School",
    "primary_color": "Silver",
    "secondary_color": "Royal",
    "state": "TX",
    "timezone": "America/Chicago",
    "updated_at": "2012-07-08T01:08:00Z",
    "zip": "75241"
  },
  {
    "address": "5878 Bellfort Blvd",
    "city": "Houston",
    "county": "Harris County",
    "created_at": "2012-01-04T20:17:33Z",
    "id": 22696,
    "latitude": "29.666347",
    "longitude": "-95.329554",
    "mascot": "Eagles",
    "name": "A R Carethers Academy",
    "primary_color": "Gold",
    "secondary_color": "Navy",
    "state": "TX",
    "timezone": "America/Chicago",
    "updated_at": "2012-07-08T01:08:01Z",
    "zip": "77033"
  },
  {
    "address": "10327 Rylie Rd",
    "city": "Dallas",
    "county": "Dallas County",
    "created_at": "2012-01-04T20:17:33Z",
    "id": 22697,
    "latitude": "32.690513",
    "longitude": "-96.643550",
    "mascot": null,
    "name": "A+ Academy",
    "primary_color": null,
    "secondary_color": null,
    "state": "TX",
    "timezone": "America/Chicago",
    "updated_at": "2012-07-08T01:08:01Z",
    "zip": "75217"
  },
  {
    "address": "219 S 1st St",
    "city": "Abbott",
    "county": "Hill County",
    "created_at": "2012-01-04T20:17:33Z",
    "id": 22698,
    "latitude": "31.884229",
    "longitude": "-97.076109",
    "mascot": "Panthers",
    "name": "Abbott School",
    "primary_color": "Gold",
    "secondary_color": "Black",
    "state": "TX",
    "timezone": "America/Chicago",
    "updated_at": "2012-07-08T01:08:02Z",
    "zip": "76621"
  },
  {
    "address": "505 7th St",
    "city": "Abernathy",
    "county": "Hale County",
    "created_at": "2012-01-04T20:17:33Z",
    "id": 22699,
    "latitude": "33.830291",
    "longitude": "-101.844465",
    "mascot": "Antelopes",
    "name": "Abernathy High School",
    "primary_color": "Maroon",
    "secondary_color": "White",
    "state": "TX",
    "timezone": "America/Chicago",
    "updated_at": "2012-07-08T01:08:02Z",
    "zip": "79311"
  },
  {
    "address": "2550 N Judge Ely Blvd",
    "city": "Abilene",
    "county": "Taylor County",
    "created_at": "2012-01-04T20:17:33Z",
    "id": 22700,
    "latitude": "32.478600",
    "longitude": "-99.708029",
    "mascot": "Panthers",
    "name": "Abilene Christian School",
    "primary_color": "Navy",
    "secondary_color": "Yellow",
    "state": "TX",
    "timezone": "America/Chicago",
    "updated_at": "2012-07-08T01:08:03Z",
    "zip": "79601"
  },
  {
    "address": "2800 N 6th St",
    "city": "Abilene",
    "county": "Taylor County",
    "created_at": "2012-01-04T20:17:33Z",
    "id": 22701,
    "latitude": "32.455287",
    "longitude": "-99.755849",
    "mascot": "Eagles",
    "name": "Abilene High School",
    "primary_color": "Black",
    "secondary_color": "Gold",
    "state": "TX",
    "timezone": "America/Chicago",
    "updated_at": "2012-07-08T01:08:03Z",
    "zip": "79602"
  },
  {
    "address": "1023 Abe Lincoln Ave",
    "city": "Port Arthur",
    "county": "Jefferson County",
    "created_at": "2012-01-04T20:17:33Z",
    "id": 22702,
    "latitude": "29.866727",
    "longitude": "-93.948713",
    "mascot": "Bumble Bees",
    "name": "Abraham Lincoln High School",
    "primary_color": "Gold",
    "secondary_color": "Purple",
    "state": "TX",
    "timezone": "America/Chicago",
    "updated_at": "2012-07-08T01:08:03Z",
    "zip": "77640"
  },
  {
    "address": "4950 Jack C Hays Trl",
    "city": "Buda",
    "county": "Hays County",
    "created_at": "2012-01-04T20:17:33Z",
    "id": 22703,
    "latitude": "30.028494",
    "longitude": "-97.889442",
    "mascot": null,
    "name": "Academy at Hays",
    "primary_color": "Blue",
    "secondary_color": "White",
    "state": "TX",
    "timezone": "America/Chicago",
    "updated_at": "2012-07-08T01:08:03Z",
    "zip": "78610"
  },
  {
    "address": "602 E Main St",
    "city": "Little River",
    "county": "Bell County",
    "created_at": "2012-01-04T20:17:33Z",
    "id": 22704,
    "latitude": "30.982099",
    "longitude": "-97.346381",
    "mascot": "Bumble Bees",
    "name": "Academy High School",
    "primary_color": "Gold",
    "secondary_color": "Kelly Green",
    "state": "TX",
    "timezone": "America/Chicago",
    "updated_at": "2012-07-08T01:08:04Z",
    "zip": "76554"
  },
  {
    "address": "1055 W Santa Gertrudis TAMUK",
    "city": "Kingsville",
    "county": "Kleberg County",
    "created_at": "2012-01-04T20:17:33Z",
    "id": 22705,
    "latitude": "27.522502",
    "longitude": "-97.883135",
    "mascot": "Prides",
    "name": "Academy High School",
    "primary_color": "Gray",
    "secondary_color": "White",
    "state": "TX",
    "timezone": "America/Chicago",
    "updated_at": "2012-07-08T01:08:04Z",
    "zip": "78363"
  },
  {
    "address": "6812 Bandera Rd",
    "city": "San Antonio",
    "county": "Bexar County",
    "created_at": "2012-01-04T20:17:33Z",
    "id": 22706,
    "latitude": "29.496692",
    "longitude": "-98.620697",
    "mascot": null,
    "name": "Academy Of Careers & Technologies",
    "primary_color": null,
    "secondary_color": null,
    "state": "TX",
    "timezone": "America/Chicago",
    "updated_at": "2012-07-08T01:08:05Z",
    "zip": "78238"
  },
  {
    "address": "3736 Perrin Central Bldg 1",
    "city": "San Antonio",
    "county": "Bexar County",
    "created_at": "2012-01-04T20:17:33Z",
    "id": 22707,
    "latitude": "29.536347",
    "longitude": "-98.417197",
    "mascot": "Old Glory",
    "name": "Academy Of Creative Education",
    "primary_color": "Red",
    "secondary_color": "White",
    "state": "TX",
    "timezone": "America/Chicago",
    "updated_at": "2012-07-08T01:08:07Z",
    "zip": "78217"
  },
  {
    "address": "5800 Uvalde St",
    "city": "Houston",
    "county": "Harris County",
    "created_at": "2012-01-04T20:17:33Z",
    "id": 22708,
    "latitude": "29.810435",
    "longitude": "-95.182401",
    "mascot": null,
    "name": "Accelerated Center for Education",
    "primary_color": null,
    "secondary_color": null,
    "state": "TX",
    "timezone": "America/Chicago",
    "updated_at": "2012-07-08T01:08:07Z",
    "zip": "77049"
  },
  {
    "address": "101 East Expressway 83 ",
    "city": "La Joya",
    "county": "Hidalgo County",
    "created_at": "2012-01-04T20:17:33Z",
    "id": 22709,
    "latitude": "26.248182",
    "longitude": "-98.479185",
    "mascot": "Coyotes",
    "name": "ACE Center",
    "primary_color": "Red",
    "secondary_color": "White",
    "state": "TX",
    "timezone": "America/Chicago",
    "updated_at": "2012-07-08T01:08:07Z",
    "zip": "78560"
  },
  {
    "address": "703 Big Bend Tr",
    "city": "Glen Rose",
    "county": "Somervell County",
    "created_at": "2012-01-04T20:17:33Z",
    "id": 22710,
    "latitude": "32.241135",
    "longitude": "-97.751593",
    "mascot": null,
    "name": "Ace School",
    "primary_color": null,
    "secondary_color": null,
    "state": "TX",
    "timezone": "America/Chicago",
    "updated_at": "2012-07-08T01:08:08Z",
    "zip": "76043"
  },
  {
    "address": "1 Duvall Street",
    "city": "McKinney",
    "county": "Collin County",
    "created_at": "2012-01-04T20:17:33Z",
    "id": 22711,
    "latitude": "33.205187",
    "longitude": "-96.631765",
    "mascot": null,
    "name": "ACT Academy",
    "primary_color": "Maroon",
    "secondary_color": "Hunter Green",
    "state": "TX",
    "timezone": "America/Chicago",
    "updated_at": "2012-07-08T01:08:08Z",
    "zip": "75069"
  },
  {
    "address": "901 E 3rd St",
    "city": "Alice",
    "county": "Jim Wells County",
    "created_at": "2012-01-04T20:17:33Z",
    "id": 22712,
    "latitude": "27.753168",
    "longitude": "-98.067701",
    "mascot": "Coyotes",
    "name": "Adams Junior High School",
    "primary_color": "Orange",
    "secondary_color": "White",
    "state": "TX",
    "timezone": "America/Chicago",
    "updated_at": "2012-07-08T01:08:08Z",
    "zip": "78332"
  },
  {
    "address": "301 Matadore St",
    "city": "Adrian",
    "county": "Oldham County",
    "created_at": "2012-01-04T20:17:33Z",
    "id": 22713,
    "latitude": "35.275087",
    "longitude": "-102.665640",
    "mascot": "Matadors",
    "name": "Adrian School",
    "primary_color": "Maroon",
    "secondary_color": "White",
    "state": "TX",
    "timezone": "America/Chicago",
    "updated_at": "2012-07-08T01:08:09Z",
    "zip": "79001"
  },
  {
    "address": "1 Longhorn Dr",
    "city": "Agua Dulce",
    "county": "Nueces County",
    "created_at": "2012-01-04T20:17:33Z",
    "id": 22714,
    "latitude": "27.784338",
    "longitude": "-97.913882",
    "mascot": "Longhorns",
    "name": "Agua Dulce Junior Senior High School",
    "primary_color": "Maroon",
    "secondary_color": "White",
    "state": "TX",
    "timezone": "America/Chicago",
    "updated_at": "2012-07-08T01:08:09Z",
    "zip": "78330"
  },
  {
    "address": "500 Stadium St",
    "city": "Vidor",
    "county": "Orange County",
    "created_at": "2012-01-04T20:17:33Z",
    "id": 22715,
    "latitude": "30.125440",
    "longitude": "-94.006078",
    "mascot": null,
    "name": "Aim Center",
    "primary_color": null,
    "secondary_color": null,
    "state": "TX",
    "timezone": "America/Chicago",
    "updated_at": "2012-07-08T01:08:09Z",
    "zip": "77662"
  },
  {
    "address": "4803 Plaza Blvd",
    "city": "Odessa",
    "county": "Ector County",
    "created_at": "2012-01-04T20:17:33Z",
    "id": 22716,
    "latitude": "31.900124",
    "longitude": "-102.338100",
    "mascot": "Phoenix",
    "name": "Aim High School",
    "primary_color": "Red",
    "secondary_color": "Black",
    "state": "TX",
    "timezone": "America/Chicago",
    "updated_at": "2012-07-08T01:08:14Z",
    "zip": "79762"
  },
  {
    "address": "237 W Travis",
    "city": "San Antonio",
    "county": "Bexar County",
    "created_at": "2012-01-04T20:17:34Z",
    "id": 22717,
    "latitude": "29.427410",
    "longitude": "-98.495174",
    "mascot": "Tigers",
    "name": "Alamo Achievement Center",
    "primary_color": "Gray",
    "secondary_color": "Navy",
    "state": "TX",
    "timezone": "America/Chicago",
    "updated_at": "2012-07-08T01:08:15Z",
    "zip": "78205"
  },
  {
    "address": "6900 Broadway St",
    "city": "San Antonio",
    "county": "Bexar County",
    "created_at": "2012-01-04T20:17:34Z",
    "id": 22718,
    "latitude": "29.490689",
    "longitude": "-98.466526",
    "mascot": "Mules",
    "name": "Alamo Heights High School",
    "primary_color": "Gold",
    "secondary_color": "Royal",
    "state": "TX",
    "timezone": "America/Chicago",
    "updated_at": "2012-07-08T01:08:16Z",
    "zip": "78209"
  },
  {
    "address": "1373 County Rd 2377",
    "city": "Alba",
    "county": "Wood County",
    "created_at": "2012-01-04T20:17:34Z",
    "id": 22719,
    "latitude": "32.759629",
    "longitude": "-95.586857",
    "mascot": "Panthers",
    "name": "Alba-Golden Junior Senior High School",
    "primary_color": "Red",
    "secondary_color": "Royal",
    "state": "TX",
    "timezone": "America/Chicago",
    "updated_at": "2012-07-08T01:08:16Z",
    "zip": "75410"
  },
  {
    "address": "501 E S 1st St",
    "city": "Albany",
    "county": "Shackelford County",
    "created_at": "2012-01-04T20:17:34Z",
    "id": 22720,
    "latitude": "32.724750",
    "longitude": "-99.299029",
    "mascot": "Lions",
    "name": "Albany Junior Senior High School",
    "primary_color": "Red",
    "secondary_color": "White",
    "state": "TX",
    "timezone": "America/Chicago",
    "updated_at": "2012-07-08T01:08:17Z",
    "zip": "76430"
  },
  {
    "address": "11101 Airline Dr",
    "city": "Houston",
    "county": "Harris County",
    "created_at": "2012-01-04T20:17:34Z",
    "id": 22721,
    "latitude": "29.916970",
    "longitude": "-95.405785",
    "mascot": "Mustangs",
    "name": "Aldine Senior High School",
    "primary_color": "Royal",
    "secondary_color": "White",
    "state": "TX",
    "timezone": "America/Chicago",
    "updated_at": "2012-07-08T01:08:17Z",
    "zip": "77037"
  },
  {
    "address": "241 N Front St",
    "city": "Aledo",
    "county": "Parker County",
    "created_at": "2012-01-04T20:17:34Z",
    "id": 22722,
    "latitude": "32.695869",
    "longitude": "-97.601843",
    "mascot": null,
    "name": "Aledo Christian School",
    "primary_color": null,
    "secondary_color": null,
    "state": "TX",
    "timezone": "America/Chicago",
    "updated_at": "2012-07-08T01:08:17Z",
    "zip": "76008"
  },
  {
    "address": "1000 Bailey Ranch Rd",
    "city": "Aledo",
    "county": "Parker County",
    "created_at": "2012-01-04T20:17:34Z",
    "id": 22723,
    "latitude": "32.711081",
    "longitude": "-97.614510",
    "mascot": "Bearcats",
    "name": "Aledo High School",
    "primary_color": "Orange",
    "secondary_color": "Black",
    "state": "TX",
    "timezone": "America/Chicago",
    "updated_at": "2012-07-08T01:08:17Z",
    "zip": "76008"
  },
  {
    "address": "10255 Richmond Ave",
    "city": "Houston",
    "county": "Harris County",
    "created_at": "2012-01-04T20:17:34Z",
    "id": 22724,
    "latitude": "29.727761",
    "longitude": "-95.553149",
    "mascot": null,
    "name": "Alexander Smith Academy",
    "primary_color": "Kelly Green",
    "secondary_color": "Gray",
    "state": "TX",
    "timezone": "America/Chicago",
    "updated_at": "2012-07-08T01:08:18Z",
    "zip": "77042"
  },
  {
    "address": "Rt 2 Box 39A",
    "city": "Justin",
    "county": "Denton County",
    "created_at": "2012-01-04T20:17:34Z",
    "id": 22725,
    "latitude": "33.086405",
    "longitude": "-97.303879",
    "mascot": null,
    "name": "Aliance Academy",
    "primary_color": null,
    "secondary_color": null,
    "state": "TX",
    "timezone": "America/Chicago",
    "updated_at": "2012-07-08T01:08:18Z",
    "zip": "76247"
  },
  {
    "address": "#1 Coyote Trl",
    "city": "Alice",
    "county": "Jim Wells County",
    "created_at": "2012-01-04T20:17:34Z",
    "id": 22726,
    "latitude": "27.756733",
    "longitude": "-98.051480",
    "mascot": "Coyotes",
    "name": "Alice High School",
    "primary_color": "Orange",
    "secondary_color": "White",
    "state": "TX",
    "timezone": "America/Chicago",
    "updated_at": "2012-07-08T01:08:18Z",
    "zip": "78332"
  },
  {
    "address": "12601 High Star St",
    "city": "Houston",
    "county": "Harris County",
    "created_at": "2012-01-04T20:17:34Z",
    "id": 22727,
    "latitude": "29.710775",
    "longitude": "-95.602083",
    "mascot": "Rams",
    "name": "Alief Elsik High School",
    "primary_color": "Columbia Blue",
    "secondary_color": "White",
    "state": "TX",
    "timezone": "America/Chicago",
    "updated_at": "2012-07-08T01:08:19Z",
    "zip": "77072"
  },
  {
    "address": "4410 Cook Rd",
    "city": "Houston",
    "county": "Harris County",
    "created_at": "2012-01-04T20:17:34Z",
    "id": 22728,
    "latitude": "29.709266",
    "longitude": "-95.596281",
    "mascot": "Bears",
    "name": "Alief Hastings High School",
    "primary_color": "Gold",
    "secondary_color": "Black",
    "state": "TX",
    "timezone": "America/Chicago",
    "updated_at": "2012-07-08T01:08:19Z",
    "zip": "77072"
  },
  {
    "address": "4427 Belle Park",
    "city": "Houston",
    "county": "Harris County",
    "created_at": "2012-01-04T20:17:34Z",
    "id": 22729,
    "latitude": "29.707628",
    "longitude": "-95.582931",
    "mascot": "Dinosaurs",
    "name": "Alief Learning Center",
    "primary_color": "Royal",
    "secondary_color": "Black",
    "state": "TX",
    "timezone": "America/Chicago",
    "updated_at": "2012-07-08T01:08:19Z",
    "zip": "77072"
  },
  {
    "address": "8200 Tumbleweed Trl",
    "city": "Fort Worth",
    "county": "Tarrant County",
    "created_at": "2012-01-04T20:17:34Z",
    "id": 22730,
    "latitude": "32.744811",
    "longitude": "-97.460752",
    "mascot": "St Bernards",
    "name": "All Saints Episcopal School",
    "primary_color": "Royal",
    "secondary_color": "White",
    "state": "TX",
    "timezone": "America/Chicago",
    "updated_at": "2012-07-08T01:08:19Z",
    "zip": "76108"
  },
  {
    "address": "3222 103rd St",
    "city": "Lubbock",
    "county": "Lubbock County",
    "created_at": "2012-01-04T20:17:34Z",
    "id": 22731,
    "latitude": "33.500620",
    "longitude": "-101.884285",
    "mascot": "Patriots",
    "name": "All Saints Episcopal School",
    "primary_color": "Red",
    "secondary_color": "White",
    "state": "TX",
    "timezone": "America/Chicago",
    "updated_at": "2012-07-08T01:08:20Z",
    "zip": "79423"
  },
  {
    "address": "2695 S SW W Loop 323",
    "city": "Tyler",
    "county": "Smith County",
    "created_at": "2012-01-04T20:17:34Z",
    "id": 22732,
    "latitude": "32.320195",
    "longitude": "-95.265852",
    "mascot": null,
    "name": "All Saints Episcopal School",
    "primary_color": "Royal",
    "secondary_color": "White",
    "state": "TX",
    "timezone": "America/Chicago",
    "updated_at": "2012-07-08T01:08:20Z",
    "zip": "75701"
  },
  {
    "address": "3201 Boonville Rd",
    "city": "Bryan",
    "county": "Brazos County",
    "created_at": "2012-01-04T20:17:34Z",
    "id": 22733,
    "latitude": "30.670831",
    "longitude": "-96.317809",
    "mascot": "Rams",
    "name": "Allen Academy",
    "primary_color": "Gold",
    "secondary_color": "Royal",
    "state": "TX",
    "timezone": "America/Chicago",
    "updated_at": "2012-07-08T01:08:20Z",
    "zip": "77802"
  },
  {
    "address": "300 Rivercrest",
    "city": "Allen",
    "county": "Collin County",
    "created_at": "2012-01-04T20:17:34Z",
    "id": 22734,
    "latitude": "33.112650",
    "longitude": "-96.659843",
    "mascot": "Eagles",
    "name": "Allen High School",
    "primary_color": "Blue",
    "secondary_color": "White",
    "state": "TX",
    "timezone": "America/Chicago",
    "updated_at": "2012-07-08T01:08:20Z",
    "zip": "75002"
  },
  {
    "address": "200 W 2nd St",
    "city": "Allison",
    "county": "Wheeler County",
    "created_at": "2012-01-04T20:17:34Z",
    "id": 22735,
    "latitude": "35.608067",
    "longitude": "-100.102029",
    "mascot": "Antelopes",
    "name": "Allison Independent School District",
    "primary_color": "Royal",
    "secondary_color": "White",
    "state": "TX",
    "timezone": "America/Chicago",
    "updated_at": "2012-07-08T01:08:21Z",
    "zip": "79003"
  },
  {
    "address": "1005 Elbel Rd",
    "city": "Schertz",
    "county": "Guadalupe County",
    "created_at": "2012-01-04T20:17:34Z",
    "id": 22736,
    "latitude": "29.561225",
    "longitude": "-98.267063",
    "mascot": null,
    "name": "Allison L Steele Enhanced Learning Ctr",
    "primary_color": "Kelly Green",
    "secondary_color": "Black",
    "state": "TX",
    "timezone": "America/Chicago",
    "updated_at": "2012-07-08T01:08:21Z",
    "zip": "78154"
  },
  {
    "address": "701 West State St",
    "city": "Garland",
    "county": "Dallas County",
    "created_at": "2012-01-04T20:17:34Z",
    "id": 22737,
    "latitude": "32.913368",
    "longitude": "-96.639112",
    "mascot": "Eagles",
    "name": "Alpha Charter School",
    "primary_color": "Red",
    "secondary_color": "Black",
    "state": "TX",
    "timezone": "America/Chicago",
    "updated_at": "2012-07-08T01:08:21Z",
    "zip": "75040"
  },
  {
    "address": "8537 Hwy 146",
    "city": "Baytown",
    "county": "Harris County",
    "created_at": "2012-01-04T20:17:34Z",
    "id": 22738,
    "latitude": "29.731600",
    "longitude": "-94.957849",
    "mascot": "Eagles",
    "name": "Alpha Learning Center",
    "primary_color": "Royal",
    "secondary_color": "White",
    "state": "TX",
    "timezone": "America/Chicago",
    "updated_at": "2012-07-08T01:08:21Z",
    "zip": "77520"
  },
  {
    "address": "3400 W 2nd Ave",
    "city": "Corsicana",
    "county": "Navarro County",
    "created_at": "2012-01-04T20:17:34Z",
    "id": 22739,
    "latitude": "32.078971",
    "longitude": "-96.504880",
    "mascot": "Tigers",
    "name": "Alpha Learning Center",
    "primary_color": "Royal",
    "secondary_color": "Gold",
    "state": "TX",
    "timezone": "America/Chicago",
    "updated_at": "2012-07-08T01:08:22Z",
    "zip": "75110"
  },
  {
    "address": "5621 North",
    "city": "Houston",
    "county": "Harris County",
    "created_at": "2012-01-04T20:17:34Z",
    "id": 22740,
    "latitude": "29.727780",
    "longitude": "-95.402069",
    "mascot": null,
    "name": "Alpha Omega Christian Academy",
    "primary_color": null,
    "secondary_color": null,
    "state": "TX",
    "timezone": "America/Chicago",
    "updated_at": "2012-07-08T01:08:23Z",
    "zip": "77076"
  },
  {
    "address": "300 E Hendryx Dr",
    "city": "Alpine",
    "county": "Brewster County",
    "created_at": "2012-01-04T20:17:34Z",
    "id": 22741,
    "latitude": "30.372602",
    "longitude": "-103.666766",
    "mascot": "Bucks",
    "name": "Alpine High School",
    "primary_color": "Gold",
    "secondary_color": "Purple",
    "state": "TX",
    "timezone": "America/Chicago",
    "updated_at": "2012-07-08T01:08:23Z",
    "zip": "79830"
  },
  {
    "address": "505 W Gayle St",
    "city": "Edna",
    "county": "Jackson County",
    "created_at": "2012-01-04T20:17:34Z",
    "id": 22742,
    "latitude": "28.971474",
    "longitude": "-96.645523",
    "mascot": null,
    "name": "Alternative Campus",
    "primary_color": null,
    "secondary_color": null,
    "state": "TX",
    "timezone": "America/Chicago",
    "updated_at": "2012-07-08T01:08:23Z",
    "zip": "77957"
  },
  {
    "address": "2477 Price Rd",
    "city": "Brownsville",
    "county": "Cameron County",
    "created_at": "2012-01-04T20:17:34Z",
    "id": 22743,
    "latitude": "25.934699",
    "longitude": "-97.483401",
    "mascot": null,
    "name": "Alternative Center",
    "primary_color": null,
    "secondary_color": null,
    "state": "TX",
    "timezone": "America/Chicago",
    "updated_at": "2012-07-08T01:08:25Z",
    "zip": "78521"
  },
  {
    "address": "270 S Hwy 67",
    "city": "Cedar Hill",
    "county": "Dallas County",
    "created_at": "2012-01-04T20:17:34Z",
    "id": 22744,
    "latitude": "32.585558",
    "longitude": "-96.949793",
    "mascot": null,
    "name": "Alternative Education Center",
    "primary_color": "Red",
    "secondary_color": "White",
    "state": "TX",
    "timezone": "America/Chicago",
    "updated_at": "2012-07-08T01:08:26Z",
    "zip": "75104"
  },
  {
    "address": "202 College St",
    "city": "Grand Prairie",
    "county": "Dallas County",
    "created_at": "2012-01-04T20:17:34Z",
    "id": 22745,
    "latitude": "32.747799",
    "longitude": "-97.005424",
    "mascot": null,
    "name": "Alternative Education Center",
    "primary_color": null,
    "secondary_color": null,
    "state": "TX",
    "timezone": "America/Chicago",
    "updated_at": "2012-07-08T01:08:26Z",
    "zip": "75050"
  },
  {
    "address": "505 Doherty St",
    "city": "San Benito",
    "county": "Cameron County",
    "created_at": "2012-01-04T20:17:34Z",
    "id": 22746,
    "latitude": "26.141927",
    "longitude": "-97.635727",
    "mascot": null,
    "name": "Alternative Education Center",
    "primary_color": null,
    "secondary_color": null,
    "state": "TX",
    "timezone": "America/Chicago",
    "updated_at": "2012-07-08T01:08:26Z",
    "zip": "78586"
  },
  {
    "address": "906 SW 5th Ave",
    "city": "Mineral Wells",
    "county": "Palo Pinto County",
    "created_at": "2012-01-04T20:17:34Z",
    "id": 22747,
    "latitude": "32.802699",
    "longitude": "-98.117615",
    "mascot": null,
    "name": "Alternative Education Center",
    "primary_color": null,
    "secondary_color": null,
    "state": "TX",
    "timezone": "America/Chicago",
    "updated_at": "2012-07-08T01:08:26Z",
    "zip": "76067"
  },
  {
    "address": "1800 Douglas Hwy",
    "city": "Nacogdoches",
    "county": "Nacogdoches County",
    "created_at": "2012-01-04T20:17:34Z",
    "id": 22748,
    "latitude": "31.608941",
    "longitude": "-94.675625",
    "mascot": null,
    "name": "Alternative Education Cooperative",
    "primary_color": "Royal",
    "secondary_color": "White",
    "state": "TX",
    "timezone": "America/Chicago",
    "updated_at": "2012-07-08T01:08:27Z",
    "zip": "75961"
  },
  {
    "address": "1849 Central Dr",
    "city": "Bedford",
    "county": "Tarrant County",
    "created_at": "2012-01-04T20:17:34Z",
    "id": 22749,
    "latitude": "32.836344",
    "longitude": "-97.133565",
    "mascot": null,
    "name": "Alternative Education Program",
    "primary_color": null,
    "secondary_color": null,
    "state": "TX",
    "timezone": "America/Chicago",
    "updated_at": "2012-07-08T01:08:27Z",
    "zip": "76022"
  },
  {
    "address": "300 14th Ave N",
    "city": "Texas City",
    "county": "Galveston County",
    "created_at": "2012-01-04T20:17:34Z",
    "id": 22750,
    "latitude": "29.398276",
    "longitude": "-94.898233",
    "mascot": null,
    "name": "Alternative Learning Center",
    "primary_color": "Black",
    "secondary_color": "White",
    "state": "TX",
    "timezone": "America/Chicago",
    "updated_at": "2012-07-08T01:08:27Z",
    "zip": "77590"
  },
  {
    "address": "PO Drawer Z",
    "city": "Freeport",
    "county": "Brazoria County",
    "created_at": "2012-01-04T20:17:34Z",
    "id": 22751,
    "latitude": "28.949564",
    "longitude": "-95.344371",
    "mascot": null,
    "name": "Alternative Placement Center",
    "primary_color": null,
    "secondary_color": null,
    "state": "TX",
    "timezone": "America/Chicago",
    "updated_at": "2012-07-08T01:08:27Z",
    "zip": "77541"
  },
  {
    "address": "PO Box 400",
    "city": "Lancaster",
    "county": "Dallas County",
    "created_at": "2012-01-04T20:17:34Z",
    "id": 22752,
    "latitude": "32.546780",
    "longitude": "-96.757579",
    "mascot": null,
    "name": "Alternative School",
    "primary_color": null,
    "secondary_color": null,
    "state": "TX",
    "timezone": "America/Chicago",
    "updated_at": "2012-07-08T01:08:27Z",
    "zip": "75146"
  },
  {
    "address": "407 E 3rd St",
    "city": "Mission",
    "county": "Hidalgo County",
    "created_at": "2012-01-04T20:17:34Z",
    "id": 22753,
    "latitude": "26.208075",
    "longitude": "-98.323322",
    "mascot": null,
    "name": "Alternative School",
    "primary_color": null,
    "secondary_color": null,
    "state": "TX",
    "timezone": "America/Chicago",
    "updated_at": "2012-07-08T01:08:28Z",
    "zip": "78572"
  },
  {
    "address": "1010 N Rusk St",
    "city": "Wharton",
    "county": "Wharton County",
    "created_at": "2012-01-04T20:17:34Z",
    "id": 22754,
    "latitude": "29.318334",
    "longitude": "-96.095919",
    "mascot": null,
    "name": "Alternative School",
    "primary_color": null,
    "secondary_color": null,
    "state": "TX",
    "timezone": "America/Chicago",
    "updated_at": "2012-07-08T01:08:28Z",
    "zip": "77488"
  },
  {
    "address": "310 N Main St",
    "city": "Cotulla",
    "county": "La Salle County",
    "created_at": "2012-01-04T20:17:34Z",
    "id": 22755,
    "latitude": "28.438030",
    "longitude": "-99.235360",
    "mascot": "Cowboys",
    "name": "Alternative School",
    "primary_color": "Gold",
    "secondary_color": "Maroon",
    "state": "TX",
    "timezone": "America/Chicago",
    "updated_at": "2012-07-08T01:08:28Z",
    "zip": "78014"
  },
  {
    "address": "1 Yellowjacket Dr",
    "city": "Alto",
    "county": "Cherokee County",
    "created_at": "2012-01-04T20:17:34Z",
    "id": 22756,
    "latitude": "31.638647",
    "longitude": "-95.082144",
    "mascot": "Yellow Jackets",
    "name": "Alto High School",
    "primary_color": "Black",
    "secondary_color": "Gold",
    "state": "TX",
    "timezone": "America/Chicago",
    "updated_at": "2012-07-08T01:08:29Z",
    "zip": "75925"
  },
  {
    "address": "1301 S Parkway Dr",
    "city": "Alvarado",
    "county": "Johnson County",
    "created_at": "2012-01-04T20:17:34Z",
    "id": 22757,
    "latitude": "32.391352",
    "longitude": "-97.209448",
    "mascot": "Indians",
    "name": "Alvarado High School",
    "primary_color": "Gold",
    "secondary_color": "Purple",
    "state": "TX",
    "timezone": "America/Chicago",
    "updated_at": "2012-07-08T01:08:29Z",
    "zip": "76009"
  },
  {
    "address": "802 S Johnson",
    "city": "Alvin",
    "county": "Brazoria County",
    "created_at": "2012-01-04T20:17:34Z",
    "id": 22758,
    "latitude": "29.417496",
    "longitude": "-95.250825",
    "mascot": "Yellow Jackets",
    "name": "Alvin High School",
    "primary_color": "Orange",
    "secondary_color": "White",
    "state": "TX",
    "timezone": "America/Chicago",
    "updated_at": "2012-07-08T01:08:29Z",
    "zip": "77511"
  },
  {
    "address": "1049 W Bypass Hwy 287",
    "city": "Alvord",
    "county": "Wise County",
    "created_at": "2012-01-04T20:17:34Z",
    "id": 22759,
    "latitude": "33.355326",
    "longitude": "-97.704729",
    "mascot": "Bulldogs",
    "name": "Alvord High School",
    "primary_color": "Gold",
    "secondary_color": "Black",
    "state": "TX",
    "timezone": "America/Chicago",
    "updated_at": "2012-07-08T01:08:29Z",
    "zip": "76225"
  },
  {
    "address": "4225 Danvury",
    "city": "Amarillo",
    "county": "Randall County",
    "created_at": "2012-01-04T20:17:34Z",
    "id": 22760,
    "latitude": "35.165809",
    "longitude": "-101.906502",
    "mascot": "Golden Sandstorm",
    "name": "Amarillo High School",
    "primary_color": "Gold",
    "secondary_color": "Black",
    "state": "TX",
    "timezone": "America/Chicago",
    "updated_at": "2012-07-08T01:08:30Z",
    "zip": "79109"
  },
  {
    "address": "5430 Miller Avenue",
    "city": "Fort Worth",
    "county": "Tarrant County",
    "created_at": "2012-01-04T20:17:34Z",
    "id": 22761,
    "latitude": "32.678370",
    "longitude": "-97.263197",
    "mascot": "Eagles",
    "name": "Ambassadors Of Christ Academy",
    "primary_color": "Red",
    "secondary_color": "Purple",
    "state": "TX",
    "timezone": "America/Chicago",
    "updated_at": "2012-07-08T01:08:30Z",
    "zip": "76119"
  },
  {
    "address": "1121 Pierce",
    "city": "Houston",
    "county": "Harris County",
    "created_at": "2012-01-04T20:17:34Z",
    "id": 22762,
    "latitude": "29.748829",
    "longitude": "-95.369699",
    "mascot": "Eagles",
    "name": "American Academy Of Excellence",
    "primary_color": "Navy",
    "secondary_color": "White",
    "state": "TX",
    "timezone": "America/Chicago",
    "updated_at": "2012-07-08T01:08:30Z",
    "zip": "77002"
  },
  {
    "address": "478 Sadler Rd",
    "city": "Whitesboro",
    "county": "Grayson County",
    "created_at": "2012-01-04T20:17:34Z",
    "id": 22763,
    "latitude": "33.676575",
    "longitude": "-96.886120",
    "mascot": "Eagles",
    "name": "American Heritage School",
    "primary_color": "Maroon",
    "secondary_color": "White",
    "state": "TX",
    "timezone": "America/Chicago",
    "updated_at": "2012-07-08T01:08:30Z",
    "zip": "76273"
  },
  {
    "address": "216 E 4th St",
    "city": "Austin",
    "county": "Travis County",
    "created_at": "2012-01-04T20:17:34Z",
    "id": 22764,
    "latitude": "30.265641",
    "longitude": "-97.741558",
    "mascot": "Warriors",
    "name": "American YouthWorks Charter School",
    "primary_color": "Red ",
    "secondary_color": "Black",
    "state": "TX",
    "timezone": "America/Chicago",
    "updated_at": "2012-07-08T01:08:30Z",
    "zip": "78701"
  },
  {
    "address": "12101 Pellicano",
    "city": "El Paso",
    "county": "El Paso County",
    "created_at": "2012-01-04T20:17:34Z",
    "id": 22765,
    "latitude": "31.729516",
    "longitude": "-106.278382",
    "mascot": "Trail Blazers",
    "name": "Americus High School",
    "primary_color": "Gold",
    "secondary_color": "White",
    "state": "TX",
    "timezone": "America/Denver",
    "updated_at": "2012-07-08T01:08:31Z",
    "zip": "79936"
  },
  {
    "address": "100 N Main St",
    "city": "Amherst",
    "county": "Lamb County",
    "created_at": "2012-01-04T20:17:34Z",
    "id": 22766,
    "latitude": "34.016614",
    "longitude": "-102.409941",
    "mascot": "Bulldogs",
    "name": "Amherst School",
    "primary_color": "Royal",
    "secondary_color": "White",
    "state": "TX",
    "timezone": "America/Chicago",
    "updated_at": "2012-07-08T01:08:31Z",
    "zip": "79312"
  },
  {
    "address": "1000 Wilcox St",
    "city": "Anahuac",
    "county": "Chambers County",
    "created_at": "2012-01-04T20:17:34Z",
    "id": 22767,
    "latitude": "29.772147",
    "longitude": "-94.675988",
    "mascot": "Panthers",
    "name": "Anahuac High School",
    "primary_color": "Black",
    "secondary_color": "Gold",
    "state": "TX",
    "timezone": "America/Chicago",
    "updated_at": "2012-07-08T01:08:31Z",
    "zip": "77514"
  },
  {
    "address": "1015 E Broad St",
    "city": "Mansfield",
    "county": "Tarrant County",
    "created_at": "2012-01-04T20:17:34Z",
    "id": 22768,
    "latitude": "32.565396",
    "longitude": "-97.129086",
    "mascot": "Tigers",
    "name": "Anderson Education Center",
    "primary_color": "Gold",
    "secondary_color": "Black",
    "state": "TX",
    "timezone": "America/Chicago",
    "updated_at": "2012-07-08T01:08:32Z",
    "zip": "76063"
  },
  {
    "address": "8403 Mesa Dr",
    "city": "Austin",
    "county": "Travis County",
    "created_at": "2012-01-04T20:17:34Z",
    "id": 22769,
    "latitude": "30.376173",
    "longitude": "-97.754235",
    "mascot": "Trojans",
    "name": "Anderson High School",
    "primary_color": "Gold",
    "secondary_color": "Royal",
    "state": "TX",
    "timezone": "America/Chicago",
    "updated_at": "2012-07-08T01:08:32Z",
    "zip": "78759"
  },
  {
    "address": "1139 Hwy 90 North ",
    "city": "Anderson",
    "county": "Grimes County",
    "created_at": "2012-01-04T20:17:34Z",
    "id": 22770,
    "latitude": "30.598698",
    "longitude": "-95.948228",
    "mascot": "Owls",
    "name": "Anderson Shiro Junior Senior High School",
    "primary_color": "Royal",
    "secondary_color": "White",
    "state": "TX",
    "timezone": "America/Chicago",
    "updated_at": "2012-07-08T01:08:32Z",
    "zip": "77830"
  },
  {
    "address": "5400 Sun Valley Dr",
    "city": "El Paso",
    "county": "El Paso County",
    "created_at": "2012-01-04T20:17:34Z",
    "id": 22771,
    "latitude": "31.910626",
    "longitude": "-106.417145",
    "mascot": "Golden Eagles",
    "name": "Andress High School",
    "primary_color": "Maroon",
    "secondary_color": "Gold",
    "state": "TX",
    "timezone": "America/Denver",
    "updated_at": "2012-07-08T01:08:32Z",
    "zip": "79924"
  },
  {
    "address": "405 NW 3rd St",
    "city": "Andrews",
    "county": "Andrews County",
    "created_at": "2012-01-04T20:17:34Z",
    "id": 22772,
    "latitude": "32.321092",
    "longitude": "-102.551162",
    "mascot": "Mustangs",
    "name": "Andrews High School",
    "primary_color": "Black",
    "secondary_color": "Gold",
    "state": "TX",
    "timezone": "America/Chicago",
    "updated_at": "2012-07-08T01:08:33Z",
    "zip": "79714"
  },
  {
    "address": "1201  Henderson Rd",
    "city": "Angleton",
    "county": "Brazoria County",
    "created_at": "2012-01-04T20:17:34Z",
    "id": 22773,
    "latitude": "29.193906",
    "longitude": "-95.419275",
    "mascot": "Wildcats",
    "name": "Angleton High School",
    "primary_color": "Purple",
    "secondary_color": "White",
    "state": "TX",
    "timezone": "America/Chicago",
    "updated_at": "2012-07-08T01:08:33Z",
    "zip": "77515"
  },
  {
    "address": "1201 N Powell Pky",
    "city": "Anna",
    "county": "Collin County",
    "created_at": "2012-01-04T20:17:34Z",
    "id": 22774,
    "latitude": "33.359470",
    "longitude": "-96.549810",
    "mascot": "Coyotes",
    "name": "Anna High School",
    "primary_color": "White",
    "secondary_color": "Purple",
    "state": "TX",
    "timezone": "America/Chicago",
    "updated_at": "2012-07-08T01:08:33Z",
    "zip": "75409"
  },
  {
    "address": "3346 Airline Rd",
    "city": "Corpus Christi",
    "county": "Nueces County",
    "created_at": "2012-01-04T20:17:34Z",
    "id": 22775,
    "latitude": "27.668559",
    "longitude": "-97.364632",
    "mascot": "Warriors",
    "name": "Annapolis Christian Academy",
    "primary_color": "Red",
    "secondary_color": "Navy",
    "state": "TX",
    "timezone": "America/Chicago",
    "updated_at": "2012-07-08T01:08:33Z",
    "zip": "78414"
  },
  {
    "address": "1509 S Commercial",
    "city": "Anson",
    "county": "Jones County",
    "created_at": "2012-01-04T20:17:34Z",
    "id": 22776,
    "latitude": "32.752809",
    "longitude": "-99.896829",
    "mascot": "Tigers",
    "name": "Anson High School",
    "primary_color": "Red",
    "secondary_color": "Black",
    "state": "TX",
    "timezone": "America/Chicago",
    "updated_at": "2012-07-08T01:08:33Z",
    "zip": "79501"
  },
  {
    "address": "900 S 6th St",
    "city": "Anthony",
    "county": "El Paso County",
    "created_at": "2012-01-04T20:17:34Z",
    "id": 22777,
    "latitude": "31.994398",
    "longitude": "-106.600717",
    "mascot": "Wildcats",
    "name": "Anthony Texas Junior Senior High School",
    "primary_color": "Columbia Blue",
    "secondary_color": "White",
    "state": "TX",
    "timezone": "America/Denver",
    "updated_at": "2012-07-08T01:08:34Z",
    "zip": "79821"
  },
  {
    "address": "100 Elwood Blvd",
    "city": "Anton",
    "county": "Hockley County",
    "created_at": "2012-01-04T20:17:34Z",
    "id": 22778,
    "latitude": "33.814327",
    "longitude": "-102.163126",
    "mascot": "Bulldogs",
    "name": "Anton High School",
    "primary_color": "Gold",
    "secondary_color": "Purple",
    "state": "TX",
    "timezone": "America/Chicago",
    "updated_at": "2012-07-08T01:08:34Z",
    "zip": "79313"
  },
  {
    "address": "6425 West Ave",
    "city": "San Antonio",
    "county": "Bexar County",
    "created_at": "2012-01-04T20:17:34Z",
    "id": 22779,
    "latitude": "29.521909",
    "longitude": "-98.525946",
    "mascot": "Apaches",
    "name": "Antonian College Preparatory High School",
    "primary_color": "Red",
    "secondary_color": "White",
    "state": "TX",
    "timezone": "America/Chicago",
    "updated_at": "2012-07-08T01:08:35Z",
    "zip": "78213"
  },
  {
    "address": "1600 Apollo Rd",
    "city": "Richardson",
    "county": "Dallas County",
    "created_at": "2012-01-04T20:17:34Z",
    "id": 22780,
    "latitude": "32.953012",
    "longitude": "-96.695685",
    "mascot": "Panthers",
    "name": "Apollo Junior High School",
    "primary_color": "Royal",
    "secondary_color": "Gray",
    "state": "TX",
    "timezone": "America/Chicago",
    "updated_at": "2012-07-08T01:08:35Z",
    "zip": "75081"
  },
  {
    "address": "125 Farm Rd 2501",
    "city": "Apple Springs",
    "county": "Trinity County",
    "created_at": "2012-01-04T20:17:34Z",
    "id": 22781,
    "latitude": "31.223440",
    "longitude": "-94.970814",
    "mascot": "Eagles",
    "name": "Apple Springs High School",
    "primary_color": "Royal",
    "secondary_color": "White",
    "state": "TX",
    "timezone": "America/Chicago",
    "updated_at": "2012-07-08T01:08:35Z",
    "zip": "75926"
  },
  {
    "address": "404 N Richards St",
    "city": "Aquilla",
    "county": "Hill County",
    "created_at": "2012-01-04T20:17:34Z",
    "id": 22782,
    "latitude": "31.854537",
    "longitude": "-97.219387",
    "mascot": "Cougars",
    "name": "Aquilla School",
    "primary_color": "White",
    "secondary_color": "Orange",
    "state": "TX",
    "timezone": "America/Chicago",
    "updated_at": "2012-07-08T01:08:36Z",
    "zip": "76622"
  },
  {
    "address": "450 S Ave A",
    "city": "Aransas Pass",
    "county": "San Patricio County",
    "created_at": "2012-01-04T20:17:34Z",
    "id": 22783,
    "latitude": "27.912617",
    "longitude": "-97.154306",
    "mascot": "Panthers",
    "name": "Aransas Pass High School",
    "primary_color": "Gold",
    "secondary_color": "Purple",
    "state": "TX",
    "timezone": "America/Chicago",
    "updated_at": "2012-07-08T01:08:36Z",
    "zip": "78336"
  },
  {
    "address": "191 S. Hwy 377",
    "city": "Argyle",
    "county": "Denton County",
    "created_at": "2012-01-04T20:17:34Z",
    "id": 22784,
    "latitude": "33.107825",
    "longitude": "-97.190282",
    "mascot": "Eagles",
    "name": "Argyle High School",
    "primary_color": "Red",
    "secondary_color": "White",
    "state": "TX",
    "timezone": "America/Chicago",
    "updated_at": "2012-07-08T01:08:36Z",
    "zip": "76226"
  },
  {
    "address": "4501 W Freeway Rd",
    "city": "Fort Worth",
    "county": "Tarrant County",
    "created_at": "2012-01-04T20:17:34Z",
    "id": 22785,
    "latitude": "32.732583",
    "longitude": "-97.385841",
    "mascot": "Yellow Jackets",
    "name": "Arlington Heights High School",
    "primary_color": "Gold",
    "secondary_color": "Royal",
    "state": "TX",
    "timezone": "America/Chicago",
    "updated_at": "2012-07-08T01:08:37Z",
    "zip": "76107"
  },
  {
    "address": "818 W Park Row Dr",
    "city": "Arlington",
    "county": "Tarrant County",
    "created_at": "2012-01-04T20:17:34Z",
    "id": 22786,
    "latitude": "32.721180",
    "longitude": "-97.116647",
    "mascot": "Colts",
    "name": "Arlington High School",
    "primary_color": "Kelly Green",
    "secondary_color": "White",
    "state": "TX",
    "timezone": "America/Chicago",
    "updated_at": "2012-07-08T01:08:37Z",
    "zip": "76013"
  },
  {
    "address": "101 Toney Dr",
    "city": "Arp",
    "county": "Smith County",
    "created_at": "2012-01-04T20:17:34Z",
    "id": 22787,
    "latitude": "32.241705",
    "longitude": "-95.075034",
    "mascot": "Tigers",
    "name": "Arp High School",
    "primary_color": "Maroon",
    "secondary_color": "White",
    "state": "TX",
    "timezone": "America/Chicago",
    "updated_at": "2012-07-08T01:08:37Z",
    "zip": "75750"
  },
  {
    "address": "8201 Canyon Dr",
    "city": "Amarillo",
    "county": "Randall County",
    "created_at": "2012-01-04T20:17:34Z",
    "id": 22788,
    "latitude": "35.123612",
    "longitude": "-101.905115",
    "mascot": "Cardinals",
    "name": "Ascension Academy",
    "primary_color": "Royal",
    "secondary_color": "Red",
    "state": "TX",
    "timezone": "America/Chicago",
    "updated_at": "2012-07-08T01:08:37Z",
    "zip": "79110"
  },
  {
    "address": "528 E Seventh St",
    "city": "Aspermont",
    "county": "Stonewall County",
    "created_at": "2012-01-04T20:17:34Z",
    "id": 22789,
    "latitude": "33.138022",
    "longitude": "-100.222330",
    "mascot": "Hornets",
    "name": "Aspermont High School",
    "primary_color": "Red",
    "secondary_color": "Black",
    "state": "TX",
    "timezone": "America/Chicago",
    "updated_at": "2012-07-08T01:08:38Z",
    "zip": "79502"
  },
  {
    "address": "13300 Will Clayton Pkwy",
    "city": "Humble",
    "county": "Harris County",
    "created_at": "2012-01-04T20:17:34Z",
    "id": 22790,
    "latitude": "29.981562",
    "longitude": "-95.172658",
    "mascot": "Eagles",
    "name": "Atascociata High School",
    "primary_color": "Red",
    "secondary_color": "White",
    "state": "TX",
    "timezone": "America/Chicago",
    "updated_at": "2012-07-08T01:08:38Z",
    "zip": "77346"
  },
  {
    "address": "708 E College St",
    "city": "Athens",
    "county": "Henderson County",
    "created_at": "2012-01-04T20:17:34Z",
    "id": 22791,
    "latitude": "32.202725",
    "longitude": "-95.845315",
    "mascot": "Hornets",
    "name": "Athens High School",
    "primary_color": "Maroon",
    "secondary_color": "White",
    "state": "TX",
    "timezone": "America/Chicago",
    "updated_at": "2012-07-08T01:08:39Z",
    "zip": "75751"
  },
  {
    "address": "5401 Ave U",
    "city": "Lubbock",
    "county": "Lubbock County",
    "created_at": "2012-01-04T20:17:34Z",
    "id": 22792,
    "latitude": "33.551556",
    "longitude": "-101.856135",
    "mascot": "Tornados",
    "name": "Atkins Junior High School",
    "primary_color": "Orange",
    "secondary_color": "White",
    "state": "TX",
    "timezone": "America/Chicago",
    "updated_at": "2012-07-08T01:08:39Z",
    "zip": "79412"
  },
  {
    "address": "705 Rabbit Blvd",
    "city": "Atlanta",
    "county": "Cass County",
    "created_at": "2012-01-04T20:17:34Z",
    "id": 22793,
    "latitude": "33.120118",
    "longitude": "-94.145140",
    "mascot": "Rabbits",
    "name": "Atlanta High School",
    "primary_color": "Maroon",
    "secondary_color": "White",
    "state": "TX",
    "timezone": "America/Chicago",
    "updated_at": "2012-07-08T01:08:39Z",
    "zip": "75551"
  },
  {
    "address": "510 Springhill Rd",
    "city": "Aubrey",
    "county": "Denton County",
    "created_at": "2012-01-04T20:17:34Z",
    "id": 22794,
    "latitude": "33.298739",
    "longitude": "-96.981944",
    "mascot": "Shaparels",
    "name": "Aubrey High School",
    "primary_color": "Red",
    "secondary_color": "White",
    "state": "TX",
    "timezone": "America/Chicago",
    "updated_at": "2012-07-08T01:08:39Z",
    "zip": "76227"
  },
  {
    "address": "301 W Anderson Ln",
    "city": "Austin",
    "county": "Travis County",
    "created_at": "2012-01-04T20:17:34Z",
    "id": 22795,
    "latitude": "30.344757",
    "longitude": "-97.707322",
    "mascot": "Saints",
    "name": "Austin Adventist Junior Academy",
    "primary_color": "Royal",
    "secondary_color": "White",
    "state": "TX",
    "timezone": "America/Chicago",
    "updated_at": "2012-07-08T01:08:40Z",
    "zip": "78752"
  },
  {
    "address": "9301 Hwy 290 W",
    "city": "Austin",
    "county": "Travis County",
    "created_at": "2012-01-04T20:17:34Z",
    "id": 22796,
    "latitude": "30.231337",
    "longitude": "-97.929591",
    "mascot": null,
    "name": "Austin City Academy",
    "primary_color": null,
    "secondary_color": null,
    "state": "TX",
    "timezone": "America/Chicago",
    "updated_at": "2012-07-08T01:08:40Z",
    "zip": "78736"
  },
  {
    "address": "3500 Memphis Ave",
    "city": "El Paso",
    "county": "El Paso County",
    "created_at": "2012-01-04T20:17:34Z",
    "id": 22797,
    "latitude": "31.799472",
    "longitude": "-106.452031",
    "mascot": "Panthers",
    "name": "Austin High School",
    "primary_color": "Gold",
    "secondary_color": "Brown",
    "state": "TX",
    "timezone": "America/Denver",
    "updated_at": "2012-07-08T01:08:41Z",
    "zip": "79930"
  },
  {
    "address": "1715 W Cesar Chavez",
    "city": "Austin",
    "county": "Travis County",
    "created_at": "2012-01-04T20:17:35Z",
    "id": 22798,
    "latitude": "30.271750",
    "longitude": "-97.764071",
    "mascot": "Mr. Maroo",
    "name": "Austin High School",
    "primary_color": "Maroon",
    "secondary_color": "White",
    "state": "TX",
    "timezone": "America/Chicago",
    "updated_at": "2012-07-08T01:08:41Z",
    "zip": "78703"
  },
  {
    "address": "207 Redfish St",
    "city": "Tivoli",
    "county": "Refugio County",
    "created_at": "2012-01-04T20:17:35Z",
    "id": 22799,
    "latitude": "28.456710",
    "longitude": "-96.890886",
    "mascot": "Red Fish",
    "name": "Austwell-Tivoli Senior High School",
    "primary_color": "Red",
    "secondary_color": "White",
    "state": "TX",
    "timezone": "America/Chicago",
    "updated_at": "2012-07-08T01:08:41Z",
    "zip": "77990"
  },
  {
    "address": "104 FM 55",
    "city": "Avalon",
    "county": "Ellis County",
    "created_at": "2012-01-04T20:17:35Z",
    "id": 22800,
    "latitude": "32.204398",
    "longitude": "-96.792612",
    "mascot": "Eagles",
    "name": "Avalon School",
    "primary_color": "Orange",
    "secondary_color": "Gray",
    "state": "TX",
    "timezone": "America/Chicago",
    "updated_at": "2012-07-08T01:08:41Z",
    "zip": "76623"
  },
  {
    "address": "308 Ottawa St",
    "city": "Axtell",
    "county": "McLennan County",
    "created_at": "2012-01-04T20:17:35Z",
    "id": 22801,
    "latitude": "31.659989",
    "longitude": "-96.972784",
    "mascot": "Longhorns",
    "name": "Axtell ISD",
    "primary_color": "Red",
    "secondary_color": "White",
    "state": "TX",
    "timezone": "America/Chicago",
    "updated_at": "2012-07-08T01:08:42Z",
    "zip": "76624"
  },
  {
    "address": "1801 S Stewart",
    "city": "Azle",
    "county": "Parker County",
    "created_at": "2012-01-04T20:17:35Z",
    "id": 22802,
    "latitude": "32.882323",
    "longitude": "-97.575202",
    "mascot": null,
    "name": "Azle Christian School",
    "primary_color": null,
    "secondary_color": null,
    "state": "TX",
    "timezone": "America/Chicago",
    "updated_at": "2012-07-08T01:08:42Z",
    "zip": "76020"
  },
  {
    "address": "1200 Boyd Rd",
    "city": "Azle",
    "county": "Tarrant County",
    "created_at": "2012-01-04T20:17:35Z",
    "id": 22803,
    "latitude": "32.915809",
    "longitude": "-97.543511",
    "mascot": "Hornets",
    "name": "Azle High School",
    "primary_color": "Kelly Green",
    "secondary_color": "White",
    "state": "TX",
    "timezone": "America/Chicago",
    "updated_at": "2012-07-08T01:08:42Z",
    "zip": "76020"
  },
  {
    "address": "3434 South R L Thorton Freeway",
    "city": "Dallas",
    "county": "Dallas County",
    "created_at": "2012-01-04T20:17:35Z",
    "id": 22804,
    "latitude": "32.703174",
    "longitude": "-96.826120",
    "mascot": "Pegasus",
    "name": "B T Washington For The Performing Arts",
    "primary_color": "Royal",
    "secondary_color": "Black",
    "state": "TX",
    "timezone": "America/Chicago",
    "updated_at": "2012-07-08T01:08:42Z",
    "zip": "75224"
  },
  {
    "address": "600 W 7th St",
    "city": "Baird",
    "county": "Callahan County",
    "created_at": "2012-01-04T20:17:35Z",
    "id": 22805,
    "latitude": "32.397738",
    "longitude": "-99.397018",
    "mascot": "Bears",
    "name": "Baird High School",
    "primary_color": "Red",
    "secondary_color": "White",
    "state": "TX",
    "timezone": "America/Chicago",
    "updated_at": "2012-07-08T01:08:43Z",
    "zip": "79504"
  },
  {
    "address": "11524 Seagleville Rd",
    "city": "Balch Springs",
    "county": "Dallas County",
    "created_at": "2012-01-04T20:17:35Z",
    "id": 22806,
    "latitude": "32.719363",
    "longitude": "-96.616029",
    "mascot": "Crusaders",
    "name": "Balch Springs Christian Academy",
    "primary_color": "Gold",
    "secondary_color": "Royal",
    "state": "TX",
    "timezone": "America/Chicago",
    "updated_at": "2012-07-08T01:08:43Z",
    "zip": "75180"
  },
  {
    "address": "4115 Ave O",
    "city": "Galveston",
    "county": "Galveston County",
    "created_at": "2012-01-04T20:17:35Z",
    "id": 22807,
    "latitude": "29.300340",
    "longitude": "-94.791409",
    "mascot": "Tornadoes",
    "name": "Ball High School",
    "primary_color": "Gold",
    "secondary_color": "Purple",
    "state": "TX",
    "timezone": "America/Chicago",
    "updated_at": "2012-07-08T01:08:44Z",
    "zip": "77550"
  },
  {
    "address": "2107 Broadway",
    "city": "Ballinger",
    "county": "Runnels County",
    "created_at": "2012-01-04T20:17:35Z",
    "id": 22808,
    "latitude": "31.749506",
    "longitude": "-99.963636",
    "mascot": "Bearcats",
    "name": "Ballinger High School",
    "primary_color": "Red",
    "secondary_color": "Black",
    "state": "TX",
    "timezone": "America/Chicago",
    "updated_at": "2012-07-08T01:08:44Z",
    "zip": "76821"
  },
  {
    "address": "El Paso",
    "city": "Balmorhea",
    "county": "Reeves County",
    "created_at": "2012-01-04T20:17:35Z",
    "id": 22809,
    "latitude": "30.984845",
    "longitude": "-103.748104",
    "mascot": "Bears",
    "name": "Balmorhea Junior Senior High School",
    "primary_color": "Royal",
    "secondary_color": "White",
    "state": "TX",
    "timezone": "America/Chicago",
    "updated_at": "2012-07-08T01:08:44Z",
    "zip": "79718"
  },
  {
    "address": "474 Old San Antonio Hwy",
    "city": "Bandera",
    "county": "Bandera County",
    "created_at": "2012-01-04T20:17:35Z",
    "id": 22810,
    "latitude": "29.736090",
    "longitude": "-99.057769",
    "mascot": "Bulldogs",
    "name": "Bandera High School",
    "primary_color": "Royal",
    "secondary_color": "White",
    "state": "TX",
    "timezone": "America/Chicago",
    "updated_at": "2012-07-08T01:08:45Z",
    "zip": "78003"
  },
  {
    "address": "219 North 3rd",
    "city": "Bangs",
    "county": "Brown County",
    "created_at": "2012-01-04T20:17:35Z",
    "id": 22811,
    "latitude": "31.718412",
    "longitude": "-99.130041",
    "mascot": "Dragons",
    "name": "Bangs High School",
    "primary_color": "Kelly Green",
    "secondary_color": "White",
    "state": "TX",
    "timezone": "America/Chicago",
    "updated_at": "2012-07-08T01:08:45Z",
    "zip": "76823"
  },
  {
    "address": "4339 4th St",
    "city": "Banquete",
    "county": "Nueces County",
    "created_at": "2012-01-04T20:17:35Z",
    "id": 22812,
    "latitude": "27.805522",
    "longitude": "-97.796640",
    "mascot": "Bulldogs",
    "name": "Banquete High School",
    "primary_color": "Kelly Green",
    "secondary_color": "White",
    "state": "TX",
    "timezone": "America/Chicago",
    "updated_at": "2012-07-08T01:08:45Z",
    "zip": "78339"
  },
  {
    "address": "912 S Ervay St",
    "city": "Dallas",
    "county": "Dallas County",
    "created_at": "2012-01-04T20:17:35Z",
    "id": 22813,
    "latitude": "32.775289",
    "longitude": "-96.794138",
    "mascot": "Night Hawk",
    "name": "Barbara M Manns High School",
    "primary_color": "Gold ",
    "secondary_color": "Purple",
    "state": "TX",
    "timezone": "America/Chicago",
    "updated_at": "2012-07-08T01:08:45Z",
    "zip": "75201"
  },
  {
    "address": "9600 Eagle Dr",
    "city": "Mont Belvieu",
    "county": "Chambers County",
    "created_at": "2012-01-04T20:17:35Z",
    "id": 22814,
    "latitude": "29.838237",
    "longitude": "-94.851528",
    "mascot": "Eagles",
    "name": "Barbers Hill High School",
    "primary_color": "Royal",
    "secondary_color": "White",
    "state": "TX",
    "timezone": "America/Chicago",
    "updated_at": "2012-07-08T01:08:46Z",
    "zip": "77580"
  },
  {
    "address": "1614 Chambers St",
    "city": "Bastrop",
    "county": "Bastrop County",
    "created_at": "2012-01-04T20:17:35Z",
    "id": 22815,
    "latitude": "30.117820",
    "longitude": "-97.310307",
    "mascot": "Bears",
    "name": "Bastrop High School",
    "primary_color": "Maroon",
    "secondary_color": "White",
    "state": "TX",
    "timezone": "America/Chicago",
    "updated_at": "2012-07-08T01:08:46Z",
    "zip": "78602"
  },
  {
    "address": "4800 W Main St",
    "city": "League City",
    "county": "Galveston County",
    "created_at": "2012-01-04T20:17:35Z",
    "id": 22816,
    "latitude": "29.491917",
    "longitude": "-95.148613",
    "mascot": "Broncos",
    "name": "Bay Area Christian School",
    "primary_color": "Red",
    "secondary_color": "Navy",
    "state": "TX",
    "timezone": "America/Chicago",
    "updated_at": "2012-07-08T01:08:46Z",
    "zip": "77573"
  },
  {
    "address": "1507 Sycamore St",
    "city": "Bay City",
    "county": "Matagorda County",
    "created_at": "2012-01-04T20:17:35Z",
    "id": 22817,
    "latitude": "28.990174",
    "longitude": "-95.957209",
    "mascot": "Black Cats",
    "name": "Bay City High School",
    "primary_color": "Gold",
    "secondary_color": "Royal",
    "state": "TX",
    "timezone": "America/Chicago",
    "updated_at": "2012-07-08T01:08:47Z",
    "zip": "77414"
  },
  {
    "address": "302 W Cedar Bayou Lynchburg",
    "city": "Baytown",
    "county": "Harris County",
    "created_at": "2012-01-04T20:17:35Z",
    "id": 22818,
    "latitude": "29.777533",
    "longitude": "-94.970319",
    "mascot": "Saints",
    "name": "Baytown Christian Academy",
    "primary_color": "Royal",
    "secondary_color": "White",
    "state": "TX",
    "timezone": "America/Chicago",
    "updated_at": "2012-07-08T01:08:47Z",
    "zip": "77521"
  },
  {
    "address": "1 Bearcat Dr",
    "city": "Beckville",
    "county": "Panola County",
    "created_at": "2012-01-04T20:17:35Z",
    "id": 22819,
    "latitude": "32.243774",
    "longitude": "-94.456100",
    "mascot": "Bear Cats",
    "name": "Beckville Junior Senior High School",
    "primary_color": "Royal",
    "secondary_color": "White",
    "state": "TX",
    "timezone": "America/Chicago",
    "updated_at": "2012-07-08T01:08:49Z",
    "zip": "75631"
  },
  {
    "address": "325 Carolyn Dr",
    "city": "Bedford",
    "county": "Tarrant County",
    "created_at": "2012-01-04T20:17:35Z",
    "id": 22820,
    "latitude": "32.854369",
    "longitude": "-97.163567",
    "mascot": null,
    "name": "Bedford Junior High School",
    "primary_color": "Red",
    "secondary_color": "White",
    "state": "TX",
    "timezone": "America/Chicago",
    "updated_at": "2012-07-08T01:08:50Z",
    "zip": "76021"
  },
  {
    "address": "731 Yarbrough Dr",
    "city": "El Paso",
    "county": "El Paso County",
    "created_at": "2012-01-04T20:17:35Z",
    "id": 22821,
    "latitude": "31.747237",
    "longitude": "-106.345929",
    "mascot": "Highlanders",
    "name": "Bel Air High School",
    "primary_color": "Royal",
    "secondary_color": "Red",
    "state": "TX",
    "timezone": "America/Denver",
    "updated_at": "2012-07-08T01:08:50Z",
    "zip": "79915"
  },
  {
    "address": "13714 Lookout Rd",
    "city": "San Antonio",
    "county": "Bexar County",
    "created_at": "2012-01-04T20:17:35Z",
    "id": 22822,
    "latitude": "29.563663",
    "longitude": "-98.370077",
    "mascot": "Soldiers",
    "name": "Believer's Academy",
    "primary_color": "Navy",
    "secondary_color": "Maroon",
    "state": "TX",
    "timezone": "America/Chicago",
    "updated_at": "2012-07-08T01:08:50Z",
    "zip": "78233"
  },
  {
    "address": "1601 Brown Trl",
    "city": "Hurst",
    "county": "Tarrant County",
    "created_at": "2012-01-04T20:17:35Z",
    "id": 22823,
    "latitude": "32.842034",
    "longitude": "-97.159857",
    "mascot": "Blue Raiders",
    "name": "Bell Senior High School",
    "primary_color": "Royal",
    "secondary_color": "White",
    "state": "TX",
    "timezone": "America/Chicago",
    "updated_at": "2012-07-08T01:08:52Z",
    "zip": "76054"
  },
  {
    "address": "5100 Maple St",
    "city": "Bellaire",
    "county": "Harris County",
    "created_at": "2012-01-04T20:17:35Z",
    "id": 22824,
    "latitude": "29.691175",
    "longitude": "-95.468233",
    "mascot": "Cardinals",
    "name": "Bellaire High School",
    "primary_color": "Red",
    "secondary_color": "White",
    "state": "TX",
    "timezone": "America/Chicago",
    "updated_at": "2012-07-08T01:08:52Z",
    "zip": "77401"
  },
  {
    "address": "1550 Ole Ambrose Rd",
    "city": "Bells",
    "county": "Grayson County",
    "created_at": "2012-01-04T20:17:35Z",
    "id": 22825,
    "latitude": "33.633612",
    "longitude": "-96.406263",
    "mascot": "Panthers",
    "name": "Bells High School",
    "primary_color": "Ash Grey",
    "secondary_color": "Maroon",
    "state": "TX",
    "timezone": "America/Chicago",
    "updated_at": "2012-07-08T01:08:52Z",
    "zip": "75414"
  },
  {
    "address": "250 Schumann Rd",
    "city": "Bellville",
    "county": "Austin County",
    "created_at": "2012-01-04T20:17:35Z",
    "id": 22826,
    "latitude": "29.922548",
    "longitude": "-96.248263",
    "mascot": "Brahmas",
    "name": "Bellville High School",
    "primary_color": "Red",
    "secondary_color": "White",
    "state": "TX",
    "timezone": "America/Chicago",
    "updated_at": "2012-07-08T01:08:53Z",
    "zip": "77418"
  },
  {
    "address": "600 Lake Rd",
    "city": "Belton",
    "county": "Bell County",
    "created_at": "2012-01-04T20:17:35Z",
    "id": 22827,
    "latitude": "31.087946",
    "longitude": "-97.468410",
    "mascot": "Tigers",
    "name": "Belton High School",
    "primary_color": "Red",
    "secondary_color": "White",
    "state": "TX",
    "timezone": "America/Chicago",
    "updated_at": "2012-07-08T01:08:53Z",
    "zip": "76513"
  },
  {
    "address": "172 Badger Ln",
    "city": "Ben Bolt",
    "county": "Jim Wells County",
    "created_at": "2012-01-04T20:17:35Z",
    "id": 22828,
    "latitude": "27.647480",
    "longitude": "-98.084629",
    "mascot": "Badgers",
    "name": "Ben Bolt-Palito Blanco High School",
    "primary_color": "Royal",
    "secondary_color": "White",
    "state": "TX",
    "timezone": "America/Chicago",
    "updated_at": "2012-07-08T01:08:53Z",
    "zip": "78342"
  },
  {
    "address": "FM 2295",
    "city": "Benavides",
    "county": "Duval County",
    "created_at": "2012-01-04T20:17:35Z",
    "id": 22829,
    "latitude": "27.600205",
    "longitude": "-98.403654",
    "mascot": "Eagles",
    "name": "Benavides High School",
    "primary_color": "Red",
    "secondary_color": "White",
    "state": "TX",
    "timezone": "America/Chicago",
    "updated_at": "2012-07-08T01:08:53Z",
    "zip": "78341"
  },
  {
    "address": "11884 Greenville Ave Ste 120",
    "city": "Dallas",
    "county": "Dallas County",
    "created_at": "2012-01-04T20:17:35Z",
    "id": 22830,
    "latitude": "32.910812",
    "longitude": "-96.746200",
    "mascot": null,
    "name": "Bending Oaks High School",
    "primary_color": "Royal",
    "secondary_color": "White",
    "state": "TX",
    "timezone": "America/Chicago",
    "updated_at": "2012-07-08T01:08:53Z",
    "zip": "75243"
  },
  {
    "address": "300 Hayes St",
    "city": "Benjamin",
    "county": "Knox County",
    "created_at": "2012-01-04T20:17:35Z",
    "id": 22831,
    "latitude": "33.584019",
    "longitude": "-99.789805",
    "mascot": "Mustangs",
    "name": "Benjamin School",
    "primary_color": "Purple",
    "secondary_color": "White",
    "state": "TX",
    "timezone": "America/Chicago",
    "updated_at": "2012-07-08T01:08:54Z",
    "zip": "79505"
  },
  {
    "address": "702 Atascocita Rd",
    "city": "Humble",
    "county": "Harris County",
    "created_at": "2012-01-04T20:17:35Z",
    "id": 22832,
    "latitude": "29.960035",
    "longitude": "-95.257617",
    "mascot": "Eagles",
    "name": "Berean Christian School",
    "primary_color": "Navy",
    "secondary_color": "White",
    "state": "TX",
    "timezone": "America/Chicago",
    "updated_at": "2012-07-08T01:08:54Z",
    "zip": "77396"
  },
  {
    "address": "1600 E Spring Valley Rd",
    "city": "Richardson",
    "county": "Dallas County",
    "created_at": "2012-01-04T20:17:35Z",
    "id": 22833,
    "latitude": "32.938507",
    "longitude": "-96.694780",
    "mascot": "Rams",
    "name": "Berkner High School",
    "primary_color": "Kelly Green",
    "secondary_color": "White",
    "state": "TX",
    "timezone": "America/Chicago",
    "updated_at": "2012-07-08T01:08:54Z",
    "zip": "75081"
  },
  {
    "address": "6301 Alabama St",
    "city": "El Paso",
    "county": "El Paso County",
    "created_at": "2012-01-04T20:17:35Z",
    "id": 22834,
    "latitude": "31.834912",
    "longitude": "-106.456432",
    "mascot": "Knights",
    "name": "Bethel Temple Christian School",
    "primary_color": "Navy",
    "secondary_color": "Gray",
    "state": "TX",
    "timezone": "America/Denver",
    "updated_at": "2012-07-08T01:08:55Z",
    "zip": "79904"
  },
  {
    "address": "4700 N Beach St",
    "city": "Fort Worth",
    "county": "Tarrant County",
    "created_at": "2012-01-04T20:17:35Z",
    "id": 22835,
    "latitude": "32.827283",
    "longitude": "-97.290421",
    "mascot": "Ambassadors",
    "name": "Bethesda Christian School",
    "primary_color": "Gold",
    "secondary_color": "Royal",
    "state": "TX",
    "timezone": "America/Chicago",
    "updated_at": "2012-07-08T01:08:55Z",
    "zip": "76137"
  },
  {
    "address": "1606 30th St",
    "city": "Wichita Falls",
    "county": "Wichita County",
    "created_at": "2012-01-04T20:17:35Z",
    "id": 22836,
    "latitude": "33.883212",
    "longitude": "-98.496659",
    "mascot": "Warriors",
    "name": "Bible Baptist Christian School",
    "primary_color": "Red",
    "secondary_color": "White",
    "state": "TX",
    "timezone": "America/Chicago",
    "updated_at": "2012-07-08T01:08:55Z",
    "zip": "76302"
  },
  {
    "address": "4100 Republic St",
    "city": "Amarillo",
    "county": "Randall County",
    "created_at": "2012-01-04T20:17:35Z",
    "id": 22837,
    "latitude": "35.158476",
    "longitude": "-101.882844",
    "mascot": "Eagles",
    "name": "Bible Heritage School",
    "primary_color": "Royal",
    "secondary_color": "White",
    "state": "TX",
    "timezone": "America/Chicago",
    "updated_at": "2012-07-08T01:08:55Z",
    "zip": "79109"
  },
  {
    "address": "2281 Roadrunner Cir",
    "city": "Terlingua",
    "county": "Brewster County",
    "created_at": "2012-01-04T20:17:35Z",
    "id": 22838,
    "latitude": "29.317260",
    "longitude": "-103.532357",
    "mascot": "Roadrunners",
    "name": "Big Bend High School",
    "primary_color": "Teal",
    "secondary_color": "Maroon",
    "state": "TX",
    "timezone": "America/Chicago",
    "updated_at": "2012-07-08T01:08:56Z",
    "zip": "79852"
  },
  {
    "address": "9180 FM 1276",
    "city": "Dallardsville",
    "county": "Polk County",
    "created_at": "2012-01-04T20:17:35Z",
    "id": 22839,
    "latitude": "30.630860",
    "longitude": "-94.625799",
    "mascot": null,
    "name": "Big Sandy High School",
    "primary_color": null,
    "secondary_color": null,
    "state": "TX",
    "timezone": "America/Chicago",
    "updated_at": "2012-07-08T01:08:56Z",
    "zip": "77332"
  },
  {
    "address": "19th & 1801 S Goliad",
    "city": "Big Spring",
    "county": "Howard County",
    "created_at": "2012-01-04T20:17:35Z",
    "id": 22840,
    "latitude": "32.237650",
    "longitude": "-101.465289",
    "mascot": "Cardinals",
    "name": "Big Spring Alternative School",
    "primary_color": "Red",
    "secondary_color": "Black",
    "state": "TX",
    "timezone": "America/Chicago",
    "updated_at": "2012-07-08T01:08:57Z",
    "zip": "79720"
  },
  {
    "address": "HCR 01 Box 152A",
    "city": "Leakey",
    "county": "Real County",
    "created_at": "2012-01-04T20:17:35Z",
    "id": 22841,
    "latitude": "29.806400",
    "longitude": "-99.759088",
    "mascot": null,
    "name": "Big Spring Charter School",
    "primary_color": null,
    "secondary_color": null,
    "state": "TX",
    "timezone": "America/Chicago",
    "updated_at": "2012-07-08T01:08:57Z",
    "zip": "78873"
  },
  {
    "address": "707 E 11th Pl",
    "city": "Big Spring",
    "county": "Howard County",
    "created_at": "2012-01-04T20:17:35Z",
    "id": 22842,
    "latitude": "32.246149",
    "longitude": "-101.465240",
    "mascot": "Steers",
    "name": "Big Spring High School",
    "primary_color": "Gold",
    "secondary_color": "Black",
    "state": "TX",
    "timezone": "America/Chicago",
    "updated_at": "2012-07-08T01:08:58Z",
    "zip": "79720"
  },
  {
    "address": "5101 E McKinney",
    "city": "Denton",
    "county": "Denton County",
    "created_at": "2012-01-04T20:17:35Z",
    "id": 22843,
    "latitude": "33.208699",
    "longitude": "-97.077545",
    "mascot": "Raiders",
    "name": "Billy Ryan High School",
    "primary_color": "Red",
    "secondary_color": "White",
    "state": "TX",
    "timezone": "America/Chicago",
    "updated_at": "2012-07-08T01:08:58Z",
    "zip": "76208"
  },
  {
    "address": "3900 Rugged Dr",
    "city": "Dallas",
    "county": "Dallas County",
    "created_at": "2012-01-04T20:17:35Z",
    "id": 22844,
    "latitude": "32.696278",
    "longitude": "-96.851576",
    "mascot": "Falcons",
    "name": "Bishop Dunne High School",
    "primary_color": "Red",
    "secondary_color": "Royal",
    "state": "TX",
    "timezone": "America/Chicago",
    "updated_at": "2012-07-08T01:08:58Z",
    "zip": "75224"
  },
  {
    "address": "717 E 6th St",
    "city": "Bishop",
    "county": "Nueces County",
    "created_at": "2012-01-04T20:17:35Z",
    "id": 22845,
    "latitude": "27.580517",
    "longitude": "-97.792947",
    "mascot": "Badgers",
    "name": "Bishop High School",
    "primary_color": "Gold",
    "secondary_color": "Kelly Green",
    "state": "TX",
    "timezone": "America/Chicago",
    "updated_at": "2012-07-08T01:08:59Z",
    "zip": "78343"
  },
  {
    "address": "9750 Ferguson Rd",
    "city": "Dallas",
    "county": "Dallas County",
    "created_at": "2012-01-04T20:17:35Z",
    "id": 22846,
    "latitude": "32.819217",
    "longitude": "-96.681914",
    "mascot": "Friars",
    "name": "Bishop Lynch Catholic High School",
    "primary_color": "Black",
    "secondary_color": "White",
    "state": "TX",
    "timezone": "America/Chicago",
    "updated_at": "2012-07-08T01:08:59Z",
    "zip": "75228"
  },
  {
    "address": "1405 E Southeast Loop 323",
    "city": "Tyler",
    "county": "Smith County",
    "created_at": "2012-01-04T20:17:35Z",
    "id": 22847,
    "latitude": "32.305768",
    "longitude": "-95.284726",
    "mascot": "Crusaders",
    "name": "Bishop Thomas K Gorman Catholic School",
    "primary_color": "Hunter Green",
    "secondary_color": "White",
    "state": "TX",
    "timezone": "America/Chicago",
    "updated_at": "2012-07-08T01:08:59Z",
    "zip": "75701"
  },
  {
    "address": "610 N Alamo",
    "city": "Blackwell",
    "county": "Nolan County",
    "created_at": "2012-01-04T20:17:35Z",
    "id": 22848,
    "latitude": "32.089800",
    "longitude": "-100.322029",
    "mascot": "Hornets",
    "name": "Blackwell CISD School",
    "primary_color": "Kelly Green",
    "secondary_color": "White",
    "state": "TX",
    "timezone": "America/Chicago",
    "updated_at": "2012-07-08T01:08:59Z",
    "zip": "79506"
  },
  {
    "address": "1215 4th St",
    "city": "Blanco",
    "county": "Blanco County",
    "created_at": "2012-01-04T20:17:35Z",
    "id": 22849,
    "latitude": "30.100492",
    "longitude": "-98.430581",
    "mascot": "Panthers",
    "name": "Blanco High School",
    "primary_color": "Gold",
    "secondary_color": "Royal",
    "state": "TX",
    "timezone": "America/Chicago",
    "updated_at": "2012-07-08T01:09:00Z",
    "zip": "78606"
  },
  {
    "address": "PO Box 216",
    "city": "Merit",
    "county": "Hunt County",
    "created_at": "2012-01-04T20:17:35Z",
    "id": 22850,
    "latitude": "33.216620",
    "longitude": "-96.287389",
    "mascot": "Tigers",
    "name": "Bland High School",
    "primary_color": "Gold",
    "secondary_color": "Royal",
    "state": "TX",
    "timezone": "America/Chicago",
    "updated_at": "2012-07-08T01:09:00Z",
    "zip": "75458"
  },
  {
    "address": "1135 Mission Rd",
    "city": "San Antonio",
    "county": "Bexar County",
    "created_at": "2012-01-04T20:17:35Z",
    "id": 22851,
    "latitude": "29.386463",
    "longitude": "-98.490016",
    "mascot": "Jaguars",
    "name": "Blessed Sacrament Academy Charter High",
    "primary_color": "Maroon",
    "secondary_color": "Black",
    "state": "TX",
    "timezone": "America/Chicago",
    "updated_at": "2012-07-08T01:09:00Z",
    "zip": "78210"
  },
  {
    "address": "307 W Cypress St",
    "city": "Bloomburg",
    "county": "Cass County",
    "created_at": "2012-01-04T20:17:35Z",
    "id": 22852,
    "latitude": "33.135662",
    "longitude": "-94.061828",
    "mascot": "Wildcats",
    "name": "Bloomburg Independent School",
    "primary_color": "Royal",
    "secondary_color": "Gold",
    "state": "TX",
    "timezone": "America/Chicago",
    "updated_at": "2012-07-08T01:09:00Z",
    "zip": "75556"
  },
  {
    "address": "212 W Grady",
    "city": "Blooming Grove",
    "county": "Navarro County",
    "created_at": "2012-01-04T20:17:35Z",
    "id": 22853,
    "latitude": "32.087712",
    "longitude": "-96.713046",
    "mascot": "Lions",
    "name": "Blooming Grove High School",
    "primary_color": "Royal",
    "secondary_color": "White",
    "state": "TX",
    "timezone": "America/Chicago",
    "updated_at": "2012-07-08T01:09:00Z",
    "zip": "76626"
  },
  {
    "address": "2781 FM 616",
    "city": "Bloomington",
    "county": "Victoria County",
    "created_at": "2012-01-04T20:17:35Z",
    "id": 22854,
    "latitude": "28.655820",
    "longitude": "-96.879219",
    "mascot": "Bobcats",
    "name": "Bloomington High School",
    "primary_color": "Kelly Green",
    "secondary_color": "White",
    "state": "TX",
    "timezone": "America/Chicago",
    "updated_at": "2012-07-08T01:09:01Z",
    "zip": "77951"
  },
  {
    "address": "11020 CR 504",
    "city": "Blue Ridge",
    "county": "Collin County",
    "created_at": "2012-01-04T20:17:35Z",
    "id": 22855,
    "latitude": "33.309161",
    "longitude": "-96.405240",
    "mascot": "Tigers",
    "name": "Blue Ridge High School",
    "primary_color": "Black",
    "secondary_color": "Dark Green",
    "state": "TX",
    "timezone": "America/Chicago",
    "updated_at": "2012-07-08T01:09:01Z",
    "zip": "75424"
  },
  {
    "address": "123 W Johns Rd",
    "city": "Boerne",
    "county": "Kendall County",
    "created_at": "2012-01-04T20:17:35Z",
    "id": 22856,
    "latitude": "29.795965",
    "longitude": "-98.734900",
    "mascot": "Greyhounds",
    "name": "Boerne High School",
    "primary_color": "White",
    "secondary_color": "Purple",
    "state": "TX",
    "timezone": "America/Chicago",
    "updated_at": "2012-07-08T01:09:02Z",
    "zip": "78006"
  },
  {
    "address": "7071 FM 2101",
    "city": "Quinlan",
    "county": "Hunt County",
    "created_at": "2012-01-04T20:17:35Z",
    "id": 22857,
    "latitude": "32.959308",
    "longitude": "-96.056921",
    "mascot": "Hornets",
    "name": "Boles High School",
    "primary_color": "Hunter Green",
    "secondary_color": "White",
    "state": "TX",
    "timezone": "America/Chicago",
    "updated_at": "2012-07-08T01:09:02Z",
    "zip": "75474"
  },
  {
    "address": "407 Atlantic St",
    "city": "Boling",
    "county": "Wharton County",
    "created_at": "2012-01-04T20:17:35Z",
    "id": 22858,
    "latitude": "29.264351",
    "longitude": "-95.940373",
    "mascot": "Bulldogs",
    "name": "Boling High School",
    "primary_color": "Kelly Green",
    "secondary_color": "White",
    "state": "TX",
    "timezone": "America/Chicago",
    "updated_at": "2012-07-08T01:09:02Z",
    "zip": "77420"
  },
  {
    "address": "1002 Warpath St",
    "city": "Bonham",
    "county": "Fannin County",
    "created_at": "2012-01-04T20:17:35Z",
    "id": 22859,
    "latitude": "33.590076",
    "longitude": "-96.189490",
    "mascot": "Warriors",
    "name": "Bonham High School",
    "primary_color": "Purple",
    "secondary_color": "White",
    "state": "TX",
    "timezone": "America/Chicago",
    "updated_at": "2012-07-08T01:09:02Z",
    "zip": "75418"
  },
  {
    "address": "2201 E 21st St",
    "city": "Odessa",
    "county": "Ector County",
    "created_at": "2012-01-04T20:17:35Z",
    "id": 22860,
    "latitude": "31.870060",
    "longitude": "-102.352793",
    "mascot": "Owls",
    "name": "Bonham Junior High School",
    "primary_color": "Gray",
    "secondary_color": "Royal",
    "state": "TX",
    "timezone": "America/Chicago",
    "updated_at": "2012-07-08T01:09:02Z",
    "zip": "79761"
  },
  {
    "address": "Main & Mitchell Rd",
    "city": "Booker",
    "county": "Lipscomb County",
    "created_at": "2012-01-04T20:17:35Z",
    "id": 22861,
    "latitude": "36.448930",
    "longitude": "-100.538819",
    "mascot": "Warriors",
    "name": "Booker Junior High / High School",
    "primary_color": "Ash Grey",
    "secondary_color": "Maroon",
    "state": "TX",
    "timezone": "America/Chicago",
    "updated_at": "2012-07-08T01:09:03Z",
    "zip": "79005"
  },
  {
    "address": "119 E 39th St",
    "city": "Houston",
    "county": "Harris County",
    "created_at": "2012-01-04T20:17:35Z",
    "id": 22862,
    "latitude": "29.821326",
    "longitude": "-95.399076",
    "mascot": "Eagles",
    "name": "Booker T Washington High School",
    "primary_color": "Royal",
    "secondary_color": "Gold",
    "state": "TX",
    "timezone": "America/Chicago",
    "updated_at": "2012-07-08T01:09:03Z",
    "zip": "77018"
  },
  {
    "address": "240 W Kincaid",
    "city": "Gail",
    "county": "Borden County",
    "created_at": "2012-01-04T20:17:35Z",
    "id": 22863,
    "latitude": "32.775069",
    "longitude": "-101.449537",
    "mascot": "Coyotes",
    "name": "Borden County ISD School",
    "primary_color": "Columbia Blue",
    "secondary_color": "Red",
    "state": "TX",
    "timezone": "America/Chicago",
    "updated_at": "2012-07-08T01:09:03Z",
    "zip": "79738"
  },
  {
    "address": "600 W 1st St",
    "city": "Borger",
    "county": "Hutchinson County",
    "created_at": "2012-01-04T20:17:35Z",
    "id": 22864,
    "latitude": "35.665798",
    "longitude": "-101.394376",
    "mascot": "Bulldogs",
    "name": "Borger High School",
    "primary_color": "Red",
    "secondary_color": "White",
    "state": "TX",
    "timezone": "America/Chicago",
    "updated_at": "2012-07-08T01:09:04Z",
    "zip": "79007"
  },
  {
    "address": "7636 Rock Creek Rd",
    "city": "Waco",
    "county": "McLennan County",
    "created_at": "2012-01-04T20:17:35Z",
    "id": 22865,
    "latitude": "31.617921",
    "longitude": "-97.196403",
    "mascot": "Bulldogs",
    "name": "Bosqueville Middle/High School",
    "primary_color": "Blue",
    "secondary_color": "White",
    "state": "TX",
    "timezone": "America/Chicago",
    "updated_at": "2012-07-08T01:09:04Z",
    "zip": "76708"
  },
  {
    "address": "5100 El Campo Ave",
    "city": "Fort Worth",
    "county": "Tarrant County",
    "created_at": "2012-01-04T20:17:35Z",
    "id": 22866,
    "latitude": "32.736760",
    "longitude": "-97.396716",
    "mascot": "Blue Jays",
    "name": "Boulevard Heights School",
    "primary_color": "Royal",
    "secondary_color": "White",
    "state": "TX",
    "timezone": "America/Chicago",
    "updated_at": "2012-07-08T01:09:04Z",
    "zip": "76107"
  },
  {
    "address": "500 Halsell St",
    "city": "Bovina",
    "county": "Parmer County",
    "created_at": "2012-01-04T20:17:35Z",
    "id": 22867,
    "latitude": "34.514204",
    "longitude": "-102.888931",
    "mascot": "Mustangs",
    "name": "Bovina High School",
    "primary_color": "Maroon",
    "secondary_color": "White",
    "state": "TX",
    "timezone": "America/Chicago",
    "updated_at": "2012-07-08T01:09:04Z",
    "zip": "79009"
  },
  {
    "address": "800 N Mill",
    "city": "Bowie",
    "county": "Montague County",
    "created_at": "2012-01-04T20:17:35Z",
    "id": 22868,
    "latitude": "33.561280",
    "longitude": "-97.838279",
    "mascot": "Jack Rabbits",
    "name": "Bowie High School",
    "primary_color": "Maroon",
    "secondary_color": "White",
    "state": "TX",
    "timezone": "America/Chicago",
    "updated_at": "2012-07-08T01:09:05Z",
    "zip": "76230"
  },
  {
    "address": "801 S San Marcial St",
    "city": "El Paso",
    "county": "El Paso County",
    "created_at": "2012-01-04T20:17:35Z",
    "id": 22869,
    "latitude": "31.767632",
    "longitude": "-106.458207",
    "mascot": "Bears",
    "name": "Bowie High School",
    "primary_color": "Navy",
    "secondary_color": "White",
    "state": "TX",
    "timezone": "America/Denver",
    "updated_at": "2012-07-08T01:09:05Z",
    "zip": "79905"
  },
  {
    "address": "4103 Slaughter Ln",
    "city": "Austin",
    "county": "Travis County",
    "created_at": "2012-01-04T20:17:35Z",
    "id": 22870,
    "latitude": "30.189004",
    "longitude": "-97.856833",
    "mascot": "Bulldogs",
    "name": "Bowie High School",
    "primary_color": "Red",
    "secondary_color": "Black",
    "state": "TX",
    "timezone": "America/Chicago",
    "updated_at": "2012-07-08T01:09:05Z",
    "zip": "78749"
  },
  {
    "address": "500 W 21st Ave",
    "city": "Odessa",
    "county": "Ector County",
    "created_at": "2012-01-04T20:17:35Z",
    "id": 22871,
    "latitude": "31.860500",
    "longitude": "-102.384119",
    "mascot": "Horn Frogs",
    "name": "Bowie Junior High School",
    "primary_color": "Purple",
    "secondary_color": "White",
    "state": "TX",
    "timezone": "America/Chicago",
    "updated_at": "2012-07-08T01:09:05Z",
    "zip": "79760"
  },
  {
    "address": "2604 Galvaston",
    "city": "McAllen",
    "county": "Hidalgo County",
    "created_at": "2012-01-04T20:17:35Z",
    "id": 22872,
    "latitude": "26.199468",
    "longitude": "-98.251026",
    "mascot": null,
    "name": "Bowie School",
    "primary_color": "Royal",
    "secondary_color": "White",
    "state": "TX",
    "timezone": "America/Chicago",
    "updated_at": "2012-07-08T01:09:06Z",
    "zip": "78501"
  },
  {
    "address": "500 Knox Ave",
    "city": "Boyd",
    "county": "Wise County",
    "created_at": "2012-01-04T20:17:35Z",
    "id": 22873,
    "latitude": "33.075540",
    "longitude": "-97.570298",
    "mascot": "Yellow Jackets",
    "name": "Boyd High School",
    "primary_color": "Gold",
    "secondary_color": "Kelly Green",
    "state": "TX",
    "timezone": "America/Chicago",
    "updated_at": "2012-07-08T01:09:06Z",
    "zip": "76023"
  },
  {
    "address": "100 Main St",
    "city": "Boys Ranch",
    "county": "Oldham County",
    "created_at": "2012-01-04T20:17:35Z",
    "id": 22874,
    "latitude": "35.531441",
    "longitude": "-102.254082",
    "mascot": "Roughriders",
    "name": "Boys Ranch High School",
    "primary_color": "Royal",
    "secondary_color": "Gold",
    "state": "TX",
    "timezone": "America/Chicago",
    "updated_at": "2012-07-08T01:09:06Z",
    "zip": "79010"
  },
  {
    "address": "670 Old Boerne Rd",
    "city": "Bulverde",
    "county": "Comal County",
    "created_at": "2012-01-04T20:17:35Z",
    "id": 22875,
    "latitude": "29.793026",
    "longitude": "-98.428063",
    "mascot": "Warriors",
    "name": "Bracken Christian School",
    "primary_color": "Navy",
    "secondary_color": "White",
    "state": "TX",
    "timezone": "America/Chicago",
    "updated_at": "2012-07-08T01:09:07Z",
    "zip": "78163"
  },
  {
    "address": "400 Eagleland Dr",
    "city": "San Antonio",
    "county": "Bexar County",
    "created_at": "2012-01-04T20:17:35Z",
    "id": 22876,
    "latitude": "29.406157",
    "longitude": "-98.488067",
    "mascot": "Eagles",
    "name": "Brackenridge High School",
    "primary_color": "Purple",
    "secondary_color": "White",
    "state": "TX",
    "timezone": "America/Chicago",
    "updated_at": "2012-07-08T01:09:07Z",
    "zip": "78210"
  },
  {
    "address": "400 Ann St",
    "city": "Brackettville",
    "county": "Kinney County",
    "created_at": "2012-01-04T20:17:35Z",
    "id": 22877,
    "latitude": "29.318271",
    "longitude": "-100.412210",
    "mascot": "Tigers",
    "name": "Brackettville School",
    "primary_color": "Black",
    "secondary_color": "Gold",
    "state": "TX",
    "timezone": "America/Chicago",
    "updated_at": "2012-07-08T01:09:07Z",
    "zip": "78832"
  },
  {
    "address": "100 W Main St",
    "city": "Brady",
    "county": "McCulloch County",
    "created_at": "2012-01-04T20:17:35Z",
    "id": 22878,
    "latitude": "31.135548",
    "longitude": "-99.334988",
    "mascot": "Bulldogs",
    "name": "Brady High School",
    "primary_color": "Gold",
    "secondary_color": "Black",
    "state": "TX",
    "timezone": "America/Chicago",
    "updated_at": "2012-07-08T01:09:07Z",
    "zip": "76825"
  },
  {
    "address": "3000 W Villa Maria St",
    "city": "Bryan",
    "county": "Brazos County",
    "created_at": "2012-01-04T20:17:35Z",
    "id": 22879,
    "latitude": "30.616014",
    "longitude": "-96.399577",
    "mascot": "Eagles",
    "name": "Brazos Christian School",
    "primary_color": "Royal",
    "secondary_color": "White",
    "state": "TX",
    "timezone": "America/Chicago",
    "updated_at": "2012-07-08T01:09:08Z",
    "zip": "77807"
  },
  {
    "address": "16621 Hwy 36 S",
    "city": "Wallis",
    "county": "Austin County",
    "created_at": "2012-01-04T20:17:35Z",
    "id": 22880,
    "latitude": "29.638200",
    "longitude": "-96.080745",
    "mascot": "Cougars",
    "name": "Brazos High School",
    "primary_color": "Red",
    "secondary_color": "Black",
    "state": "TX",
    "timezone": "America/Chicago",
    "updated_at": "2012-07-08T01:09:08Z",
    "zip": "77485"
  },
  {
    "address": "1964 FM 199",
    "city": "Nemo",
    "county": "Somervell County",
    "created_at": "2012-01-04T20:17:35Z",
    "id": 22881,
    "latitude": "32.259558",
    "longitude": "-97.648526",
    "mascot": null,
    "name": "Brazos River Charter School",
    "primary_color": null,
    "secondary_color": null,
    "state": "TX",
    "timezone": "America/Chicago",
    "updated_at": "2012-07-08T01:09:08Z",
    "zip": "76070"
  },
  {
    "address": "802 Autumn Cir",
    "city": "College Station",
    "county": "Brazos County",
    "created_at": "2012-01-04T20:17:35Z",
    "id": 22882,
    "latitude": "30.639869",
    "longitude": "-96.327670",
    "mascot": null,
    "name": "Brazos School for Inquiry & Creativity",
    "primary_color": null,
    "secondary_color": null,
    "state": "TX",
    "timezone": "America/Chicago",
    "updated_at": "2012-07-08T01:09:08Z",
    "zip": "77840"
  },
  {
    "address": "200 B Willow Dr",
    "city": "Lake Jackson",
    "county": "Brazoria County",
    "created_at": "2012-01-04T20:17:35Z",
    "id": 22883,
    "latitude": "29.044799",
    "longitude": "-95.427744",
    "mascot": "Eagles",
    "name": "Brazosport Christian Secondary School ",
    "primary_color": "Gold ",
    "secondary_color": "Royal Blue",
    "state": "TX",
    "timezone": "America/Chicago",
    "updated_at": "2012-07-08T01:09:09Z",
    "zip": "77566"
  },
  {
    "address": "1800 W 2nd St",
    "city": "Freeport",
    "county": "Brazoria County",
    "created_at": "2012-01-04T20:17:35Z",
    "id": 22884,
    "latitude": "28.957266",
    "longitude": "-95.371048",
    "mascot": "Exporters",
    "name": "Brazosport High School",
    "primary_color": "Red",
    "secondary_color": "White",
    "state": "TX",
    "timezone": "America/Chicago",
    "updated_at": "2012-07-08T01:09:09Z",
    "zip": "77541"
  },
  {
    "address": "302 W Brazoswood Dr",
    "city": "Clute",
    "county": "Brazoria County",
    "created_at": "2012-01-04T20:17:36Z",
    "id": 22885,
    "latitude": "29.025023",
    "longitude": "-95.412464",
    "mascot": "Buccaneers",
    "name": "Brazoswood 9th Grade Center",
    "primary_color": "Gray",
    "secondary_color": "Royal",
    "state": "TX",
    "timezone": "America/Chicago",
    "updated_at": "2012-07-08T01:09:09Z",
    "zip": "77531"
  },
  {
    "address": "302 W Brazoswood Drive",
    "city": "Clute",
    "county": "Brazoria County",
    "created_at": "2012-01-04T20:17:36Z",
    "id": 22886,
    "latitude": "29.025023",
    "longitude": "-95.412464",
    "mascot": "Buccaneers",
    "name": "Brazoswood High School",
    "primary_color": "Columbia Blue",
    "secondary_color": "Silver",
    "state": "TX",
    "timezone": "America/Chicago",
    "updated_at": "2012-07-08T01:09:10Z",
    "zip": "77531"
  },
  {
    "address": "500 W Lindsey St",
    "city": "Breckenridge",
    "county": "Stephens County",
    "created_at": "2012-01-04T20:17:36Z",
    "id": 22887,
    "latitude": "32.758347",
    "longitude": "-98.907683",
    "mascot": "Buckaroos",
    "name": "Breckenridge High School",
    "primary_color": "Kelly Green",
    "secondary_color": "White",
    "state": "TX",
    "timezone": "America/Chicago",
    "updated_at": "2012-07-08T01:09:10Z",
    "zip": "76424"
  },
  {
    "address": "601 W Collins St",
    "city": "Bremond",
    "county": "Robertson County",
    "created_at": "2012-01-04T20:17:36Z",
    "id": 22888,
    "latitude": "31.168310",
    "longitude": "-96.680595",
    "mascot": "Tigers",
    "name": "Bremond School",
    "primary_color": "Red",
    "secondary_color": "White",
    "state": "TX",
    "timezone": "America/Chicago",
    "updated_at": "2012-07-08T01:09:10Z",
    "zip": "76629"
  },
  {
    "address": "525 A H Ehrig Dr",
    "city": "Brenham",
    "county": "Washington County",
    "created_at": "2012-01-04T20:17:36Z",
    "id": 22889,
    "latitude": "30.181389",
    "longitude": "-96.400239",
    "mascot": "Lion Cubs",
    "name": "Brenham High School",
    "primary_color": "Kelly Green",
    "secondary_color": "White",
    "state": "TX",
    "timezone": "America/Chicago",
    "updated_at": "2012-07-08T01:09:10Z",
    "zip": "77833"
  },
  {
    "address": "11908 N Lamar Blvd",
    "city": "Austin",
    "county": "Travis County",
    "created_at": "2012-01-04T20:17:36Z",
    "id": 22890,
    "latitude": "30.390727",
    "longitude": "-97.682367",
    "mascot": "Bears",
    "name": "Brentwood Christian School",
    "primary_color": "Kelly Green",
    "secondary_color": "Gold",
    "state": "TX",
    "timezone": "America/Chicago",
    "updated_at": "2012-07-08T01:09:11Z",
    "zip": "78753"
  },
  {
    "address": "1025 West Loop 820 North",
    "city": "Fort Worth",
    "county": "Tarrant County",
    "created_at": "2012-01-04T20:17:36Z",
    "id": 22891,
    "latitude": "32.776594",
    "longitude": "-97.474502",
    "mascot": "Bears",
    "name": "Brewer High School",
    "primary_color": "Royal",
    "secondary_color": "White",
    "state": "TX",
    "timezone": "America/Chicago",
    "updated_at": "2012-07-08T01:09:12Z",
    "zip": "76108"
  },
  {
    "address": "2690 Texas Ave",
    "city": "Bridge City",
    "county": "Orange County",
    "created_at": "2012-01-04T20:17:36Z",
    "id": 22892,
    "latitude": "30.040648",
    "longitude": "-93.825582",
    "mascot": "Cardinals",
    "name": "Bridge City High School",
    "primary_color": "Red",
    "secondary_color": "White",
    "state": "TX",
    "timezone": "America/Chicago",
    "updated_at": "2012-07-08T01:09:12Z",
    "zip": "77611"
  },
  {
    "address": "1 Maroon Dr",
    "city": "Bridgeport",
    "county": "Wise County",
    "created_at": "2012-01-04T20:17:36Z",
    "id": 22893,
    "latitude": "33.211458",
    "longitude": "-97.739798",
    "mascot": "Bulls",
    "name": "Bridgeport High School",
    "primary_color": "Maroon",
    "secondary_color": "White",
    "state": "TX",
    "timezone": "America/Chicago",
    "updated_at": "2012-07-08T01:09:12Z",
    "zip": "76426"
  },
  {
    "address": "2507 Central Freeway E",
    "city": "Wichita Falls",
    "county": "Wichita County",
    "created_at": "2012-01-04T20:17:36Z",
    "id": 22894,
    "latitude": "33.885050",
    "longitude": "-98.449600",
    "mascot": null,
    "name": "Bright Ideas Charter School",
    "primary_color": null,
    "secondary_color": null,
    "state": "TX",
    "timezone": "America/Chicago",
    "updated_at": "2012-07-08T01:09:12Z",
    "zip": "76302"
  },
  {
    "address": "3418 Airline Rd",
    "city": "Corpus Christi",
    "county": "Nueces County",
    "created_at": "2012-01-04T20:17:36Z",
    "id": 22895,
    "latitude": "27.667222",
    "longitude": "-97.364697",
    "mascot": "Bears",
    "name": "Brighton Park Baptist School And Daycare",
    "primary_color": "Navy",
    "secondary_color": "Hunter Green",
    "state": "TX",
    "timezone": "America/Chicago",
    "updated_at": "2012-07-08T01:09:12Z",
    "zip": "78414"
  },
  {
    "address": "1 Bulldog Plaza",
    "city": "Broaddus",
    "county": "San Augustine County",
    "created_at": "2012-01-04T20:17:36Z",
    "id": 22896,
    "latitude": "31.250644",
    "longitude": "-94.204134",
    "mascot": "Bulldogs",
    "name": "Broaddus High School",
    "primary_color": "Royal",
    "secondary_color": "White",
    "state": "TX",
    "timezone": "America/Chicago",
    "updated_at": "2012-07-08T01:09:13Z",
    "zip": "75929"
  },
  {
    "address": "100 Grindstone Rd",
    "city": "Weatherford",
    "county": "Parker County",
    "created_at": "2012-01-04T20:17:36Z",
    "id": 22897,
    "latitude": "32.675999",
    "longitude": "-97.941336",
    "mascot": "Eagles",
    "name": "Brock High School",
    "primary_color": "Gold",
    "secondary_color": "Royal",
    "state": "TX",
    "timezone": "America/Chicago",
    "updated_at": "2012-07-08T01:09:13Z",
    "zip": "76087"
  },
  {
    "address": "Rt#2 Box 18 Loop 149",
    "city": "Brookeland",
    "county": "Jasper County",
    "created_at": "2012-01-04T20:17:36Z",
    "id": 22898,
    "latitude": "31.101376",
    "longitude": "-94.011115",
    "mascot": "Wildcats",
    "name": "Brookeland High School",
    "primary_color": "Royal Blue",
    "secondary_color": "Gold",
    "state": "TX",
    "timezone": "America/Chicago",
    "updated_at": "2012-07-08T01:09:14Z",
    "zip": "75931"
  },
  {
    "address": "120 Bert Brown St",
    "city": "San Marcos",
    "county": "Hays County",
    "created_at": "2012-01-04T20:17:36Z",
    "id": 22899,
    "latitude": "29.895389",
    "longitude": "-97.924727",
    "mascot": "Panthers",
    "name": "Brown Schools San Marcos Center",
    "primary_color": "Purple",
    "secondary_color": "White",
    "state": "TX",
    "timezone": "America/Chicago",
    "updated_at": "2012-07-08T01:09:15Z",
    "zip": "78667"
  },
  {
    "address": "701 Cub Dr",
    "city": "Brownfield",
    "county": "Terry County",
    "created_at": "2012-01-04T20:17:36Z",
    "id": 22900,
    "latitude": "33.172939",
    "longitude": "-102.261472",
    "mascot": "Cubs",
    "name": "Brownfield High School",
    "primary_color": "Red",
    "secondary_color": "White",
    "state": "TX",
    "timezone": "America/Chicago",
    "updated_at": "2012-07-08T01:09:15Z",
    "zip": "79316"
  },
  {
    "address": "13942 State Hwy. 31E",
    "city": "Brownsboro",
    "county": "Henderson County",
    "created_at": "2012-01-04T20:17:36Z",
    "id": 22901,
    "latitude": "32.301739",
    "longitude": "-95.621678",
    "mascot": "Bears",
    "name": "Brownsboro High School",
    "primary_color": "Gold",
    "secondary_color": "Royal",
    "state": "TX",
    "timezone": "America/Chicago",
    "updated_at": "2012-07-08T01:09:15Z",
    "zip": "75756"
  },
  {
    "address": "1351 E Polk St",
    "city": "Brownsville",
    "county": "Cameron County",
    "created_at": "2012-01-04T20:17:36Z",
    "id": 22902,
    "latitude": "25.906067",
    "longitude": "-97.489915",
    "mascot": null,
    "name": "Brownsville Alternative Learning Academy",
    "primary_color": "Royal",
    "secondary_color": "White",
    "state": "TX",
    "timezone": "America/Chicago",
    "updated_at": "2012-07-08T01:09:15Z",
    "zip": "78521"
  },
  {
    "address": "243 Old Port Isabel Rd",
    "city": "Brownsville",
    "county": "Cameron County",
    "created_at": "2012-01-04T20:17:36Z",
    "id": 22903,
    "latitude": "25.925174",
    "longitude": "-97.478676",
    "mascot": null,
    "name": "Brownsville SDA School",
    "primary_color": "Navy",
    "secondary_color": "White",
    "state": "TX",
    "timezone": "America/Chicago",
    "updated_at": "2012-07-08T01:09:16Z",
    "zip": "78520"
  },
  {
    "address": "2455 Price Rd",
    "city": "Brownsville",
    "county": "Cameron County",
    "created_at": "2012-01-04T20:17:36Z",
    "id": 22904,
    "latitude": "25.934745",
    "longitude": "-97.484066",
    "mascot": null,
    "name": "Brownsville Teachers C U",
    "primary_color": "Red",
    "secondary_color": "Black",
    "state": "TX",
    "timezone": "America/Chicago",
    "updated_at": "2012-07-08T01:09:16Z",
    "zip": "78521"
  },
  {
    "address": "2100 Slayden & 10th",
    "city": "Brownwood",
    "county": "Brown County",
    "created_at": "2012-01-04T20:17:36Z",
    "id": 22905,
    "latitude": "31.692479",
    "longitude": "-98.980284",
    "mascot": "Lions",
    "name": "Brownwood High School",
    "primary_color": "Maroon",
    "secondary_color": "White",
    "state": "TX",
    "timezone": "America/Chicago",
    "updated_at": "2012-07-08T01:09:16Z",
    "zip": "76801"
  },
  {
    "address": "1 Eagle Dr",
    "city": "Eddy",
    "county": "McLennan County",
    "created_at": "2012-01-04T20:17:36Z",
    "id": 22906,
    "latitude": "31.295619",
    "longitude": "-97.253374",
    "mascot": "Eagles",
    "name": "Bruceville-Eddy High School",
    "primary_color": "Gold",
    "secondary_color": "White",
    "state": "TX",
    "timezone": "America/Chicago",
    "updated_at": "2012-07-08T01:09:16Z",
    "zip": "76524"
  },
  {
    "address": "2101 Millmar Drive",
    "city": "Dallas",
    "county": "Dallas County",
    "created_at": "2012-01-04T20:17:36Z",
    "id": 22907,
    "latitude": "32.826530",
    "longitude": "-96.680263",
    "mascot": "Cougars",
    "name": "Bryan Adams High School",
    "primary_color": "Kelly Green",
    "secondary_color": "White",
    "state": "TX",
    "timezone": "America/Chicago",
    "updated_at": "2012-07-08T01:09:18Z",
    "zip": "75228"
  },